timestamp -- motor_step_command,mfc1_stpt,mfc2_stpt,mfc3_stpt,led1_stpt,led2_stpt,sig_status,ft_posx,ft_posy,ft_frame,ft_error,ft_roll,ft_pitch,ft_yaw,ft_heading,adapted_center,instrip,mode,strip_thresh
03/26/2024-10:50:42.754220 -- 800002,0.3,0.0,0.0,1.0,0.0,0,-0.07652561019632403,0.3555354864479998,120,5900.6241289199,-0.016601555216782,-0.028383974509344,0.10157383594167,6.2671092784028,nan,False,live,nan
03/26/2024-10:50:42.786062 -- 800020,0.3,0.0,0.0,1.0,0.0,0,-0.291070297461675,0.34696669712879924,122,5820.3714285714,0.00096448000735111,-0.031301625639754,0.059741752949903,6.1226907889874,nan,False,live,nan
03/26/2024-10:50:42.806327 -- 800020,0.3,0.0,0.0,1.0,0.0,0,-0.314216309187744,0.4015310275493995,123,5672.1444883619,0.019194642482769,-0.0046797195495048,0.0031148645043903,6.119575924483,nan,False,live,nan
03/26/2024-10:50:42.837161 -- 800012,0.3,0.0,0.0,1.0,0.0,0,-0.28056583924236,0.4138697225432999,125,5445.5948313622,0.0036377754661941,-0.010701368796429,-0.035000999768862,6.1856026294616,nan,False,live,nan
03/26/2024-10:50:42.855903 -- 800008,0.3,0.0,0.0,1.0,0.0,0,-0.25029219969927274,0.4127372634512998,126,5281.1303400174,-0.0012147609071215,0.010025269821802,-0.028781240600439,6.2143838700621,nan,False,live,nan
03/26/2024-10:50:42.886219 -- 800010,0.3,0.0,0.0,1.0,0.0,0,-0.28714535023501503,0.38976751280399924,128,5558.2048823017,-0.0012391994367113,-0.0071105637381928,0.014944300932942,6.1987443169144,nan,False,live,nan
03/26/2024-10:50:42.921113 -- 800012,0.3,0.0,0.0,1.0,0.0,0,-0.28194883811556903,0.3819019701299986,130,5366.8898083624,-0.0011025563980893,0.0020162498199585,-0.00096636488233199,6.1840759694734,nan,False,live,nan
03/26/2024-10:50:42.955042 -- 800012,0.3,0.0,0.0,1.0,0.0,0,-0.248289751961961,0.3659148635357994,132,5301.9777874564,-0.0026772947617894,0.011982991542782,-0.00091920627975904,6.1886263877254,nan,False,live,nan
03/26/2024-10:50:42.989231 -- 800011,0.3,0.0,0.0,1.0,0.0,0,-0.23325959131310342,0.3478979260277981,134,5002.3506097561,-0.0046783543707618,0.002050163485326,-0.0016377131153687,6.1920646419175,nan,False,live,nan
03/26/2024-10:50:43.023396 -- 800012,0.3,0.0,0.0,1.0,0.0,0,-0.24392393128086604,0.34915556238059864,136,4887.6977351916,-0.0016572402852594,-0.0057248464904578,0.0030432004341542,6.1888291982515,nan,False,live,nan
03/26/2024-10:50:43.056142 -- 800011,0.3,0.0,0.0,1.0,0.0,0,-0.22822585241614557,0.34896555749010005,138,4617.9512195122,0.00040017108410674,6.0552029938157e-08,0.0033166081468156,6.1916105884608,nan,False,live,nan
03/26/2024-10:50:43.089567 -- 800012,0.3,0.0,0.0,1.0,0.0,0,-0.24558184566172264,0.3369883010567989,140,4420.3967770035,0.0006286363033457,-0.0046714579148703,0.0043531133900821,6.1839769140923,nan,False,live,nan
03/26/2024-10:50:43.120886 -- 800012,0.3,0.0,0.0,1.0,0.0,0,-0.23345023900434184,0.3369239742536987,142,4358.662745098,0.00058099163134025,0.0035873855525327,-0.001121977954256,6.1880684449126,nan,False,live,nan
03/26/2024-10:50:43.139883 -- 800012,0.3,0.0,0.0,1.0,0.0,0,-0.23338311990789873,0.3364739072843985,143,4228.9350762527,-0.00015146941846343,8.0165625236953e-06,9.4982545366517e-05,6.1879734623672,nan,False,live,nan
03/26/2024-10:50:43.173528 -- 800012,0.3,0.0,0.0,1.0,0.0,0,-0.23610930547022702,0.3389667497798996,145,4272.8980836237,0.00032045821510734,-0.0017386788687695,0.001039362892286,6.1853447403534,nan,False,live,nan
03/26/2024-10:50:43.207250 -- 800012,0.3,0.0,0.0,1.0,0.0,0,-0.25653825012421444,0.3365391106832991,147,4442.9960801394,-9.7537320135599e-05,-0.0053657758984349,0.0011498255718598,6.1823529539089,nan,False,live,nan
03/26/2024-10:50:43.239653 -- 800012,0.3,0.0,0.0,1.0,0.0,0,-0.23526976909989844,0.33148661234219823,149,4239.1281045752,-0.0017187792319365,0.0098565042626882,0.00091309720877494,6.1827925283028,nan,False,live,nan
03/26/2024-10:50:43.271993 -- 800012,0.3,0.0,0.0,1.0,0.0,0,-0.23233471826223423,0.33432194297849804,151,4048.7528334786,0.001825874679458,0.0074818531014381,-0.0010265559673291,6.1843679652898,nan,False,live,nan
03/26/2024-10:50:43.305424 -- 800012,0.3,0.0,0.0,1.0,0.0,0,-0.24214641397675143,0.33208335146789913,153,3891.7812636166,-0.002167784275268,0.0015846577068852,-0.00037832736787044,6.1832729078734,nan,False,live,nan
03/26/2024-10:50:43.341036 -- 800013,0.3,0.0,0.0,1.0,0.0,0,-0.25892398694592,0.33257710490039827,155,4075.969472307,0.0025075445436043,-0.0065914280262718,0.0027625489412816,6.1807279107132,nan,False,live,nan
03/26/2024-10:50:43.370782 -- 800012,0.3,0.0,0.0,1.0,0.0,0,-0.23441952457469103,0.33408684100080066,157,3858.1866550371,-0.00044839865956536,0.003473774315601,-0.0033781350066082,6.1869617477186,nan,False,live,nan
03/26/2024-10:50:43.390981 -- 800011,0.3,0.0,0.0,1.0,0.0,0,-0.23140753773100653,0.34441961596439974,158,3885.304973822,0.0033348692943069,0.0013227206592814,-0.0045234804986371,6.1914852282172,nan,False,live,nan
03/26/2024-10:50:43.423087 -- 800012,0.3,0.0,0.0,1.0,0.0,0,-0.23720381747293623,0.3395308272689981,160,3669.4219703575,-0.0023499533353782,-0.002735949147505,0.0057062046740089,6.1864849160185,nan,False,live,nan
03/26/2024-10:50:43.457380 -- 800012,0.3,0.0,0.0,1.0,0.0,0,-0.23415341449728513,0.33532058740409987,162,3438.1614310646,0.00060799155212615,0.0021252579189332,-0.0025910330587631,6.1873351956853,nan,False,live,nan
03/26/2024-10:50:43.489777 -- 800012,0.3,0.0,0.0,1.0,0.0,0,-0.23309989707917614,0.33377871460949926,164,3100.341761116,-0.00053891866300993,0.00014370296199757,0.0014447704400562,6.1870464685844,nan,False,live,nan
03/26/2024-10:50:43.522483 -- 800012,0.3,0.0,0.0,1.0,0.0,0,-0.2376871580159967,0.33856520471789864,166,3190.7698343505,0.00079661385142655,-0.00063968402439375,0.00037741724898093,6.1863802543569,nan,False,live,nan
03/26/2024-10:50:43.556483 -- 800012,0.3,0.0,0.0,1.0,0.0,0,-0.24077409814149964,0.3376072013187006,168,2953.5220235499,-0.0009415312030199,-0.00071262442265385,0.0003095012239245,6.1860733186481,nan,False,live,nan
03/26/2024-10:50:43.590138 -- 800012,0.3,0.0,0.0,1.0,0.0,0,-0.24291021260584053,0.33482316695279835,170,2939.9860383944,-0.00042060861495241,0.00061805448307167,-0.0012068198141673,6.1864161533132,nan,False,live,nan
03/26/2024-10:50:43.622983 -- 800012,0.3,0.0,0.0,1.0,0.0,0,-0.24228182803452872,0.33479174585669824,172,2998.2593722755,0.00020035842560738,0.00014139186124144,0.00023369877510701,6.1868019235962,nan,False,live,nan
03/26/2024-10:50:43.657325 -- 800012,0.3,0.0,0.0,1.0,0.0,0,-0.24260238606248402,0.33404104962239956,174,2908.327510917,-0.0003940667018436,-0.00026786759241564,-0.00016310633074166,6.1868205088268,nan,False,live,nan
03/26/2024-10:50:43.688551 -- 800012,0.3,0.0,0.0,1.0,0.0,0,-0.24333928302176494,0.3496048933853988,176,4178.3179241169,0.0057813478354308,-0.0012000431144882,-9.6305611741482e-05,6.1876313867898,nan,False,live,nan
03/26/2024-10:50:43.725997 -- 800012,0.3,0.0,0.0,1.0,0.0,0,-0.30050930061087,0.5072043099605992,178,4234.5549692172,0.022346890065434,-0.0081641299128065,-0.00078682395778053,6.1886790181257,nan,False,live,nan
03/26/2024-10:50:43.757735 -- 800005,0.3,0.0,0.0,1.0,0.0,0,-0.43053641478816906,0.6231956002247987,180,4588.5810870526,0.016028105867653,-0.012705446089364,-0.028688193084526,6.236135645151,nan,False,live,nan
03/26/2024-10:50:43.789391 -- 800007,0.3,0.0,0.0,1.0,0.0,0,-0.545118678129015,0.7001364045861003,182,4561.7132058693,0.021606799641536,-0.016456077716644,0.0098540705294396,6.2279915850813,nan,False,live,nan
03/26/2024-10:50:43.822502 -- 800016,0.3,0.0,0.0,1.0,0.0,0,-0.7503984227228251,0.8551118868548997,184,4979.6678619453,0.034348539552357,-0.039192112200444,0.031652002701821,6.1551509120821,nan,False,live,nan
03/26/2024-10:50:43.856453 -- 800025,0.3,0.0,0.0,1.0,0.0,0,-0.894518276158665,1.1166557760188986,186,5278.4149034039,0.057801346112968,-0.01471343671531,0.038564918648221,6.0818341587278,nan,False,live,nan
03/26/2024-10:50:43.889198 -- 800030,0.3,0.0,0.0,1.0,0.0,0,-0.707229364526445,1.333534926733499,188,5805.1971702419,0.0043998224212932,0.04186609158954,0.010513292130602,6.0422888902083,nan,False,live,nan
03/26/2024-10:50:43.920651 -- 800017,0.3,0.0,0.0,1.0,0.0,0,-0.651344632301355,1.6585880214425988,190,6439.3721993599,0.047347126674151,0.02698543907655,-0.065420410802909,6.1452771055299,nan,False,live,nan
03/26/2024-10:50:43.939489 -- 800005,0.3,0.0,0.0,1.0,0.0,0,-0.6794828344471051,1.757879288823899,191,6207.2311580882,0.033813820210493,-0.0063947071559753,-0.097332185399825,6.2426092909297,nan,False,live,nan
03/26/2024-10:50:43.974230 -- 799991,0.3,0.0,0.0,1.0,0.0,0,-0.640606286473935,1.940837735595899,193,6567.1279554937,0.012809269349962,0.014454544791265,-0.033175058020159,0.067956633307247,nan,False,live,nan
03/26/2024-10:50:44.005373 -- 799994,0.3,0.0,0.0,1.0,0.0,0,-0.673547138738745,2.0667865313967013,195,6880.6328545781,0.012232453718594,-0.00580950681344,0.040186236567754,0.042390224228221,nan,False,live,nan
03/26/2024-10:50:44.039274 -- 799998,0.3,0.0,0.0,1.0,0.0,0,-0.684980207975475,2.3042202311645994,197,7069.3961485557,0.053270599549772,0.0029975013393019,0.031496234154844,0.0080601990070474,nan,False,live,nan
03/26/2024-10:50:44.072508 -- 800012,0.3,0.0,0.0,1.0,0.0,0,-0.678816710259435,2.4989650987653,199,7964.9742054353,0.019971362007017,0.0023184946477478,0.045194009217719,6.1888804191441,nan,False,live,nan
03/26/2024-10:50:44.105395 -- 800013,0.3,0.0,0.0,1.0,0.0,0,-0.844383393197355,2.6446435755707984,201,7773.5720108696,0.029785741940916,-0.013799085178669,-0.028425641515933,6.1807528844827,nan,False,live,nan
03/26/2024-10:50:44.137151 -- 799997,0.3,0.0,0.0,1.0,0.0,0,-0.862490408733645,2.8260842656727974,203,8156.9940421632,0.033656026456369,-0.0069705134139641,-0.045911995461563,0.018838441723468,nan,False,live,nan
03/26/2024-10:50:44.157485 -- 800000,0.3,0.0,0.0,1.0,0.0,0,-0.918810383316615,2.852419401808799,204,7866.572450805,0.0086120549215135,-0.018850558721967,0.019979795311614,6.2820439535914,nan,False,live,nan
03/26/2024-10:50:44.189046 -- 800014,0.3,0.0,0.0,1.0,0.0,0,-1.041440769693675,2.9422306885787997,206,8384.8131176999,0.013741029162958,-0.018207850322226,0.049577187433254,6.1706635770064,nan,False,live,nan
03/26/2024-10:50:44.224806 -- 800009,0.3,0.0,0.0,1.0,0.0,0,-1.065882799069725,3.037307918681101,208,8463.5879732739,0.00915716073452,0.01816313725183,-0.02973709529944,6.2063745840986,nan,False,live,nan
03/26/2024-10:50:44.257684 -- 800014,0.3,0.0,0.0,1.0,0.0,0,-1.066699182089025,3.1244175155057974,210,8188.1533333333,0.0023909966849239,-0.0075255777078525,0.037420644496367,6.1672759722645,nan,False,live,nan
03/26/2024-10:50:44.289029 -- 800010,0.3,0.0,0.0,1.0,0.0,0,-0.9406225415326951,3.178185177853198,212,8436.1454545455,0.0069074691657157,0.03425759243937,-0.0054109152493784,6.1968953389992,nan,False,live,nan
03/26/2024-10:50:44.322619 -- 800002,0.3,0.0,0.0,1.0,0.0,0,-0.855941070168975,3.229490854604398,214,8023.3645924628,-0.0038751597570429,0.0017706542898003,-0.011608626977366,6.2623878728545,nan,False,live,nan
03/26/2024-10:50:44.356888 -- 800009,0.3,0.0,0.0,1.0,0.0,0,-1.0312997911396051,3.2087412857384976,216,8089.7881578947,-0.012260041106165,-0.047274826713297,0.069814215979527,6.2083402284388,nan,False,live,nan
03/26/2024-10:50:44.389955 -- 800020,0.3,0.0,0.0,1.0,0.0,0,-1.175315311606005,3.2093668868552996,218,8119.0588495575,0.0074849970739337,-0.024719862447651,0.032769609526483,6.1222902451383,nan,False,live,nan
03/26/2024-10:50:44.422581 -- 800016,0.3,0.0,0.0,1.0,0.0,0,-1.1561933328542549,3.216430938772799,220,8284.9912280702,-0.0039655318595557,0.0068959309482907,-0.035945001747607,6.1506865438892,nan,False,live,nan
03/26/2024-10:50:44.456518 -- 800016,0.3,0.0,0.0,1.0,0.0,0,-1.161330259983285,3.295659491849097,222,8179.9956043956,0.0085496627687966,0.0033519165125335,0.017221994229474,6.155659380632,nan,False,live,nan
03/26/2024-10:50:44.489807 -- 800014,0.3,0.0,0.0,1.0,0.0,0,-1.1004798670304252,3.359916295278298,224,8105.1005267779,0.021247721906932,0.007783499148922,-0.014737246206799,6.1659630705305,nan,False,live,nan
03/26/2024-10:50:44.522792 -- 800004,0.3,0.0,0.0,1.0,0.0,0,-1.053190870153635,3.3804911538911995,226,7696.6194456665,0.0031319047252335,0.006775701925185,-0.038603694117352,6.2477254319485,nan,False,live,nan
03/26/2024-10:50:44.555830 -- 800012,0.3,0.0,0.0,1.0,0.0,0,-1.0845796362355649,3.3744891233612986,228,7704.897469459,-0.00059713016287856,-0.0085091697580974,0.033677113938158,6.1847874257209,nan,False,live,nan
03/26/2024-10:50:44.588357 -- 800003,0.3,0.0,0.0,1.0,0.0,0,-1.014807069612345,3.4630523371011,230,8062.1586879433,0.025769318529958,0.030573225830391,-0.063198941602402,6.2540412395519,nan,False,live,nan
03/26/2024-10:50:44.626785 -- 800008,0.3,0.0,0.0,1.0,0.0,0,-1.1075100501587252,3.488344263058199,232,7539.5677928916,-0.014296972778258,-0.021212653484443,0.051123743342609,6.2161265279504,nan,False,live,nan
03/26/2024-10:50:44.654823 -- 800012,0.3,0.0,0.0,1.0,0.0,0,-1.028768567916345,3.459345046406998,234,7810.75273045,-0.0056262429224566,0.029816830987262,-0.033270558869982,6.1873385157228,nan,False,live,nan
03/26/2024-10:50:44.688701 -- 799999,0.3,0.0,0.0,1.0,0.0,0,-0.995706452474745,3.4842893885105983,236,7733.8003502627,0.0044399667146176,-0.0028827666535374,-0.049458299441068,0.0029888086996488,nan,False,live,nan
03/26/2024-10:50:44.722097 -- 800003,0.3,0.0,0.0,1.0,0.0,0,-1.008354615702255,3.4853960971478983,238,7433.334204793,0.00029040269157509,-0.010408133759958,0.0047512195223551,6.2541767273971,nan,False,live,nan
03/26/2024-10:50:44.754528 -- 800000,0.3,0.0,0.0,1.0,0.0,0,-1.115269566160275,3.522230023253101,240,7854.6609574001,-2.8302242264406e-05,-0.014070618926064,-0.012969026388815,6.2803846291686,nan,False,live,nan
03/26/2024-10:50:44.789048 -- 800001,0.3,0.0,0.0,1.0,0.0,0,-1.301016741277425,3.7002926546742003,242,7440.6421524664,0.039874188755515,-0.041457730419506,0.013531913050304,6.2726573848324,nan,False,live,nan
03/26/2024-10:50:44.822106 -- 800009,0.3,0.0,0.0,1.0,0.0,0,-1.252536985160445,3.9324047238950985,244,7914.9928315412,0.035698820763729,0.01775587065103,0.042489296698087,6.2116380393187,nan,False,live,nan
03/26/2024-10:50:44.857462 -- 800005,0.3,0.0,0.0,1.0,0.0,0,-1.369450652085975,4.218126577194898,246,8239.8422496571,0.064565339588084,-0.0096494529449981,-0.020879746329649,6.2415346274154,nan,False,live,nan
03/26/2024-10:50:44.890866 -- 799997,0.3,0.0,0.0,1.0,0.0,0,-1.205082783425715,4.425492891882298,248,7913.6092057762,0.069353863471821,0.010167507396116,-0.012601614174606,0.020389367302065,nan,False,live,nan
03/26/2024-10:50:44.923432 -- 799989,0.3,0.0,0.0,1.0,0.0,0,-1.483481609033325,4.6022165625768,250,8210.4590827338,-0.021869808193021,-0.046711666058926,-0.038317465905481,0.081090479786791,nan,False,live,nan
03/26/2024-10:50:44.955027 -- 799993,0.3,0.0,0.0,1.0,0.0,0,-1.4670460351595251,5.0569449353709,252,8965.1945080092,0.043539021329914,-0.026600972621825,0.045011673281324,0.050972363601183,nan,False,live,nan
03/26/2024-10:50:44.989722 -- 800009,0.3,0.0,0.0,1.0,0.0,0,-1.533986257791285,5.3822453189964,254,9659.8417977528,0.056448993019635,-0.020741007998351,0.072666456738495,6.2103326001242,nan,False,live,nan
03/26/2024-10:50:45.022311 -- 800014,0.3,0.0,0.0,1.0,0.0,0,-1.638141424732815,5.638538302466401,256,9947.7526455026,0.023299708660311,0.0076530866051014,0.021003522197742,6.1714148166053,nan,False,live,nan
03/26/2024-10:50:45.056193 -- 800001,0.3,0.0,0.0,1.0,0.0,0,-1.527428026459995,6.015885062838301,258,10631.17010989,0.080244935234471,0.044104681388248,-0.068424161685126,6.2732905474832,nan,False,live,nan
03/26/2024-10:50:45.088431 -- 799992,0.3,0.0,0.0,1.0,0.0,0,-1.517822448619275,6.5140249598997,260,11321.420499343,0.082916928351275,0.027244782139235,-0.02283892589514,0.054979390937389,nan,False,live,nan
03/26/2024-10:50:45.122508 -- 800009,0.3,0.0,0.0,1.0,0.0,0,-1.614041901128475,7.2150681413213995,262,11177.234627126,0.13679781969072,-0.061234367443821,0.12408406691502,6.2089987074932,nan,False,live,nan
03/26/2024-10:50:45.154193 -- 800010,0.3,0.0,0.0,1.0,0.0,0,-1.5543425583384751,7.672649560619696,264,9189.9159041394,0.088893390437707,0.0073378420614593,-0.0082961362543503,6.202709863002,nan,False,live,nan
03/26/2024-10:50:45.188173 -- 799990,0.3,0.0,0.0,1.0,0.0,0,-1.668029250656595,7.979303979229201,266,8513.1483106626,0.053297117523631,-0.0043937474105936,-0.085714068936364,0.071519714755237,nan,False,live,nan
03/26/2024-10:50:45.222583 -- 799990,0.3,0.0,0.0,1.0,0.0,0,-1.785245750963925,8.329422052522798,268,8030.3590192644,0.062032030675347,-0.031457622962828,0.035013602903763,0.077227701266903,nan,False,live,nan
03/26/2024-10:50:45.254369 -- 800005,0.3,0.0,0.0,1.0,0.0,0,-1.8575646503580452,8.695402322646899,270,7019.6183406114,0.033705164070529,-0.030798177878001,0.050313709060608,6.2391130126473,nan,False,live,nan
03/26/2024-10:50:45.276965 -- 800009,0.3,0.0,0.0,1.0,0.0,0,-1.8823043006544449,8.805659368136098,271,7090.1673202614,0.037175516695121,-0.0060679100768195,0.029713893555079,6.2093991190922,nan,False,live,nan
03/26/2024-10:50:45.302878 -- 799995,0.3,0.0,0.0,1.0,0.0,0,-2.041901421800625,9.075917965160698,273,7247.2136304063,0.036086090989481,-0.0047499709713169,-0.071296617297245,0.032569741054229,nan,False,live,nan
03/26/2024-10:50:45.321355 -- 799989,0.3,0.0,0.0,1.0,0.0,0,-1.988289866107695,9.227513283011099,274,7330.3816827344,0.051455964779387,0.015019610380384,-0.046700119580909,0.079269860635139,nan,False,live,nan
03/26/2024-10:50:45.339617 -- 799990,0.3,0.0,0.0,1.0,0.0,0,-2.115719929867275,9.3709711977924,275,7336.5359019264,0.044458536857217,-0.04598268732318,0.0066403011305826,0.072629559504556,nan,False,live,nan
03/26/2024-10:50:45.376909 -- 799999,0.3,0.0,0.0,1.0,0.0,0,-2.008183541190105,9.4919831290329,277,6728.6592398427,0.0018257207972272,0.0053095239907043,0.039000936887029,0.0032955922715409,nan,False,live,nan
03/26/2024-10:50:45.403299 -- 800014,0.3,0.0,0.0,1.0,0.0,0,-2.1407549400984447,9.7008122622174,279,6697.6912020906,0.043728265745304,-0.023540229673777,0.07168876802301,6.1668934066774,nan,False,live,nan
03/26/2024-10:50:45.423927 -- 800023,0.3,0.0,0.0,1.0,0.0,0,-2.261209066931985,9.808537317963598,280,6275.7177700348,0.04152732101733,-0.034323180931646,0.068259689868589,6.0986337168088,nan,False,live,nan
03/26/2024-10:50:45.456829 -- 800030,0.3,0.0,0.0,1.0,0.0,0,-2.3009592475060954,9.8473825912284,282,6423.2883275261,0.010160277188955,0.0033028648659988,-0.0084689971874746,6.0413924232641,nan,False,live,nan
03/26/2024-10:50:45.490326 -- 800011,0.3,0.0,0.0,1.0,0.0,0,-2.394932207884935,9.928460915086198,284,6454.7086236934,0.0087084067333389,-0.013564744493246,-0.084204643282346,6.1966567796753,nan,False,live,nan
03/26/2024-10:50:45.523735 -- 800022,0.3,0.0,0.0,1.0,0.0,0,-2.606579233812795,9.976903615728897,286,6603.5527003484,-0.0011829577992168,-0.056526754409003,0.092752341870507,6.1084301250513,nan,False,live,nan
03/26/2024-10:50:45.556482 -- 800039,0.3,0.0,0.0,1.0,0.0,0,-2.661812910307035,10.058583973128599,288,6288.0805749129,-0.0012488772584008,0.0028167881958981,0.014558598233197,5.9753137478486,nan,False,live,nan
03/26/2024-10:50:45.588563 -- 800025,0.3,0.0,0.0,1.0,0.0,0,-2.601281336984865,10.1816694430701,290,6462.9416376307,0.017648939099,-0.0016620236447941,-0.031635310247782,6.0838637302786,nan,False,live,nan
03/26/2024-10:50:45.624574 -- 800030,0.3,0.0,0.0,1.0,0.0,0,-2.5040853772903953,10.327059319513499,292,6511.7086236934,0.0062640993851712,0.024270431720246,0.022221265136532,6.044594809415,nan,False,live,nan
03/26/2024-10:50:45.652695 -- 800013,0.3,0.0,0.0,1.0,0.0,0,-2.2676457660752254,10.439554499344798,294,6062.0278867102,0.024244281144897,0.055222513078635,-0.07732683961026,6.1797566981447,nan,False,live,nan
03/26/2024-10:50:45.672117 -- 800003,0.3,0.0,0.0,1.0,0.0,0,-2.179052679870975,10.466019437681698,295,6256.2529437418,0.0069177636284329,0.030041807372601,-0.078936480049277,6.258693178194,nan,False,live,nan
03/26/2024-10:50:45.705144 -- 800002,0.3,0.0,0.0,1.0,0.0,0,-2.054560507289625,10.5537636337659,297,5829.6669576604,0.025002271237148,0.034186920267382,-0.0010199027513884,6.2671113437809,nan,False,live,nan
03/26/2024-10:50:45.742145 -- 799995,0.3,0.0,0.0,1.0,0.0,0,-1.8960780143791651,10.605573633864001,299,6411.9350762527,0.015099704462407,0.032765182243368,-0.030515057277562,0.034786493739248,nan,False,live,nan
03/26/2024-10:50:45.773866 -- 799982,0.3,0.0,0.0,1.0,0.0,0,-1.755874685442705,10.5856705409823,301,6411.4594240838,0.01449864601726,0.022584367952012,-0.027799488401356,0.13905925222958,nan,False,live,nan
03/26/2024-10:50:45.806244 -- 799996,0.3,0.0,0.0,1.0,0.0,0,-1.629124036367505,10.578518557821297,303,5695.7878919861,0.010006526972977,0.026441306007502,0.055145109636237,0.028746079620675,nan,False,live,nan
03/26/2024-10:50:45.840267 -- 799970,0.3,0.0,0.0,1.0,0.0,0,-1.447266137657145,10.701964064193898,305,6905.1084494774,0.027819926060293,0.065159558762399,-0.16268336246558,0.23103036083718,nan,False,live,nan
03/26/2024-10:50:45.872608 -- 799951,0.3,0.0,0.0,1.0,0.0,0,-1.365508075161525,10.837946371527298,307,7356.1746515679,0.017970784187343,0.027355362809576,-0.0599867198846,0.37816663180996,nan,False,live,nan
03/26/2024-10:50:45.905903 -- 799957,0.3,0.0,0.0,1.0,0.0,0,-1.2919848744248852,11.016959662882197,309,7395.0840592334,0.014834048366611,0.0045710188214754,0.040937260022963,0.33142240702057,nan,False,live,nan
03/26/2024-10:50:45.939465 -- 799960,0.3,0.0,0.0,1.0,0.0,0,-1.2424296593115152,11.053237413066899,311,7081.8932926829,-0.0033051297656107,0.020275538200028,-0.012655420790658,0.30915690649567,nan,False,live,nan
03/26/2024-10:50:45.972412 -- 799957,0.3,0.0,0.0,1.0,0.0,0,-1.267134663399015,11.093688358105801,313,7286.7739547038,0.0076429932479985,-0.0079736517603907,-0.018930126398034,0.33506654367526,nan,False,live,nan
03/26/2024-10:50:46.004351 -- 799953,0.3,0.0,0.0,1.0,0.0,0,-1.272390613224555,11.0684071020804,315,7150.9782229965,-0.0015654068466099,-0.0071626115212124,-0.019434263706626,0.36861394107223,nan,False,live,nan
03/26/2024-10:50:46.023567 -- 799953,0.3,0.0,0.0,1.0,0.0,0,-1.269600948017505,11.0761153512921,316,7024.8270905923,0.0027320516875533,-5.0082619374401e-05,0.0060844042196491,0.36252953685258,nan,False,live,nan
03/26/2024-10:50:46.056523 -- 799954,0.3,0.0,0.0,1.0,0.0,0,-1.249146929107365,11.069792979092998,318,6932.3031358885,-0.00019342481208779,0.0027697569137801,0.0064472057974944,0.35384301404005,nan,False,live,nan
03/26/2024-10:50:46.090757 -- 799953,0.3,0.0,0.0,1.0,0.0,0,-1.271525805526845,11.067916666916698,320,6763.1729094077,-0.0013617179811019,-0.0016280838123856,-0.0049355974997006,0.36349201351282,nan,False,live,nan
03/26/2024-10:50:46.123320 -- 799953,0.3,0.0,0.0,1.0,0.0,0,-1.2749583191224652,11.0815929267627,322,6856.5017421603,0.0046845457477544,0.00036073590193594,0.0074533082791172,0.36248267592178,nan,False,live,nan
03/26/2024-10:50:46.157109 -- 799953,0.3,0.0,0.0,1.0,0.0,0,-1.257146315135535,11.0685834399969,324,6529.2295296167,0.0031383121299569,0.0024743868447287,-0.00032543980452405,0.36494289162199,nan,False,live,nan
03/26/2024-10:50:46.190591 -- 799953,0.3,0.0,0.0,1.0,0.0,0,-1.261970992830195,11.067548656051798,326,6803.6419860627,6.2418998174851e-05,-0.00044703919552263,0.0022482193776326,0.36271104440864,nan,False,live,nan
03/26/2024-10:50:46.222125 -- 799981,0.3,0.0,0.0,1.0,0.0,0,-1.866172772556435,11.211750821103301,328,6028.1415505226,0.0098429701426941,-0.10997756319366,0.13605400448102,0.14554666970142,nan,False,live,nan
03/26/2024-10:50:46.245148 -- 800005,0.3,0.0,0.0,1.0,0.0,0,-2.009761199227275,11.317395984026998,329,5691.762630662,0.032837790139592,-0.049626299611059,0.19157083352344,6.2371611433576,nan,False,live,nan
03/26/2024-10:50:46.272526 -- 800020,0.3,0.0,0.0,1.0,0.0,0,-2.1593186908025848,11.435456364919798,331,5704.9351045296,0.0283537789009,-0.022517341643327,0.018034472710255,6.1237909894672,nan,False,live,nan
03/26/2024-10:50:46.307210 -- 800009,0.3,0.0,0.0,1.0,0.0,0,-2.3443707391541553,11.7128027568669,333,5911.1916376307,0.022006340197695,-0.025196005365175,-0.0068460897150601,6.2048580104243,nan,False,live,nan
03/26/2024-10:50:46.339175 -- 800024,0.3,0.0,0.0,1.0,0.0,0,-2.426177089079565,12.110333020781397,335,6696.4459930314,0.073447806830452,-0.040379933616477,0.1037455720513,6.0883005568237,nan,False,live,nan
03/26/2024-10:50:46.373920 -- 800041,0.3,0.0,0.0,1.0,0.0,0,-2.4930768765434848,12.239589885027598,337,6939.7099303136,0.05065491010225,-0.02479122122161,0.061124569804728,5.9580327025176,nan,False,live,nan
03/26/2024-10:50:46.405173 -- 800030,0.3,0.0,0.0,1.0,0.0,0,-2.670674205544005,12.370193851116902,339,6626.5422473868,0.031411343487648,-0.013923728307498,-0.052238927646448,6.0469374211961,nan,False,live,nan
03/26/2024-10:50:46.438436 -- 800029,0.3,0.0,0.0,1.0,0.0,0,-2.8657594667555553,12.491609383915801,341,6798.6581010453,0.027912408595288,-0.0073424602126971,0.023995155032789,6.0479107643659,nan,False,live,nan
03/26/2024-10:50:46.473563 -- 800035,0.3,0.0,0.0,1.0,0.0,0,-2.812395181788975,12.6588995397681,343,7250.2913763066,0.022674622071466,0.0024822840648243,0.005475208522166,6.0070057757875,nan,False,live,nan
03/26/2024-10:50:46.506892 -- 800030,0.3,0.0,0.0,1.0,0.0,0,-2.8258626554790753,12.8411530888887,345,6955.9394599303,0.026451496183456,0.0070751764946049,-0.019752490520548,6.0471280055778,nan,False,live,nan
03/26/2024-10:50:46.540587 -- 800047,0.3,0.0,0.0,1.0,0.0,0,-2.9723149010599648,12.854389198371898,347,7343.9102005231,-0.0029751750914525,-0.044069384086307,0.10589330371024,5.9083621494008,nan,False,live,nan
03/26/2024-10:50:46.572802 -- 800073,0.3,0.0,0.0,1.0,0.0,0,-2.971184007478395,12.711561230464799,349,6662.7824945295,-0.03161308161067,-0.0097593845244903,0.087533470140368,5.7024299960565,nan,False,live,nan
03/26/2024-10:50:46.607094 -- 800074,0.3,0.0,0.0,1.0,0.0,0,-3.235327972459185,12.911353154941498,351,6902.1245629371,0.065661867577086,0.0091746462415629,-0.055267551752994,5.700412922751,nan,False,live,nan
03/26/2024-10:50:46.640228 -- 800038,0.3,0.0,0.0,1.0,0.0,0,-3.1191795615953852,13.144335116824799,353,7130.7735191638,0.030752929940168,0.052085011391172,-0.15615912821817,5.9783999861353,nan,False,live,nan
03/26/2024-10:50:46.673176 -- 800027,0.3,0.0,0.0,1.0,0.0,0,-3.2382649434704853,13.201327325427599,355,6771.3206971678,0.010206442086849,-0.010956069033544,0.0052623148800657,6.0680081129253,nan,False,live,nan
03/26/2024-10:50:46.707460 -- 800045,0.3,0.0,0.0,1.0,0.0,0,-3.2817333724631848,13.3993780875522,357,6689.9599303136,0.037370673483248,0.0076806447231942,0.080589737671801,5.9220396010859,nan,False,live,nan
03/26/2024-10:50:46.738908 -- 800059,0.3,0.0,0.0,1.0,0.0,0,-3.4214652748229852,13.797465524657397,359,6589.4154315606,0.037648705270291,0.0026183565841086,0.045801917884287,5.8162780676439,nan,False,live,nan
03/26/2024-10:50:46.771771 -- 800050,0.3,0.0,0.0,1.0,0.0,0,-3.405951700265385,14.211315561248398,361,6702.6058362369,0.069711624649026,0.0051719625791076,-0.046040097683511,5.8869895887166,nan,False,live,nan
03/26/2024-10:50:46.806705 -- 800040,0.3,0.0,0.0,1.0,0.0,0,-3.632241114809685,14.472103999178099,363,6921.8388501742,0.051579907255219,-0.021209677848673,-0.034202895162823,5.966339870915,nan,False,live,nan
03/26/2024-10:50:46.839995 -- 800051,0.3,0.0,0.0,1.0,0.0,0,-3.658410040162485,14.700881983604699,365,7041.4660278746,0.021908296897645,0.017802412328749,0.04282671820206,5.8815987576978,nan,False,live,nan
03/26/2024-10:50:46.873435 -- 800055,0.3,0.0,0.0,1.0,0.0,0,-3.454500250118385,14.853856425689095,367,7145.0252723312,0.0016887500546547,0.045316416619626,-0.02167377507584,5.8493135443558,nan,False,live,nan
03/26/2024-10:50:46.907231 -- 800026,0.3,0.0,0.0,1.0,0.0,0,-3.189458883425685,14.926781157126001,369,7160.6951219512,0.022708563626713,0.033282224218679,-0.12631563864563,6.0764858141658,nan,False,live,nan
03/26/2024-10:50:46.940153 -- 800016,0.3,0.0,0.0,1.0,0.0,0,-3.157596198633255,15.1727913153696,371,7287.5,0.02930482099222,0.0049524833999289,-0.0034020728793217,6.1512966078155,nan,False,live,nan
03/26/2024-10:50:46.972557 -- 800016,0.3,0.0,0.0,1.0,0.0,0,-3.060829869266565,15.3913170452199,373,7254.693815331,0.044032506149607,0.028420634566637,-0.010425824147361,6.1498757556075,nan,False,live,nan
03/26/2024-10:50:47.006263 -- 800009,0.3,0.0,0.0,1.0,0.0,0,-3.2079052897176448,15.6347153364312,375,6559.6746515679,0.046073661681391,-0.021389736006515,-0.032960895369889,6.206693658567,nan,False,live,nan
03/26/2024-10:50:47.037494 -- 800010,0.3,0.0,0.0,1.0,0.0,0,-2.857393270304235,16.1625060068571,377,7589.5551198257,0.064693365397557,0.058598751672414,0.0037734671965069,6.2013100975356,nan,False,live,nan
03/26/2024-10:50:47.056637 -- 800014,0.3,0.0,0.0,1.0,0.0,0,-2.862628191600585,16.3382619687303,378,7065.9498692241,0.0584715968532,0.0040855768126444,0.035321245768205,6.1659888517674,nan,False,live,nan
03/26/2024-10:50:47.089500 -- 800015,0.3,0.0,0.0,1.0,0.0,0,-2.977270160983635,16.5250115901963,380,7403.5459694989,0.014436994822074,-0.054642133573792,0.0075035595159442,6.159955551667,nan,False,live,nan
03/26/2024-10:50:47.121789 -- 800022,0.3,0.0,0.0,1.0,0.0,0,-3.2967634716158853,16.8019777631028,382,7676.262195122,0.036074332897972,-0.022330104575335,0.024461901317439,6.1080818385987,nan,False,live,nan
03/26/2024-10:50:47.154544 -- 800039,0.3,0.0,0.0,1.0,0.0,0,-3.426673347113385,17.1189394792761,384,6886.2783101045,0.056569591480033,0.015124999687331,0.05806802579168,5.9745974689796,nan,False,live,nan
03/26/2024-10:50:47.188622 -- 800046,0.3,0.0,0.0,1.0,0.0,0,-3.487205975789385,17.245169940530396,386,6242.3355119826,0.029022111379895,-0.038164967525231,0.018996738720788,5.9149730869214,nan,False,live,nan
03/26/2024-10:50:47.207250 -- 800043,0.3,0.0,0.0,1.0,0.0,0,-3.603386360207085,17.3881523338194,387,5711.1956427015,0.058155356864693,-0.019735008706596,-0.026041885063201,5.9410149719846,nan,False,live,nan
03/26/2024-10:50:47.237077 -- 800031,0.3,0.0,0.0,1.0,0.0,0,-3.5459039413625852,17.554861246677895,389,5851.0300653595,0.035298524313287,0.03236426469548,-0.035370032528906,6.0340351924197,nan,False,live,nan
03/26/2024-10:50:47.272804 -- 800029,0.3,0.0,0.0,1.0,0.0,0,-3.4799006347193853,17.7218445177915,391,5362.2296296296,0.0045952584468896,0.0097968435161114,0.0059826952053459,6.0541391554827,nan,False,live,nan
03/26/2024-10:50:47.305543 -- 800031,0.3,0.0,0.0,1.0,0.0,0,-3.162916839190695,17.910436235836798,393,5366.1769063181,0.013715980709598,0.072915999884718,0.013859518606226,6.0370848309345,nan,False,live,nan
03/26/2024-10:50:47.336342 -- 800022,0.3,0.0,0.0,1.0,0.0,0,-2.9477734037955448,18.1839259786125,395,4916.5579268293,0.048872432066232,0.026425843772988,-0.033085724715088,6.1099201260464,nan,False,live,nan
03/26/2024-10:50:47.371153 -- 800013,0.3,0.0,0.0,1.0,0.0,0,-2.789787784960935,18.429722135041498,397,4479.9185185185,0.045496360858896,0.00038328606267187,-0.01171051491529,6.1754781938963,nan,False,live,nan
03/26/2024-10:50:47.402962 -- 800020,0.3,0.0,0.0,1.0,0.0,0,-2.6491541282469147,18.7309502832006,399,4514.5233318796,0.04967855359575,0.054503783819128,0.0092717140049306,6.1204170190234,nan,False,live,nan
03/26/2024-10:50:47.439443 -- 800019,0.3,0.0,0.0,1.0,0.0,0,-2.543161877787615,19.0080826828995,401,4489.9703832753,0.065452844032594,0.046986792387454,-0.058230279180501,6.1318443850166,nan,False,live,nan
03/26/2024-10:50:47.472644 -- 800006,0.3,0.0,0.0,1.0,0.0,0,-2.6781156412607547,19.4003376033723,403,4317.6425457716,0.042749251873549,-0.030074662464187,-0.051490064845553,6.2339618090618,nan,False,live,nan
03/26/2024-10:50:47.505954 -- 800012,0.3,0.0,0.0,1.0,0.0,0,-2.594734455865965,19.699230519073502,405,4561.3154450262,0.064671643301371,0.00060309398697238,0.072335858453402,6.1852035981465,nan,False,live,nan
03/26/2024-10:50:47.538004 -- 800022,0.3,0.0,0.0,1.0,0.0,0,-2.459785062542115,19.9861242825315,407,4492.4262582057,0.042058668354955,0.029042825473052,0.037357443023702,6.1083760494536,nan,False,live,nan
03/26/2024-10:50:47.572190 -- 800019,0.3,0.0,0.0,1.0,0.0,0,-2.539529493645345,20.125098298717504,409,5087.6976439791,0.010930727861972,-0.0074640417185099,-0.00281118531253,6.1293483640602,nan,False,live,nan
03/26/2024-10:50:47.604873 -- 800016,0.3,0.0,0.0,1.0,0.0,0,-2.697409200026325,20.491633450192495,411,5599.1995633188,0.044901258655238,0.012296623164968,-0.011890582823577,6.1564788280058,nan,False,live,nan
03/26/2024-10:50:47.638031 -- 800015,0.3,0.0,0.0,1.0,0.0,0,-2.779068538029045,20.7459852130155,413,6077.2489102005,0.066392648662382,-0.009936177324533,0.0095158587457542,6.1609231739385,nan,False,live,nan
03/26/2024-10:50:47.657301 -- 800016,0.3,0.0,0.0,1.0,0.0,0,-2.762512826421495,20.7419788320585,414,5892.3843137255,-0.002014586347677,0.0053084469452112,0.0060470742690731,6.1548760996694,nan,False,live,nan
03/26/2024-10:50:47.689416 -- 800028,0.3,0.0,0.0,1.0,0.0,0,-2.851580230120875,21.2148176823555,416,6750.4353146853,0.067015576970896,-0.010541223959127,0.057726409472373,6.0623151441464,nan,False,live,nan
03/26/2024-10:50:47.721440 -- 800034,0.3,0.0,0.0,1.0,0.0,0,-2.960256023982765,21.3602561158515,418,7403.2746724891,0.078615743430712,-0.013234346989317,0.031492290089714,6.011517844566,nan,False,live,nan
03/26/2024-10:50:47.756356 -- 800027,0.3,0.0,0.0,1.0,0.0,0,-3.049896839146065,21.6442406864835,420,7271.6742160279,0.034258758652123,0.0010535749544528,-0.03709366615704,6.064109553155,nan,False,live,nan
03/26/2024-10:50:47.789326 -- 800018,0.3,0.0,0.0,1.0,0.0,0,-3.057552860985585,21.9356605107525,422,7372.0705882353,0.013509775996275,0.021217648366903,-0.034455596740519,6.1356296497989,nan,False,live,nan
03/26/2024-10:50:47.821233 -- 800028,0.3,0.0,0.0,1.0,0.0,0,-3.242990488873785,22.2868566426135,424,8406.2238675958,0.052553501219904,-0.0004779440736461,0.046120974402621,6.0566572461732,nan,False,live,nan
03/26/2024-10:50:47.854964 -- 800034,0.3,0.0,0.0,1.0,0.0,0,-3.154535623459995,22.411035856801497,426,8573.3214285714,0.023446728010627,0.025888746976556,0.0096014193147801,6.0155095192275,nan,False,live,nan
03/26/2024-10:50:47.888792 -- 800025,0.3,0.0,0.0,1.0,0.0,0,-3.193262549639205,22.765119324370495,428,8369.8523519164,0.085140886036659,0.0011924178975432,-0.03123313840841,6.0815603994112,nan,False,live,nan
03/26/2024-10:50:47.920011 -- 800019,0.3,0.0,0.0,1.0,0.0,0,-3.435922845192585,23.115706719886497,430,8610.4120209059,0.026488119194596,-0.0069871348235452,-0.051188911482358,6.1276378251265,nan,False,live,nan
03/26/2024-10:50:47.956212 -- 800026,0.3,0.0,0.0,1.0,0.0,0,-3.6897672242945854,23.4821294170455,432,9017.6431372549,0.10544067375659,-0.054293172639409,0.043717657582579,6.0750037396435,nan,False,live,nan
03/26/2024-10:50:47.988540 -- 800039,0.3,0.0,0.0,1.0,0.0,0,-3.6706257961895847,23.9498824208085,434,10156.871080139,0.088172215049638,0.027451886462245,0.034540154815357,5.9760570390902,nan,False,live,nan
03/26/2024-10:50:48.023160 -- 800044,0.3,0.0,0.0,1.0,0.0,0,-3.741296147378085,24.1232708163165,436,10560.550087108,0.052029482616681,0.010070900148066,-0.0067457736592743,5.9353143460352,nan,False,live,nan
03/26/2024-10:50:48.055989 -- 800038,0.3,0.0,0.0,1.0,0.0,0,-3.8814526209230853,24.519416627881498,438,10134.555313589,0.030115378216234,-0.0011557124329706,-0.002536488048195,5.9825119715523,nan,False,live,nan
03/26/2024-10:50:48.087902 -- 800036,0.3,0.0,0.0,1.0,0.0,0,-3.776850902531685,24.7018882335315,440,10267.157665505,0.0039981099137221,0.020448488584609,0.0091733034779227,5.9972621349368,nan,False,live,nan
03/26/2024-10:50:48.123425 -- 800034,0.3,0.0,0.0,1.0,0.0,0,-3.534150165143685,24.862723520383504,442,10088.532665505,-0.0029397095659079,0.058852422327362,-0.020762929280845,6.0098455848341,nan,False,live,nan
03/26/2024-10:50:48.156470 -- 800020,0.3,0.0,0.0,1.0,0.0,0,-3.336398959155885,24.921771758386498,444,9933.1254355401,0.0068157308436811,0.069341685424851,-0.071793090024925,6.1211276720776,nan,False,live,nan
03/26/2024-10:50:48.189344 -- 800006,0.3,0.0,0.0,1.0,0.0,0,-3.0460280883265654,24.9941683329225,446,9534.4307491289,0.0085987484674625,0.061901404997496,-0.061536335992469,6.2311955792992,nan,False,live,nan
03/26/2024-10:50:48.222321 -- 799992,0.3,0.0,0.0,1.0,0.0,0,-2.864507528804895,25.249341390919497,448,10201.832752613,0.056817200598749,0.014346361271468,-0.055419921754293,0.055635477898703,nan,False,live,nan
03/26/2024-10:50:48.256438 -- 800002,0.3,0.0,0.0,1.0,0.0,0,-2.833492536679365,25.6393018976715,450,10417.404181185,0.041481453489475,0.003652364209464,0.045970222082741,6.2607890249872,nan,False,live,nan
03/26/2024-10:50:48.290618 -- 800007,0.3,0.0,0.0,1.0,0.0,0,-2.730277045615455,25.990292255848495,452,9998.6855400697,0.073396570584988,0.028022768060737,-0.0071930756471959,6.2213145574202,nan,False,live,nan
03/26/2024-10:50:48.321882 -- 800002,0.3,0.0,0.0,1.0,0.0,0,-2.772962920650675,26.5526064140925,454,8667.9795296167,0.077177618668802,0.033579930907643,-0.05808851183104,6.2653920470274,nan,False,live,nan
03/26/2024-10:50:48.355222 -- 799999,0.3,0.0,0.0,1.0,0.0,0,-2.750484144345885,26.8053880891635,456,7395.5892857143,0.049748941599558,-0.0050346548715862,0.018815007314681,0.0055044349609916,nan,False,live,nan
03/26/2024-10:50:48.387956 -- 800007,0.3,0.0,0.0,1.0,0.0,0,-2.570772047374935,27.014054234014502,458,6830.8902439024,0.024577655060511,0.02547734797822,0.060050612129395,6.2222198610387,nan,False,live,nan
03/26/2024-10:50:48.406854 -- 800011,0.3,0.0,0.0,1.0,0.0,0,-2.5760220754563448,27.201972076702504,459,6146.7948606272,0.062595989708984,0.0029545083685972,0.028259636183554,6.1939602248551,nan,False,live,nan
03/26/2024-10:50:48.440054 -- 800008,0.3,0.0,0.0,1.0,0.0,0,-2.5703152080972753,27.427927367551497,461,5520.2539198606,0.068737381178852,0.013833979141819,-0.032685265288907,6.214893264898,nan,False,live,nan
03/26/2024-10:50:48.471107 -- 799991,0.3,0.0,0.0,1.0,0.0,0,-2.454667415277945,27.8594846695515,463,4931.5864923747,0.023325581827465,0.011341433326435,-0.07739296853387,0.065330453007287,nan,False,live,nan
03/26/2024-10:50:48.507857 -- 799993,0.3,0.0,0.0,1.0,0.0,0,-2.560796715109965,28.302810879052494,465,4993.6581010453,0.093523883058602,-0.048596981495958,0.029221150182087,0.054454629734636,nan,False,live,nan
03/26/2024-10:50:48.540502 -- 800004,0.3,0.0,0.0,1.0,0.0,0,-2.496671184354435,28.571088633607495,467,4996.5518292683,0.068546269766571,-0.0009532761678788,0.036262181643678,6.2464699898482,nan,False,live,nan
03/26/2024-10:50:48.573721 -- 800000,0.3,0.0,0.0,1.0,0.0,0,-2.574827325773355,28.9415244740145,469,5498.6628919861,0.0075336428641121,-0.013659690762085,-0.04204192760454,6.2828611809825,nan,False,live,nan
03/26/2024-10:50:48.605114 -- 800005,0.3,0.0,0.0,1.0,0.0,0,-2.885837957457015,29.326772092987497,471,4966.2574041812,0.089944835469058,-0.057748989181608,0.038195356687758,6.2375883126868,nan,False,live,nan
03/26/2024-10:50:48.639724 -- 800018,0.3,0.0,0.0,1.0,0.0,0,-2.997231399090765,29.481811518514498,473,5247.1180313589,0.051770249630712,-0.01838079961004,0.027087780686634,6.1360151454027,nan,False,live,nan
03/26/2024-10:50:48.672359 -- 800020,0.3,0.0,0.0,1.0,0.0,0,-3.3421464992069847,29.7273361559835,475,5731.0204703833,0.044916337481656,-0.021340503336763,0.017314469205048,6.1233018336018,nan,False,live,nan
03/26/2024-10:50:48.706437 -- 800021,0.3,0.0,0.0,1.0,0.0,0,-3.1217851920128847,30.221212404358496,477,5321.5257192677,0.059887010957695,0.025159844728414,0.024714615523865,6.1116515186681,nan,False,live,nan
03/26/2024-10:50:48.740127 -- 800017,0.3,0.0,0.0,1.0,0.0,0,-3.183892263095355,30.412116467149495,479,5057.6161220044,0.042519119934603,0.03362980662636,-0.055424643347935,6.1467708682718,nan,False,live,nan
03/26/2024-10:50:48.772581 -- 800007,0.3,0.0,0.0,1.0,0.0,0,-3.088341623483685,30.599050976239504,481,4706.3923278117,0.029898331984877,0.016462776549815,-0.060260009264314,6.2231249408479,nan,False,live,nan
03/26/2024-10:50:48.803836 -- 800000,0.3,0.0,0.0,1.0,0.0,0,-3.122462921558445,30.8876913460875,483,5354.0453554296,0.016991634359967,0.010117468813496,-0.034487971929075,6.2812084291418,nan,False,live,nan
03/26/2024-10:50:48.838199 -- 799998,0.3,0.0,0.0,1.0,0.0,0,-3.100947123746865,31.0941197033775,485,5903.1236933798,0.042790595385356,-0.019757784226387,0.042170592443767,0.015179916283781,nan,False,live,nan
03/26/2024-10:50:48.872801 -- 800005,0.3,0.0,0.0,1.0,0.0,0,-2.997824213697915,31.469548661329497,487,5803.5246187364,0.053410594007688,0.0019165063846417,0.062218721690831,6.2438723311887,nan,False,live,nan
03/26/2024-10:50:48.906154 -- 799999,0.3,0.0,0.0,1.0,0.0,0,-2.845637911485795,31.843334919625498,489,6311.9058413252,0.090078113655911,0.038236525502695,-0.067033114186363,0.0040525147762294,nan,False,live,nan
03/26/2024-10:50:48.940504 -- 799983,0.3,0.0,0.0,1.0,0.0,0,-2.814251725540965,32.0157201663945,491,6454.1814217183,0.051008076379131,0.009647756277153,-0.088283033517741,0.13337655843565,nan,False,live,nan
03/26/2024-10:50:48.973756 -- 799989,0.3,0.0,0.0,1.0,0.0,0,-2.740252681758285,32.3534806095795,493,6832.2722125436,0.03123511799471,0.021876942473272,0.057143546545756,0.080323912110808,nan,False,live,nan
03/26/2024-10:50:49.005902 -- 800007,0.3,0.0,0.0,1.0,0.0,0,-2.8999744863836847,32.5247548421805,495,6760.7817944251,-0.0044817709077557,-0.026340620728965,0.084908202807058,6.223290543258,nan,False,live,nan
03/26/2024-10:50:49.039031 -- 800002,0.3,0.0,0.0,1.0,0.0,0,-2.7122799215286753,33.0212931199815,497,6359.5862369338,0.10540750678589,0.048046059238791,-0.044842700523349,6.2627198721419,nan,False,live,nan
03/26/2024-10:50:49.072864 -- 799985,0.3,0.0,0.0,1.0,0.0,0,-2.630419846020795,33.2228642522595,499,6990.3299912816,0.049228654661777,0.025634842764201,-0.071097636416286,0.11585264030142,nan,False,live,nan
03/26/2024-10:50:49.106117 -- 799989,0.3,0.0,0.0,1.0,0.0,0,-2.491658973842145,33.4763383775175,501,6512.8134263296,0.056802380842879,-0.012897491504705,0.02053941830419,0.079070683577258,nan,False,live,nan
03/26/2024-10:50:49.140286 -- 800002,0.3,0.0,0.0,1.0,0.0,0,-2.3931016132472847,33.8060729647665,503,6479.7482578397,0.021856671434547,0.0019960251999719,0.038141534060078,6.2632843441193,nan,False,live,nan
03/26/2024-10:50:49.173776 -- 799994,0.3,0.0,0.0,1.0,0.0,0,-2.384166456434325,34.1050985584155,505,6273.9193196686,0.077587325343797,0.0020462332861531,-0.021086751460051,0.046391219651739,nan,False,live,nan
03/26/2024-10:50:49.205143 -- 799981,0.3,0.0,0.0,1.0,0.0,0,-2.338080310101375,34.4379809648145,507,6913.8654181185,0.050082199517904,0.0075831521467075,-0.042489308281936,0.1482320643644,nan,False,live,nan
03/26/2024-10:50:49.224094 -- 799979,0.3,0.0,0.0,1.0,0.0,0,-2.3978909945949747,34.5993409004655,508,6475.7482578397,0.050098441482977,-0.027940306819394,-0.011087962362792,0.15932002672719,nan,False,live,nan
03/26/2024-10:50:49.257663 -- 799989,0.3,0.0,0.0,1.0,0.0,0,-2.561411967372165,34.9263106754895,510,6106.662456446,0.047242094141595,-0.028444356463377,0.056903443250363,0.082981260965559,nan,False,live,nan
03/26/2024-10:50:49.290083 -- 800001,0.3,0.0,0.0,1.0,0.0,0,-2.505662167803255,35.292503512726505,512,6586.6589721254,0.037225956323717,-0.021326316669712,0.041477574062972,6.2729479864553,nan,False,live,nan
03/26/2024-10:50:49.323450 -- 800001,0.3,0.0,0.0,1.0,0.0,0,-2.5492057547851648,35.779377326431494,514,7049.7608885017,0.13654903479797,-0.0016466824606365,-0.026277246591782,6.2687244142032,nan,False,live,nan
03/26/2024-10:50:49.356476 -- 799991,0.3,0.0,0.0,1.0,0.0,0,-2.616767678159475,36.0944541547305,516,5867.1638344227,0.058707369576796,-0.014287517432981,-0.035694628151725,0.070644580907636,nan,False,live,nan
03/26/2024-10:50:49.389113 -- 800000,0.3,0.0,0.0,1.0,0.0,0,-2.659276563448785,36.3127674343995,518,5530.6932461874,0.016379865914061,-0.02772631946618,0.062282018657313,6.279641887034,nan,False,live,nan
03/26/2024-10:50:49.421093 -- 800016,0.3,0.0,0.0,1.0,0.0,0,-2.731540560827385,36.6146332189665,520,5495.0466027875,0.0089545060675131,-0.017262438101824,0.064526219610513,6.155784092324,nan,False,live,nan
03/26/2024-10:50:49.454388 -- 800012,0.3,0.0,0.0,1.0,0.0,0,-2.780654705280645,36.913778113186495,522,4542.7896341463,0.072904940304244,-0.020961753133475,-0.027902834856746,6.181616747109,nan,False,live,nan
03/26/2024-10:50:49.488285 -- 799998,0.3,0.0,0.0,1.0,0.0,0,-2.8156080759454047,37.1101891322835,524,4306.0762859634,0.026035247007838,0.013172023845098,-0.061037733928657,0.012715245579241,nan,False,live,nan
03/26/2024-10:50:49.520195 -- 800003,0.3,0.0,0.0,1.0,0.0,0,-2.817113361784065,37.3059495543735,526,3760.846791794,0.040609478017462,0.015590890275936,0.020908803450409,6.2584812806635,nan,False,live,nan
03/26/2024-10:50:49.553371 -- 800010,0.3,0.0,0.0,1.0,0.0,0,-2.770526847449025,37.4881936920285,528,3716.3986928105,0.031210415941892,0.032989614749682,0.024943076908746,6.1990050127088,nan,False,live,nan
03/26/2024-10:50:49.571601 -- 800010,0.3,0.0,0.0,1.0,0.0,0,-2.699412548159205,37.6642101100545,529,4332.4234627126,0.056488744687997,0.028519433367966,-0.0012252578151008,6.2002302705239,nan,False,live,nan
03/26/2024-10:50:49.603954 -- 800015,0.3,0.0,0.0,1.0,0.0,0,-2.783986286115615,37.7958849454905,531,4059.8749455338,0.015487731454379,0.011300683564247,-0.010639232552062,6.1624997793328,nan,False,live,nan
03/26/2024-10:50:49.637179 -- 800015,0.3,0.0,0.0,1.0,0.0,0,-2.868825981051135,38.2198504245765,533,4275.0401046207,0.10111612197093,-0.019581262585984,-0.010243027852008,6.1589901759284,nan,False,live,nan
03/26/2024-10:50:49.669169 -- 800007,0.3,0.0,0.0,1.0,0.0,0,-2.921736089252655,38.5450519238955,535,3747.4161220044,0.05783140114129,-0.011181964668966,-0.032986524953224,6.2236859479662,nan,False,live,nan
03/26/2024-10:50:49.688312 -- 800003,0.3,0.0,0.0,1.0,0.0,0,-2.938073972413425,38.6953108025025,536,3850.5337985172,0.050278505854525,-0.0032501975771728,-0.031494663040718,6.2551806110069,nan,False,live,nan
03/26/2024-10:50:49.722982 -- 800010,0.3,0.0,0.0,1.0,0.0,0,-2.929274428996965,39.1198469934315,538,4295.9725490196,0.083182938993662,-0.00058211538398114,0.044945213203659,6.2012009978415,nan,False,live,nan
03/26/2024-10:50:49.755917 -- 800019,0.3,0.0,0.0,1.0,0.0,0,-2.896851383151165,39.356787955192495,540,4927.1202614379,0.045251171407951,0.010994302647104,0.018341100812023,6.1325515657077,nan,False,live,nan
03/26/2024-10:50:49.788123 -- 800013,0.3,0.0,0.0,1.0,0.0,0,-2.919200825108565,39.7892265952455,542,5017.9995638901,0.077718896957173,-0.0064200114161727,-0.024402570634018,6.1799630291895,nan,False,live,nan
03/26/2024-10:50:49.807903 -- 800005,0.3,0.0,0.0,1.0,0.0,0,-2.8426602178998452,39.9070439486265,543,5342.7590413943,0.037358037190983,0.028254857412413,-0.063634526067504,6.243597555257,nan,False,live,nan
03/26/2024-10:50:49.840285 -- 800007,0.3,0.0,0.0,1.0,0.0,0,-2.901239887254555,40.236165703420504,545,5455.8244008715,0.074005888275673,-0.012500921809354,0.016789909785033,6.2270678144106,nan,False,live,nan
03/26/2024-10:50:49.871877 -- 800018,0.3,0.0,0.0,1.0,0.0,0,-2.8376276791997253,40.516099118029494,547,6285.3667684256,0.02959488388075,0.02034749297934,0.034969933354962,6.1366827813986,nan,False,live,nan
03/26/2024-10:50:49.905983 -- 800015,0.3,0.0,0.0,1.0,0.0,0,-2.8480778957811452,40.919170162708504,549,6350.6227649368,0.073240650134225,0.012919176477954,-0.022179667292068,6.1590686965397,nan,False,live,nan
03/26/2024-10:50:49.937857 -- 800015,0.3,0.0,0.0,1.0,0.0,0,-3.1097754480135746,41.2153781683815,551,6378.8305010893,0.083683157014327,-0.04344959972451,-0.011852707242168,6.1596068765512,nan,False,live,nan
03/26/2024-10:50:49.974467 -- 800020,0.3,0.0,0.0,1.0,0.0,0,-3.277434707901585,41.3231266526985,553,6442.2852787456,-0.0014576769842629,-0.0045274554548946,0.0016883787957178,6.1231439247821,nan,False,live,nan
03/26/2024-10:50:50.006494 -- 800020,0.3,0.0,0.0,1.0,0.0,0,-3.511308159868185,41.532843530254496,555,6980.4093286835,0.009763072591734,-0.040725059870374,-0.016547010284267,6.1260386924134,nan,False,live,nan
03/26/2024-10:50:50.038125 -- 800021,0.3,0.0,0.0,1.0,0.0,0,-3.657194415209385,41.7185734602735,557,7474.780104712,0.04813650638969,-0.034298676301266,0.038646933453568,6.1147208794179,nan,False,live,nan
03/26/2024-10:50:50.072814 -- 800037,0.3,0.0,0.0,1.0,0.0,0,-3.727483356868185,41.9443054421565,559,7584.1011333915,0.036384567658353,-0.00034629909742004,0.07803541921433,5.9913097574686,nan,False,live,nan
03/26/2024-10:50:50.106009 -- 800048,0.3,0.0,0.0,1.0,0.0,0,-4.097957067072585,42.11570196619051,561,7771.5577342048,0.074950050146935,-0.052179199179261,0.020399664108767,5.904239193608,nan,False,live,nan
03/26/2024-10:50:50.137987 -- 800046,0.3,0.0,0.0,1.0,0.0,0,-4.232792363244885,42.239072119381504,563,7306.3142981691,0.050218188233917,-0.012425394728215,-0.031607745847703,5.915634151172,nan,False,live,nan
03/26/2024-10:50:50.159652 -- 800043,0.3,0.0,0.0,1.0,0.0,0,-4.375228188784185,42.366246837205495,564,8324.1843137255,0.056250335313182,-0.029788681991759,-0.025269089576441,5.9409032407485,nan,False,live,nan
03/26/2024-10:50:50.190357 -- 800040,0.3,0.0,0.0,1.0,0.0,0,-4.569583832097585,42.61520166537749,566,7792.8683522232,0.069014900975162,0.0069628042488671,-0.0033815114097903,5.9648614644023,nan,False,live,nan
03/26/2024-10:50:50.223863 -- 800052,0.3,0.0,0.0,1.0,0.0,0,-4.7109191673473845,42.7519652483835,568,8754.3510452962,-0.0042009335627595,0.011687215783407,0.038165513264939,5.8690071358862,nan,False,live,nan
03/26/2024-10:50:50.258238 -- 800055,0.3,0.0,0.0,1.0,0.0,0,-4.425057002362485,42.964343681830506,570,8902.0649237473,0.0060306215114213,0.08069660629462,0.0079334097549617,5.8482047988978,nan,False,live,nan
03/26/2024-10:50:50.289391 -- 800045,0.3,0.0,0.0,1.0,0.0,0,-4.247552931938385,43.0288552518435,572,8216.8984749455,-0.007463306532566,0.025505798498454,-0.024607463327155,5.925420680096,nan,False,live,nan
03/26/2024-10:50:50.325165 -- 800040,0.3,0.0,0.0,1.0,0.0,0,-3.9951279086348848,43.1460605302065,574,7966.1898954704,0.0063258794718017,0.040459811429167,-0.022639939357626,5.9638912761081,nan,False,live,nan
03/26/2024-10:50:50.357366 -- 800034,0.3,0.0,0.0,1.0,0.0,0,-3.918790566362085,43.3168494431985,576,7930.9472996516,0.045015882842348,0.018837998239921,-0.032585972360822,6.0133690676181,nan,False,live,nan
03/26/2024-10:50:50.389608 -- 800029,0.3,0.0,0.0,1.0,0.0,0,-3.690488834568285,43.5338645750355,578,7947.9050108932,0.051444966738087,0.039898486809239,-0.026930560387076,6.0542063944881,nan,False,live,nan
03/26/2024-10:50:50.423655 -- 800022,0.3,0.0,0.0,1.0,0.0,0,-3.5612569236737848,43.7374414607565,580,8244.6156862745,0.045910265056788,0.052762302033248,-0.024702876315983,6.1100159319409,nan,False,live,nan
03/26/2024-10:50:50.454578 -- 800023,0.3,0.0,0.0,1.0,0.0,0,-3.4453192749974852,43.8337196737335,582,8206.1525719268,-0.019947951877062,0.011864570194095,0.021498258966547,6.0960425869278,nan,False,live,nan
03/26/2024-10:50:50.474542 -- 800023,0.3,0.0,0.0,1.0,0.0,0,-3.4380795457661852,44.190573455551494,583,9030.1364428945,0.11643072317071,0.024476786052459,-0.00043758053274765,6.0964801674606,nan,False,live,nan
03/26/2024-10:50:50.508263 -- 800023,0.3,0.0,0.0,1.0,0.0,0,-3.7118517851180846,44.4702391673925,585,9640.8571428571,0.021019248856403,-0.035062239091778,-0.016777013922906,6.1003168557642,nan,False,live,nan
03/26/2024-10:50:50.540851 -- 800026,0.3,0.0,0.0,1.0,0.0,0,-3.827488702714185,44.6813902153905,587,9675.9433797909,0.030299688745053,-0.014440839021358,0.026016568904662,6.0724409906287,nan,False,live,nan
03/26/2024-10:50:50.573708 -- 800032,0.3,0.0,0.0,1.0,0.0,0,-3.9224927679536847,44.879788767319496,589,9418.6440087146,0.043378103722302,-0.0044678924259031,0.021697893655591,6.030783182065,nan,False,live,nan
03/26/2024-10:50:50.606491 -- 800026,0.3,0.0,0.0,1.0,0.0,0,-3.927280058728785,45.214603012636495,591,9379.0148083624,0.066788125198771,-0.0034288743938904,-0.033389794154818,6.0731757115214,nan,False,live,nan
03/26/2024-10:50:50.639333 -- 800032,0.3,0.0,0.0,1.0,0.0,0,-3.985386679865985,45.610500071797496,593,7621.8741289199,0.081373482536889,-0.0041187262650361,0.015956627778634,6.0303328673239,nan,False,live,nan
03/26/2024-10:50:50.673348 -- 800039,0.3,0.0,0.0,1.0,0.0,0,-3.867732108639885,45.8158437256425,595,6624.131097561,0.028441215579234,0.0035142941747934,0.040326754373663,5.9703150680263,nan,False,live,nan
03/26/2024-10:50:50.705274 -- 800042,0.3,0.0,0.0,1.0,0.0,0,-4.164865297124985,46.1043629499495,597,5465.1639058413,0.063068542089418,-0.038941219539484,0.0055238582427379,5.9528044646146,nan,False,live,nan
03/26/2024-10:50:50.738410 -- 800032,0.3,0.0,0.0,1.0,0.0,0,-4.145209655479485,46.4048608822605,599,5559.399825784,0.050964651545234,0.023268397195637,-0.033894475129689,6.0275332133813,nan,False,live,nan
03/26/2024-10:50:50.757608 -- 800034,0.3,0.0,0.0,1.0,0.0,0,-4.200519080848485,46.58683371883951,600,5506.7648083624,0.06336788836634,-0.0019621977501787,0.016926380221469,6.0106068331599,nan,False,live,nan
03/26/2024-10:50:50.788365 -- 800047,0.3,0.0,0.0,1.0,0.0,0,-4.261064178934185,47.054819288968496,602,5161.451416122,0.057499063750755,0.00065378455419342,0.070110839075881,5.9099850893393,nan,False,live,nan
03/26/2024-10:50:50.823842 -- 800053,0.3,0.0,0.0,1.0,0.0,0,-4.3002400097975855,47.142124290892504,604,4305.5387630662,0.049109056847705,0.017021146184893,-0.0068142813912791,5.8618467843481,nan,False,live,nan
03/26/2024-10:50:50.855854 -- 800042,0.3,0.0,0.0,1.0,0.0,0,-4.479280162327185,47.378802935365506,606,5021.9398430689,0.078882840042667,-0.0081523208013412,-0.031022864323032,5.9473241282419,nan,False,live,nan
03/26/2024-10:50:50.890275 -- 800036,0.3,0.0,0.0,1.0,0.0,0,-4.554774337626284,47.5047574940115,608,4846.3169136879,0.0031317828996887,-0.021337399610708,-0.0069733238646477,5.9949531219788,nan,False,live,nan
03/26/2024-10:50:50.922342 -- 800042,0.3,0.0,0.0,1.0,0.0,0,-4.775640965888985,47.788115923342495,610,4882.3967770035,0.010408885473018,-0.025359365154065,0.04297030282609,5.9491600844885,nan,False,live,nan
03/26/2024-10:50:50.956406 -- 800050,0.3,0.0,0.0,1.0,0.0,0,-4.741191310217385,48.0683612369535,612,4495.6707317073,0.039297289189456,0.030936517359642,0.039152468781351,5.8829632037859,nan,False,live,nan
03/26/2024-10:50:50.990271 -- 800055,0.3,0.0,0.0,1.0,0.0,0,-4.685156541439185,48.294013152625496,614,4610.3452484743,0.050605793876319,0.035505080252439,0.0028520026026475,5.8509562677103,nan,False,live,nan
03/26/2024-10:50:51.022568 -- 800053,0.3,0.0,0.0,1.0,0.0,0,-4.717364003255985,48.583056136210494,616,4451.1843940715,0.093131419649182,0.026209431081545,-0.0088330407623748,5.8623725608089,nan,False,live,nan
03/26/2024-10:50:51.059069 -- 800047,0.3,0.0,0.0,1.0,0.0,0,-4.785100022186385,48.904666512049495,618,4924.8924216028,0.024831988354293,-0.0080676156119289,0.0013674829849977,5.9071679377489,nan,False,live,nan
03/26/2024-10:50:51.089507 -- 800040,0.3,0.0,0.0,1.0,0.0,0,-4.906138736629185,49.286260932787506,620,5096.368788143,0.062303003452413,-0.0069736066399616,0.0096643708778483,5.9662310818668,nan,False,live,nan
03/26/2024-10:50:51.120348 -- 800039,0.3,0.0,0.0,1.0,0.0,0,-4.889440516101585,49.8538351421115,622,5447.5278988666,0.078691202061137,0.037437167349365,-0.020191336772267,5.9705750132742,nan,False,live,nan
03/26/2024-10:50:51.140473 -- 800048,0.3,0.0,0.0,1.0,0.0,0,-5.011991199715485,49.8331113423315,623,5579.5259259259,0.0073207656517047,-0.0407852202024,0.065026187089481,5.9055488261848,nan,False,live,nan
03/26/2024-10:50:51.173364 -- 800040,0.3,0.0,0.0,1.0,0.0,0,-5.163274334840085,50.15619536536651,625,5453.267452007,0.061519185581797,-0.022413620560336,-0.019332454962636,5.9617213696501,nan,False,live,nan
03/26/2024-10:50:51.206034 -- 800040,0.3,0.0,0.0,1.0,0.0,0,-5.416019050927485,50.292350239423506,627,5960.9642233857,0.050856436705233,-0.017471007914342,-0.0026309012184794,5.9672238144681,nan,False,live,nan
03/26/2024-10:50:51.239462 -- 800060,0.3,0.0,0.0,1.0,0.0,0,-5.609244582787785,50.5902618366405,629,6113.7304006969,0.035042176680728,0.019427013239502,0.068285870735641,5.8105738484627,nan,False,live,nan
03/26/2024-10:50:51.261286 -- 800069,0.3,0.0,0.0,1.0,0.0,0,-5.729465345705985,50.667418660726504,630,5538.6354529617,0.042021317040862,-0.022417919815754,0.075044303278649,5.735529545184,nan,False,live,nan
03/26/2024-10:50:51.295944 -- 800071,0.3,0.0,0.0,1.0,0.0,0,-5.851008044419185,50.8167681478155,632,5880.9115082825,0.05130526070194,0.019587333548651,-0.02947712754483,5.721759893454,nan,False,live,nan
03/26/2024-10:50:51.323183 -- 800058,0.3,0.0,0.0,1.0,0.0,0,-5.999853308027985,51.130367804344495,634,5508.7738562091,0.033582265706608,0.0010381867523996,-0.050241959581992,5.8272310577536,nan,False,live,nan
03/26/2024-10:50:51.358139 -- 800056,0.3,0.0,0.0,1.0,0.0,0,-6.191126994709485,51.3525334851315,636,5399.3564572426,0.044678316902427,-0.038767670126309,0.014692945156443,5.8429349425563,nan,False,live,nan
03/26/2024-10:50:51.390292 -- 800064,0.3,0.0,0.0,1.0,0.0,0,-6.162132574591485,51.6287309373705,638,5287.4423580786,0.042827658971525,0.054131388102443,0.033340818576678,5.7733484734961,nan,False,live,nan
03/26/2024-10:50:51.424800 -- 800069,0.3,0.0,0.0,1.0,0.0,0,-6.129800790389385,51.7921886853135,640,5408.6222222222,0.014046203308766,0.0067922442028874,0.0044550263666214,5.7340848306989,nan,False,live,nan
03/26/2024-10:50:51.455942 -- 800062,0.3,0.0,0.0,1.0,0.0,0,-6.107174783719185,52.04583268375951,642,5809.1611498258,0.0085930583979793,0.018007391620873,-0.045680279685981,5.7958316584061,nan,False,live,nan
03/26/2024-10:50:51.490822 -- 800045,0.3,0.0,0.0,1.0,0.0,0,-5.999117965474185,52.401322382149495,644,5733.0540776276,0.076540528418464,0.026952337433107,-0.073460018991873,5.9233140029219,nan,False,live,nan
03/26/2024-10:50:51.525671 -- 800038,0.3,0.0,0.0,1.0,0.0,0,-6.094210292831085,52.5863039269725,646,5800.131211857,0.032586485085989,0.016960762689041,-0.027003875529316,5.9799648037188,nan,False,live,nan
03/26/2024-10:50:51.555963 -- 800052,0.3,0.0,0.0,1.0,0.0,0,-6.100447580825685,52.876302247054504,648,5873.7844677138,0.0079103219944217,0.0021910507432991,0.074645984970744,5.8716649327372,nan,False,live,nan
03/26/2024-10:50:51.589407 -- 800060,0.3,0.0,0.0,1.0,0.0,0,-6.132173619970485,53.144255161813504,650,6026.2422657952,0.048606860451116,-0.0050168223455852,0.0060093986688118,5.8079148306202,nan,False,live,nan
03/26/2024-10:50:51.623150 -- 800046,0.3,0.0,0.0,1.0,0.0,0,-6.115414816045185,53.49469529121449,652,5837.1081552551,0.089327735808885,0.018703774887068,-0.078396425642019,5.9218404617265,nan,False,live,nan
03/26/2024-10:50:51.652514 -- 800031,0.3,0.0,0.0,1.0,0.0,0,-6.103066625863486,53.74000891880549,654,6287.0875816993,0.013723664089115,0.010429816893866,-0.041246442122892,6.0368737167351,nan,False,live,nan
03/26/2024-10:50:51.688783 -- 800039,0.3,0.0,0.0,1.0,0.0,0,-6.112492729331985,53.99980316270851,656,6314.4083769634,0.035743479895435,-0.016491421548893,0.065390453932552,5.970241835273,nan,False,live,nan
03/26/2024-10:50:51.707217 -- 800047,0.3,0.0,0.0,1.0,0.0,0,-6.089729161375785,54.1413175291815,657,6304.1739319965,0.041874014700544,0.023020431592187,0.060441202362033,5.9098006329109,nan,False,live,nan
03/26/2024-10:50:51.739411 -- 800051,0.3,0.0,0.0,1.0,0.0,0,-6.076545092749485,54.4785098335335,659,6155.431372549,0.040004248786781,0.0045380412502019,0.0064641539407458,5.880990930704,nan,False,live,nan
03/26/2024-10:50:51.775056 -- 800038,0.3,0.0,0.0,1.0,0.0,0,-6.174640615804185,54.7192199327475,661,5839.2592754256,0.057026254778056,-4.0368709979289e-05,-0.047056650741979,5.9803820479981,nan,False,live,nan
03/26/2024-10:50:51.807458 -- 800030,0.3,0.0,0.0,1.0,0.0,0,-6.2074044501563845,54.8446112972325,663,5754.5071895425,0.0092721796425896,0.0083830869516956,-0.0217241198105,6.0431840535257,nan,False,live,nan
03/26/2024-10:50:51.838628 -- 800039,0.3,0.0,0.0,1.0,0.0,0,-6.4567711362665845,55.01963304487949,665,5177.1513301352,0.028568678709798,-0.018556251176043,0.034590138101747,5.9736787455234,nan,False,live,nan
03/26/2024-10:50:51.873793 -- 800053,0.3,0.0,0.0,1.0,0.0,0,-6.512739259969786,55.39501838214451,667,4421.4864864865,0.035926980191965,-0.016124886667326,0.06481627721801,5.8643023862883,nan,False,live,nan
