timestamp -- motor_step_command,mfc1_stpt,mfc2_stpt,mfc3_stpt,led1_stpt,led2_stpt,sig_status,ft_posx,ft_posy,ft_frame,ft_error,ft_roll,ft_pitch,ft_yaw,ft_heading,adapted_center,instrip,mode,strip_thresh
03/22/2024-13:10:27.861362 -- 800000,0.3,0.0,0.0,1.0,0.0,0,0.0022608175392977103,0.0159638447956212,121,932.32142857143,-0.00016946510606636,-0.00027446091000816,3.3101480142954e-05,6.2821421777461,nan,False,live,nan
03/22/2024-13:10:27.895281 -- 800000,0.3,0.0,0.0,1.0,0.0,0,0.0013062029417428799,0.015104173274856601,123,833.34102787456,-0.00014310757196402,-0.00015925627289951,3.1223699475458e-05,6.2820797303471,nan,False,live,nan
03/22/2024-13:10:27.927941 -- 800000,0.3,0.0,0.0,1.0,0.0,0,0.00226942249396635,0.015938768438102997,125,1083.9237804878,0.00041692296057572,-0.00044288379433886,0.00040638729912288,6.2820257370152,nan,False,live,nan
03/22/2024-13:10:27.962082 -- 800000,0.3,0.0,0.0,1.0,0.0,0,-0.0008415348514368901,0.016293033975827098,127,876.78919860627,7.5522311455766e-05,-0.00050858091359757,2.7523437606693e-05,6.2820047814635,nan,False,live,nan
03/22/2024-13:10:27.996407 -- 800000,0.3,0.0,0.0,1.0,0.0,0,0.00244050996754008,0.0156699990408474,129,1032.7452090592,-0.000276541291799,0.00060712679859074,-1.2519187756556e-05,6.2820868938815,nan,False,live,nan
03/22/2024-13:10:28.029423 -- 800000,0.3,0.0,0.0,1.0,0.0,0,0.00101296346018643,0.0156319457290455,131,910.0775261324,-1.8523784828412e-05,-0.00019461101157836,-0.00010811207681658,6.2823132132186,nan,False,live,nan
03/22/2024-13:10:28.062548 -- 800000,0.3,0.0,0.0,1.0,0.0,0,0.00218503463617497,0.016096376380311597,133,990.2091503268,0.00023672880727786,0.00055057255233672,1.5756684340648e-05,6.2818817940527,nan,False,live,nan
03/22/2024-13:10:28.095324 -- 800000,0.3,0.0,0.0,1.0,0.0,0,0.0008577901303086899,0.0163506172258863,135,743.30662020906,5.1203279640113e-05,-0.0001842974385722,-0.00012198345890415,6.2821449268569,nan,False,live,nan
03/22/2024-13:10:28.129254 -- 800000,0.3,0.0,0.0,1.0,0.0,0,0.00067625211518877,0.0151682373722649,137,950.10801393728,-0.00018396393290602,-3.8573527579309e-05,6.9985874349536e-05,6.2819836251823,nan,False,live,nan
03/22/2024-13:10:28.161441 -- 800000,0.3,0.0,0.0,1.0,0.0,0,0.00145658586124383,0.0153823474267917,139,1042.7112369338,-0.00038968815315887,0.00031306418080079,-0.0001413910595561,6.2819310529378,nan,False,live,nan
03/22/2024-13:10:28.196405 -- 800000,0.3,0.0,0.0,1.0,0.0,0,-0.000258610785194274,0.0154298256827709,141,921.19468641115,1.1443531475218e-05,-0.00057853355772085,-0.00064478553968562,6.2824810538036,nan,False,live,nan
03/22/2024-13:10:28.227270 -- 800000,0.3,0.0,0.0,1.0,0.0,0,0.00039563960262471,0.0150806186348997,143,985.13806620209,-0.00052152102088611,-0.00021245715763461,0.00020865758636145,6.2818297600383,nan,False,live,nan
03/22/2024-13:10:28.262329 -- 800000,0.3,0.0,0.0,1.0,0.0,0,-2.14906278896517e-05,0.015564981471494701,145,1025.9307491289,5.3778127321793e-05,-7.4064669596522e-05,-9.417510529127e-05,6.2820532297506,nan,False,live,nan
03/22/2024-13:10:28.296031 -- 800000,0.3,0.0,0.0,1.0,0.0,0,0.00083551124209923,0.016296549888551698,147,889.63893728223,0.00018706549165448,-0.00063478807846496,0.00032730083093974,6.281922067679,nan,False,live,nan
03/22/2024-13:10:28.329132 -- 800000,0.3,0.0,0.0,1.0,0.0,0,0.0018059559072470702,0.0146751077148639,149,1048.7587108014,-0.00071707719050936,-0.00018796312579186,-0.00037266983859289,6.2820316254144,nan,False,live,nan
03/22/2024-13:10:28.362445 -- 800000,0.3,0.0,0.0,1.0,0.0,0,0.0008545254889163699,0.015437054495811002,151,963.01175958188,8.6476532227497e-05,0.00036947928274563,-8.1018073774111e-06,6.2820077796404,nan,False,live,nan
03/22/2024-13:10:28.396298 -- 800000,0.3,0.0,0.0,1.0,0.0,0,0.0015974046049863598,0.0149646717798831,153,997.59930313589,-7.0164277661376e-05,0.00013139172409344,3.2190872060242e-06,6.2820001497925,nan,False,live,nan
03/22/2024-13:10:28.428785 -- 800000,0.3,0.0,0.0,1.0,0.0,0,-0.00091293698706333,0.013599079379843098,155,1040.488453159,-0.00099506934387746,-0.0012588346268604,-5.6018119931558e-05,6.2824017862574,nan,False,live,nan
03/22/2024-13:10:28.461981 -- 800000,0.3,0.0,0.0,1.0,0.0,0,-0.00071760302239674,0.0156708697641645,157,990.68162020906,8.2970939707487e-05,-0.00020855290924185,-0.00028198800185082,6.2820811447757,nan,False,live,nan
03/22/2024-13:10:28.496356 -- 800000,0.3,0.0,0.0,1.0,0.0,0,-0.00023572539067993501,0.015140409605948101,159,871.27538126362,-6.0176230945348e-05,-0.00044279797047533,-0.00038357017833513,6.2820823722499,nan,False,live,nan
03/22/2024-13:10:28.529984 -- 800000,0.3,0.0,0.0,1.0,0.0,0,-0.00099466889017065,0.0160641369112758,161,757.68641114983,0.00037556738601177,-0.00089788505040708,0.00035462336468709,6.2821734060214,nan,False,live,nan
03/22/2024-13:10:28.562909 -- 800000,0.3,0.0,0.0,1.0,0.0,0,0.0015250186892585998,0.016415166047044502,163,865.19738562092,-0.00023063833464025,0.00014121678427383,-0.00099649473603503,6.2826540265419,nan,False,live,nan
03/22/2024-13:10:28.596030 -- 800000,0.3,0.0,0.0,1.0,0.0,0,-0.00011617006709671499,0.0152969320838568,165,845.60844947735,-0.00020837110431538,0.0002318572564089,-0.00068751841455112,6.2824702511999,nan,False,live,nan
03/22/2024-13:10:28.629639 -- 800000,0.3,0.0,0.0,1.0,0.0,0,0.00258050662772298,0.0163365021564456,167,1012.5753484321,0.00014322615888839,-8.7943759925087e-05,0.00022757548324456,6.2820809686262,nan,False,live,nan
03/22/2024-13:10:28.662208 -- 800000,0.3,0.0,0.0,1.0,0.0,0,-0.0010707512378333398,0.0162447481554516,169,1149.1977351916,0.00036109628532658,-0.0010740162726387,-0.00035059885148448,6.2819868835682,nan,False,live,nan
03/22/2024-13:10:28.695371 -- 800000,0.3,0.0,0.0,1.0,0.0,0,0.00112222188550674,0.01648951795308,171,974.32534843206,0.0001446667747578,-0.00031798621335651,-0.00040141072594532,6.2822183609493,nan,False,live,nan
03/22/2024-13:10:28.728765 -- 800000,0.3,0.0,0.0,1.0,0.0,0,0.00110522297462133,0.016894242912761398,173,1053.5753484321,7.061113056346e-05,-1.3212535501342e-05,0.00023358425567162,6.2816864931386,nan,False,live,nan
03/22/2024-13:10:28.762089 -- 800000,0.3,0.0,0.0,1.0,0.0,0,0.0014986660270080601,0.0159886446515835,175,1094.528540305,-0.0002209698528156,-0.00027304562333998,0.00050804682073124,6.2818409898734,nan,False,live,nan
03/22/2024-13:10:28.795513 -- 800000,0.3,0.0,0.0,1.0,0.0,0,0.00060120951629931,0.0148009311674334,177,806.63458188153,-0.00033970688625902,0.00046876727980352,-1.3381818050908e-05,6.2822701209691,nan,False,live,nan
03/22/2024-13:10:28.816806 -- 800000,0.3,0.0,0.0,1.0,0.0,0,0.0011345587931778,0.015102449123996699,178,895.35714285714,0.00010032432967419,0.00017788566567738,0.00021260722628871,6.2820575137428,nan,False,live,nan
03/22/2024-13:10:28.846591 -- 800000,0.3,0.0,0.0,1.0,0.0,0,-0.00021838367318388,0.016543948592973298,180,916.40548780488,0.00042210085001528,-0.00064551535359858,4.2132831668255e-06,6.281866500114,nan,False,live,nan
03/22/2024-13:10:28.878943 -- 800000,0.3,0.0,0.0,1.0,0.0,0,0.00238020873911178,0.016570522495356302,182,968.82491289199,7.06742771235e-05,0.00061158989088619,-0.00073040146808119,6.2824172898774,nan,False,live,nan
03/22/2024-13:10:28.912025 -- 800000,0.3,0.0,0.0,1.0,0.0,0,-0.00077415200622459,0.015856833148863603,184,951.74303135888,-0.00018047071998136,-0.0011201643577253,-0.00032803240146153,6.2822226851451,nan,False,live,nan
03/22/2024-13:10:28.945346 -- 800000,0.3,0.0,0.0,1.0,0.0,0,-0.00089213520947424,0.0161794937116194,186,1021.4699477352,4.3820283088966e-05,-0.00059600582037849,-1.416695747926e-05,6.2821456134373,nan,False,live,nan
03/22/2024-13:10:28.976680 -- 800000,0.3,0.0,0.0,1.0,0.0,0,0.00180426267493629,0.0164341164803661,188,998.1581010453,4.2091174660426e-05,0.00039966582120021,-9.2639260649223e-05,6.28234039801,nan,False,live,nan
03/22/2024-13:10:29.012356 -- 800000,0.3,0.0,0.0,1.0,0.0,0,0.00121656725555952,0.0166906647240237,190,941.88588850174,4.3555400194022e-05,-0.00059549783598568,5.580653115691e-06,6.2824274566176,nan,False,live,nan
03/22/2024-13:10:29.033319 -- 800000,0.3,0.0,0.0,1.0,0.0,0,-0.000271475146714314,0.0168197671357944,191,1147.9215686275,4.3408977640662e-05,-0.00049598147026709,-4.2413382608004e-06,6.2824316979558,nan,False,live,nan
03/22/2024-13:10:29.062868 -- 800000,0.3,0.0,0.0,1.0,0.0,0,0.00125384723442321,0.0157458450289023,193,1104.5884146341,9.5015929772962e-05,-0.00047699852948031,-2.8476712733967e-05,6.2819847600112,nan,False,live,nan
03/22/2024-13:10:29.094974 -- 800000,0.3,0.0,0.0,1.0,0.0,0,-0.0008200750571584199,0.0160141813492416,195,1081.818815331,4.5143576550592e-05,-0.00034559900183983,1.7115864317618e-05,6.2819505282826,nan,False,live,nan
03/22/2024-13:10:29.129322 -- 800000,0.3,0.0,0.0,1.0,0.0,0,0.00203090123620638,0.0167630913839223,197,1160.9529616725,-9.8339690285876e-05,-0.00039674149401285,0.00016879611472848,6.2815936728969,nan,False,live,nan
03/22/2024-13:10:29.162039 -- 800000,0.3,0.0,0.0,1.0,0.0,0,0.00154590358259304,0.015284549571501299,199,728.5631533101,-0.00034729427538333,0.00063255917788601,0.00034040697314132,6.2819110344506,nan,False,live,nan
03/22/2024-13:10:29.196410 -- 800000,0.3,0.0,0.0,1.0,0.0,0,0.00183048981118917,0.0156203380760493,201,913.89677700348,-0.00027030910520248,0.00050432106623964,0.00017758682662287,6.2822309797929,nan,False,live,nan
03/22/2024-13:10:29.230044 -- 800000,0.3,0.0,0.0,1.0,0.0,0,0.000249533267771772,0.015194407880320499,203,949.21515679443,0.00011359722997469,-0.00084096383767743,5.0778054384593e-05,6.2820953160814,nan,False,live,nan
03/22/2024-13:10:29.261214 -- 800000,0.3,0.0,0.0,1.0,0.0,0,-0.0040974019988433,0.0156524342666838,205,1208.8911149826,7.7166863491022e-05,-0.00072440136794727,5.4515346297339e-05,6.2819862853888,nan,False,live,nan
03/22/2024-13:10:29.285934 -- 800000,0.3,0.0,0.0,1.0,0.0,0,-0.0034306831211310005,0.015160405858456502,206,956.77221254355,-0.0001643390298676,0.00022199604179405,0.00056937522766473,6.2814169101612,nan,False,live,nan
03/22/2024-13:10:29.315387 -- 800000,0.3,0.0,0.0,1.0,0.0,0,0.0018399330372197399,0.015525647826324599,208,1014.4181184669,-4.8941063680183e-05,0.00082515012817194,0.00086119132391338,6.2815894837904,nan,False,live,nan
03/22/2024-13:10:29.345855 -- 800000,0.3,0.0,0.0,1.0,0.0,0,0.00189498986286762,0.014699423166377998,210,833.58013937282,-0.00026467488717302,0.00068773198868252,-6.315750757064e-05,6.2826517704106,nan,False,live,nan
03/22/2024-13:10:29.378871 -- 800000,0.3,0.0,0.0,1.0,0.0,0,0.0007592960111115901,0.015766766669735102,212,911.11280487805,0.00017845030114352,0.00055082247008793,-0.00043859304529071,6.2826053829928,nan,False,live,nan
03/22/2024-13:10:29.412459 -- 800000,0.3,0.0,0.0,1.0,0.0,0,0.000137505672984273,0.0160892426779482,214,863.94076655052,6.6309871287868e-05,0.00025792935645104,-0.00018062850751899,6.2820890397579,nan,False,live,nan
03/22/2024-13:10:29.446326 -- 800000,0.3,0.0,0.0,1.0,0.0,0,0.0013038620558362799,0.0164812322870748,216,960.19947735192,6.5138556070074e-05,0.00019445750301676,-0.00010336304406813,6.2822957658461,nan,False,live,nan
03/22/2024-13:10:29.479184 -- 800000,0.3,0.0,0.0,1.0,0.0,0,0.00079555234266963,0.0166115362069464,218,920.83580139373,-2.1470402250608e-05,-0.00036386304215387,0.00060666227573618,6.2817924666144,nan,False,live,nan
03/22/2024-13:10:29.511936 -- 800000,0.3,0.0,0.0,1.0,0.0,0,-0.00038842322199669006,0.0157287255684714,220,1010.4298780488,-0.00031368892561811,-0.001641333781918,1.2059081201158e-06,6.282323949151,nan,False,live,nan
03/22/2024-13:10:29.544848 -- 800000,0.3,0.0,0.0,1.0,0.0,0,-0.0031042492869873,0.0144433901623893,222,1105.7995642702,-0.00016516709066588,-2.8801368019516e-05,-0.00081232487283443,6.2823068581806,nan,False,live,nan
03/22/2024-13:10:29.567098 -- 800000,0.3,0.0,0.0,1.0,0.0,0,-0.00141203471013111,0.017006906795067597,223,915.25566202091,0.00085355433153361,0.00056551005916554,0.0016117799114872,6.2806950782691,nan,False,live,nan
03/22/2024-13:10:29.592895 -- 800000,0.3,0.0,0.0,1.0,0.0,0,0.0015003901854488398,0.014887130447241898,225,1083.2116724739,-0.00035796394651048,0.00075172082174813,-0.00038606670663764,6.2821732748,nan,False,live,nan
03/22/2024-13:10:29.626904 -- 800000,0.3,0.0,0.0,1.0,0.0,0,8.2379210577852e-05,0.0151981992491118,227,838.58275261324,3.4054272157049e-05,-0.00071123786367208,0.00013315284700954,6.2817473085615,nan,False,live,nan
03/22/2024-13:10:29.660552 -- 800000,0.3,0.0,0.0,1.0,0.0,0,-0.0009248583417088799,0.015144301497459,229,639.08841463415,8.1322912566264e-06,0.00038905136398399,9.0247121223442e-05,6.2818635620192,nan,False,live,nan
03/22/2024-13:10:29.694177 -- 800000,0.3,0.0,0.0,1.0,0.0,0,0.0035941204671816,0.0160335891485421,231,921.03266550523,0.00013762822547207,0.0012514128913634,-5.1955929943433e-05,6.2818564268145,nan,False,live,nan
03/22/2024-13:10:29.727558 -- 800000,0.3,0.0,0.0,1.0,0.0,0,-0.0009486513429588899,0.014455099353602698,233,1042.8318815331,-0.00061986505476257,0.00014643022136944,0.00032839829007725,6.28208620592,nan,False,live,nan
03/22/2024-13:10:29.760900 -- 800000,0.3,0.0,0.0,1.0,0.0,0,-0.0010200341791452299,0.016203886374295498,235,849.12848432056,0.00017386905959051,-0.00017182210355753,-6.0007477372697e-05,6.2820758824433,nan,False,live,nan
03/22/2024-13:10:29.794219 -- 800000,0.3,0.0,0.0,1.0,0.0,0,-0.0015614636997550503,0.0158628431892531,237,1054.6598432056,-0.00030130306065202,-3.9300186358694e-05,0.00017805430988264,6.2819430559324,nan,False,live,nan
03/22/2024-13:10:29.827797 -- 800000,0.3,0.0,0.0,1.0,0.0,0,-0.0009561182254662299,0.0158092382203599,239,887.55879790941,0.00023418428216438,0.00025132704488669,0.00041499651204646,6.2813723333214,nan,False,live,nan
03/22/2024-13:10:29.863048 -- 800000,0.3,0.0,0.0,1.0,0.0,0,0.0014902665501289798,0.015602691081797699,241,790.73170731707,-0.00034458375648887,0.00055916654787981,-2.8129224818447e-05,6.2820067938248,nan,False,live,nan
03/22/2024-13:10:29.893841 -- 800000,0.3,0.0,0.0,1.0,0.0,0,0.00290514077170653,0.0161585971694043,243,939.35322299652,-0.00020774415746941,0.00057598132591584,0.00015591514682903,6.2823042707255,nan,False,live,nan
03/22/2024-13:10:29.926555 -- 800000,0.3,0.0,0.0,1.0,0.0,0,0.0007723940142132001,0.0152415213997509,245,888.65010893246,-5.5479409492393e-06,-4.5790001185853e-05,9.4363634647268e-05,6.2820005335525,nan,False,live,nan
03/22/2024-13:10:29.960993 -- 800000,0.3,0.0,0.0,1.0,0.0,0,0.00019691448288962398,0.0150398569241415,247,761.83057491289,-3.3487034862442e-05,-9.5956517770429e-05,0.00010475847357387,6.2817910166053,nan,False,live,nan
03/22/2024-13:10:29.994243 -- 800000,0.3,0.0,0.0,1.0,0.0,0,-0.00100051708030407,0.0161783377392,249,985.67334494774,0.0001794672374857,-0.00040482434176744,-0.00070584787236743,6.2822748293493,nan,False,live,nan
03/22/2024-13:10:30.027531 -- 800000,0.3,0.0,0.0,1.0,0.0,0,0.0016670382122035501,0.0165478378563747,251,850.37195121951,0.00038996224970196,0.00049159072183687,-0.0010570347653201,6.2823454361174,nan,False,live,nan
03/22/2024-13:10:30.059213 -- 800000,0.3,0.0,0.0,1.0,0.0,0,-0.00095062873884318,0.0150348659112126,253,958.48867595819,-0.00021872004650103,-0.00089403655150265,-0.00012980396010565,6.2822133062451,nan,False,live,nan
03/22/2024-13:10:30.092385 -- 800000,0.3,0.0,0.0,1.0,0.0,0,0.0004892736404517,0.0162040388102343,255,999.20479302832,0.00023709075636199,0.00020097027282695,-0.0004034241805833,6.2819513499556,nan,False,live,nan
03/22/2024-13:10:30.128989 -- 800000,0.3,0.0,0.0,1.0,0.0,0,-0.00124397521717284,0.0173039343876654,257,682.96341463415,0.0014386736611809,-0.00078980685928209,0.00016684095768923,6.2823511024493,nan,False,live,nan
03/22/2024-13:10:30.162107 -- 800000,0.3,0.0,0.0,1.0,0.0,0,-0.0010141144443036,0.016430166891304502,259,770.01655052265,-0.00016874686534722,-0.00066770390547698,-0.00052448921827857,6.2823555015857,nan,False,live,nan
03/22/2024-13:10:30.193908 -- 800000,0.3,0.0,0.0,1.0,0.0,0,0.00012697812851168402,0.0159616490204898,261,910.22865853659,-5.7320911340858e-05,-0.00011220248252682,0.00078022354297817,6.2818203256286,nan,False,live,nan
03/22/2024-13:10:30.228041 -- 800000,0.3,0.0,0.0,1.0,0.0,0,0.00068144490388317,0.0158757231129969,263,1019.0653310105,-1.6922450247991e-05,8.426685135059e-05,-0.00025891893808792,6.282442032742,nan,False,live,nan
03/22/2024-13:10:30.262163 -- 800000,0.3,0.0,0.0,1.0,0.0,0,0.0028787655236878497,0.0169089326558241,265,1002.8871459695,0.0004326866268256,9.7323861607524e-05,0.00015916972556394,6.2815492851524,nan,False,live,nan
03/22/2024-13:10:30.296580 -- 800000,0.3,0.0,0.0,1.0,0.0,0,0.0008847243968892,0.0157881123832905,267,1149.8963414634,0.00010541535413656,0.000305902557971,-0.0002558041948053,6.2824467630311,nan,False,live,nan
03/22/2024-13:10:30.327036 -- 800000,0.3,0.0,0.0,1.0,0.0,0,0.0018976068904313099,0.0156380284304793,269,1090.0901567944,-1.3281704128354e-05,0.00016682247640435,-0.0004595569343616,6.2822741965212,nan,False,live,nan
03/22/2024-13:10:30.363112 -- 800000,0.3,0.0,0.0,1.0,0.0,0,-0.000130793602660566,0.0153264604695342,271,1205.1781358885,-8.8430425449165e-05,-0.00084363110598032,0.00081872317480016,6.2818150425529,nan,False,live,nan
03/22/2024-13:10:30.394728 -- 800000,0.3,0.0,0.0,1.0,0.0,0,-0.00042649990764101996,0.0162882567114483,273,956.30270034843,0.00045834428532133,-0.00063651253545435,0.00043067566258753,6.2819988550319,nan,False,live,nan
03/22/2024-13:10:30.425877 -- 800000,0.3,0.0,0.0,1.0,0.0,0,-0.00185155910939991,0.0155149610980344,275,822.39764808362,-0.00013395940571076,-0.00057950124544766,0.00039893293045509,6.28220052105,nan,False,live,nan
03/22/2024-13:10:30.446342 -- 800000,0.3,0.0,0.0,1.0,0.0,0,0.00174856114289262,0.0163804515699861,276,846.72648083624,0.00028726692173159,0.0012003350937672,7.994437965864e-05,6.2821205766704,nan,False,live,nan
03/22/2024-13:10:30.479611 -- 800000,0.3,0.0,0.0,1.0,0.0,0,0.00197734450783191,0.0147149304368313,278,1123.3921568627,-0.00024601783975314,0.00075859036656492,-0.00044378619496747,6.2826586231787,nan,False,live,nan
03/22/2024-13:10:30.513220 -- 800000,0.3,0.0,0.0,1.0,0.0,0,-0.000286462055207091,0.016435710448283097,280,868.19381533101,0.00026470915668185,-2.7636742942323e-05,-3.8709492156351e-05,6.2817768227301,nan,False,live,nan
03/22/2024-13:10:30.545123 -- 800000,0.3,0.0,0.0,1.0,0.0,0,-0.00031254906955209,0.016092677858192697,282,941.05792682927,0.00019006252793897,-0.00038758093498199,-3.9714989978386e-05,6.2817775038033,nan,False,live,nan
03/22/2024-13:10:30.577097 -- 800000,0.3,0.0,0.0,1.0,0.0,0,0.00165181154977284,0.0164158311393354,284,1021.7221254355,5.8314626803311e-05,0.00029361951011931,-8.7933038692673e-05,6.2819596078793,nan,False,live,nan
03/22/2024-13:10:30.596150 -- 800000,0.3,0.0,0.0,1.0,0.0,0,0.0025324627279385403,0.0165918158366967,285,976.06271777003,5.8314626803311e-05,0.00029361951011931,-8.7933038692673e-05,6.282047540918,nan,False,live,nan
03/22/2024-13:10:30.629097 -- 800000,0.3,0.0,0.0,1.0,0.0,0,0.0043836231935523,0.014102594473573201,287,1127.6297909408,-0.00088864952857291,0.00032274638456417,-0.00040794946579865,6.2825434234225,nan,False,live,nan
03/22/2024-13:10:30.662125 -- 800000,0.3,0.0,0.0,1.0,0.0,0,-0.000292164167173395,0.0153209466264786,289,825.67944250871,0.00017276111870795,0.0003540151729352,-0.0001746188864455,6.2824658133998,nan,False,live,nan
03/22/2024-13:10:30.695494 -- 800000,0.3,0.0,0.0,1.0,0.0,0,0.00094436407313673,0.0152161376999712,291,808.53179442509,-0.00012895621284277,-0.00024979523044321,-0.00014275393153231,6.2822468112504,nan,False,live,nan
03/22/2024-13:10:30.729853 -- 800000,0.3,0.0,0.0,1.0,0.0,0,-0.00282368146933794,0.015087924032830501,293,1178.1411149826,6.2959546546201e-05,-0.0024151078413205,0.00014379673131292,6.2822142268921,nan,False,live,nan
03/22/2024-13:10:30.762177 -- 800000,0.3,0.0,0.0,1.0,0.0,0,0.00095015833999245,0.0155227230218478,295,990.63414634146,0.00015234441125298,-0.00046588110096207,0.00061713152378426,6.2818014991202,nan,False,live,nan
03/22/2024-13:10:30.793936 -- 800000,0.3,0.0,0.0,1.0,0.0,0,0.0031955719224036,0.0150078169743891,297,960.0631533101,0.00012152116270714,0.00068214104302127,6.7581946495908e-05,6.2825106207985,nan,False,live,nan
03/22/2024-13:10:30.827881 -- 800000,0.3,0.0,0.0,1.0,0.0,0,0.0008164322673530401,0.016406400898775098,299,1117.7511982571,0.00035409000002431,-0.00068321721669757,5.5881789478082e-05,6.2818746336753,nan,False,live,nan
03/22/2024-13:10:30.862060 -- 800000,0.3,0.0,0.0,1.0,0.0,0,0.00054500230750665,0.0160384667084703,301,908.51829268293,0.00054607855936608,0.0005384860018426,-4.0862401648586e-05,6.2818702511154,nan,False,live,nan
03/22/2024-13:10:30.895711 -- 800000,0.3,0.0,0.0,1.0,0.0,0,0.0004309118991579,0.0150823734933078,303,708.52656794425,-0.00010881352070296,-7.9295247314312e-06,0.00020433022332384,6.282120624367,nan,False,live,nan
03/22/2024-13:10:30.928346 -- 800000,0.3,0.0,0.0,1.0,0.0,0,0.00128100558723951,0.0164458767843189,305,1010.4653594771,0.00056660956372035,0.00028961919351296,0.00014396053541219,6.2818340067379,nan,False,live,nan
03/22/2024-13:10:30.960754 -- 800000,0.3,0.0,0.0,1.0,0.0,0,0.00230394015031635,0.0148341370400862,307,816.54529616725,-9.6264059467633e-05,0.0004673181528701,0.00054569809535424,6.2820631554573,nan,False,live,nan
03/22/2024-13:10:30.980722 -- 800000,0.3,0.0,0.0,1.0,0.0,0,0.0041166870218118,0.0157263537617802,308,1058.3824041812,0.00029681443052359,0.00060453955569168,-0.00028814888289024,6.2823513043402,nan,False,live,nan
03/22/2024-13:10:31.011353 -- 800000,0.3,0.0,0.0,1.0,0.0,0,0.0007332194278689,0.0158290113362313,310,836.55662020906,0.00020648954695432,0.00025465085154994,0.00022782055923593,6.2819912290058,nan,False,live,nan
03/22/2024-13:10:31.043668 -- 800000,0.3,0.0,0.0,1.0,0.0,0,-0.00121099064891829,0.014989888659814498,312,893.78048780488,0.00034341750118647,-0.00050086811455416,0.0005598896200496,6.2819877539693,nan,False,live,nan
03/22/2024-13:10:31.077634 -- 800000,0.3,0.0,0.0,1.0,0.0,0,-0.00034262646574782,0.016329746649382502,314,860.42029616725,0.00012078758214873,0.00074564924575775,0.00052870187884034,6.282000546522,nan,False,live,nan
03/22/2024-13:10:31.111071 -- 800000,0.3,0.0,0.0,1.0,0.0,0,0.00106119956371854,0.0172946845796808,316,845.90940766551,0.00018042392992577,-0.00015705237370781,-0.00054134717471134,6.282110236794,nan,False,live,nan
03/22/2024-13:10:31.143823 -- 800000,0.3,0.0,0.0,1.0,0.0,0,-0.0006337063930026299,0.017116096148705698,318,973.32229965157,0.00071920613286569,8.1832729449999e-05,-0.00011505860783714,6.2820967504814,nan,False,live,nan
03/22/2024-13:10:31.177690 -- 800000,0.3,0.0,0.0,1.0,0.0,0,-0.00077920484214864,0.015929677419618,320,936.62325783972,0.00038370515150537,1.1917655412971e-05,-0.00096541025089061,6.2822014921462,nan,False,live,nan
03/22/2024-13:10:31.211474 -- 800000,0.3,0.0,0.0,1.0,0.0,0,0.0008277494527893601,0.0147661932352086,322,853.84494773519,-0.00069633024225266,-0.00056673832099882,0.00041114999057057,6.2818691038516,nan,False,live,nan
03/22/2024-13:10:31.243959 -- 800000,0.3,0.0,0.0,1.0,0.0,0,0.00258072833331675,0.0165093305907096,324,899.57404181185,0.00031508344998014,5.0291051233627e-05,3.3070375430539e-05,6.2819143079661,nan,False,live,nan
03/22/2024-13:10:31.277792 -- 800000,0.3,0.0,0.0,1.0,0.0,0,0.00122465407034814,0.0172128692573463,326,879.74466230937,-7.0091954826676e-05,7.4773442023267e-05,-1.9090978226885e-05,6.2820310535495,nan,False,live,nan
03/22/2024-13:10:31.310931 -- 800000,0.3,0.0,0.0,1.0,0.0,0,0.0028418057134071,0.0159506671889367,328,954.52743902439,0.00019782189552449,0.0014857986452183,-0.00042898910117217,6.2823674843221,nan,False,live,nan
03/22/2024-13:10:31.344783 -- 800000,0.3,0.0,0.0,1.0,0.0,0,0.0031246361190798,0.0166444070899425,330,1043.1450980392,0.00011591718911298,0.00011065946399812,4.4399255984907e-05,6.2822317506681,nan,False,live,nan
03/22/2024-13:10:31.376999 -- 800000,0.3,0.0,0.0,1.0,0.0,0,0.00157581039936879,0.0140936273648538,332,856.86803135888,-0.00038920635851932,-0.00024199439019811,-0.00061541502758878,6.2824249014221,nan,False,live,nan
03/22/2024-13:10:31.410067 -- 800000,0.3,0.0,0.0,1.0,0.0,0,0.0028742127460982102,0.016239449863229997,334,601.39459930314,0.00031810968317928,0.00019254708716148,-7.7800809577744e-05,6.2825318780482,nan,False,live,nan
03/22/2024-13:10:31.444355 -- 800000,0.3,0.0,0.0,1.0,0.0,0,-8.8257642053979e-05,0.0148207738677846,336,969.99172473868,-0.00027328409508681,0.00046430340641126,-0.00084834165983825,6.2822415176588,nan,False,live,nan
03/22/2024-13:10:31.479317 -- 800000,0.3,0.0,0.0,1.0,0.0,0,0.0009718843918651201,0.0161948536894902,338,880.3462543554,0.00042733487797606,0.00076151991280368,0.00050769425469281,6.2819158001258,nan,False,live,nan
03/22/2024-13:10:31.512142 -- 800000,0.3,0.0,0.0,1.0,0.0,0,-0.0021922904311638,0.0158643536923452,340,958.3031358885,-0.00026790582216247,0.00023902190100619,0.00024751034880876,6.2818026305462,nan,False,live,nan
03/22/2024-13:10:31.545435 -- 800000,0.3,0.0,0.0,1.0,0.0,0,-0.00032011925419653004,0.0152438687291619,342,877.99259581882,-0.00011001752093851,0.00030104009399968,-0.00029190884046615,6.2824427723131,nan,False,live,nan
03/22/2024-13:10:31.580414 -- 800000,0.3,0.0,0.0,1.0,0.0,0,0.0006272601451293299,0.0161219749238274,344,1207.8671602787,0.00012354646958228,-0.00096544078068916,0.00015788911308435,6.282037572906,nan,False,live,nan
03/22/2024-13:10:31.613326 -- 800000,0.3,0.0,0.0,1.0,0.0,0,-0.0038770214248988995,0.0168679304376822,346,1089.7338850174,0.00012530862689229,-0.00075055019074818,0.00016143903983653,6.2817146948263,nan,False,live,nan
03/22/2024-13:10:31.645930 -- 800000,0.3,0.0,0.0,1.0,0.0,0,0.0005248575889093201,0.0168399454419174,348,986.8074912892,1.0628354003592e-05,-0.00031940554074233,4.6263265965028e-05,6.2818601617309,nan,False,live,nan
03/22/2024-13:10:31.680737 -- 800000,0.3,0.0,0.0,1.0,0.0,0,0.0030041275576926,0.014778796309854,350,963.09886759582,0.00025032077067767,0.0012753906235221,-2.534017990357e-05,6.2819145824437,nan,False,live,nan
03/22/2024-13:10:31.710930 -- 800000,0.3,0.0,0.0,1.0,0.0,0,-0.00092039470905825,0.015794279990985,352,1127.543554007,-0.00030674703868619,0.00071581431749506,0.0005020448620185,6.2816729524759,nan,False,live,nan
03/22/2024-13:10:31.746871 -- 800000,0.3,0.0,0.0,1.0,0.0,0,-0.00056968968585933,0.0146724923045097,354,843.30718954248,-0.00017406782186639,-0.00036883329830046,0.00036913460347162,6.2818754580442,nan,False,live,nan
03/22/2024-13:10:31.778567 -- 800000,0.3,0.0,0.0,1.0,0.0,0,0.00092705368897656,0.01593810009234,356,975.25827526132,0.00019025810037447,0.0002216306407081,-0.00015034053407521,6.2822245163986,nan,False,live,nan
03/22/2024-13:10:31.813183 -- 800000,0.3,0.0,0.0,1.0,0.0,0,-0.0034960557436929,0.0134401161177192,358,1101.1676829268,-0.001105369596442,-0.00033438741695987,4.8474593169109e-05,6.2818948096636,nan,False,live,nan
03/22/2024-13:10:31.844748 -- 800000,0.3,0.0,0.0,1.0,0.0,0,-0.00160108352006754,0.015598640082858599,360,1026.3706445993,-4.5509088505201e-05,-0.0011602653233304,0.00040098433494611,6.281749598294,nan,False,live,nan
03/22/2024-13:10:31.878134 -- 800000,0.3,0.0,0.0,1.0,0.0,0,0.0019975411384973102,0.0166063797954807,362,775.49695121951,0.00014435838097508,-0.00028229280318257,0.00010010634501384,6.2820698082576,nan,False,live,nan
03/22/2024-13:10:31.911580 -- 800000,0.3,0.0,0.0,1.0,0.0,0,0.004234747983848999,0.014724586429965901,364,820.80487804878,-0.00077512782874367,0.00087472468005202,-0.00050486226979373,6.2825190178779,nan,False,live,nan
03/22/2024-13:10:31.945481 -- 800000,0.3,0.0,0.0,1.0,0.0,0,-0.00045276036896283,0.015825330568384498,366,850.69729965157,-6.4986681955324e-05,-0.00042272786725465,-0.00012083459588326,6.2821858381357,nan,False,live,nan
03/22/2024-13:10:31.979861 -- 800000,0.3,0.0,0.0,1.0,0.0,0,0.00198214111901073,0.0155510359636773,368,816.00391986063,-5.0533200918628e-05,0.00088158454223994,-5.1834306820318e-05,6.2821487816876,nan,False,live,nan
03/22/2024-13:10:32.012540 -- 800000,0.3,0.0,0.0,1.0,0.0,0,0.003446515900398,0.0163963000282992,370,958.40548780488,0.00013631361486541,0.00065671049746676,-0.00050526017596967,6.2824516938687,nan,False,live,nan
03/22/2024-13:10:32.044562 -- 800000,0.3,0.0,0.0,1.0,0.0,0,-0.0035517083340144,0.014787339218325299,372,1120.4797385621,-0.00024580464274621,-0.0010745186534638,0.00023821731033434,6.2819002443709,nan,False,live,nan
03/22/2024-13:10:32.079162 -- 800000,0.3,0.0,0.0,1.0,0.0,0,-0.00088109216495916,0.0156761796866544,374,777.75348432056,0.00032538347325301,-0.00063814623981745,5.5687494148555e-05,6.2817233806316,nan,False,live,nan
03/22/2024-13:10:32.111954 -- 800000,0.3,0.0,0.0,1.0,0.0,0,0.00103593396074595,0.0154264916660472,376,931.9568815331,-0.00035486604010376,-0.00069385974497318,0.00053704413145129,6.2819644317148,nan,False,live,nan
03/22/2024-13:10:32.146312 -- 800000,0.3,0.0,0.0,1.0,0.0,0,0.0022948484882027703,0.0160783768640268,378,915.02047038328,0.00047805850738258,0.00094447904224903,0.00065034362124594,6.2818995418868,nan,False,live,nan
03/22/2024-13:10:32.178729 -- 800000,0.3,0.0,0.0,1.0,0.0,0,-0.00239792084109612,0.0156317639896134,380,1058.1415505226,-0.00027425807540408,-0.00021046385787095,0.00019214322944299,6.2820876802414,nan,False,live,nan
03/22/2024-13:10:32.211901 -- 800000,0.3,0.0,0.0,1.0,0.0,0,-0.00266017276375101,0.0157207736574636,382,782.46297909408,0.00026117312213568,0.00021585770453595,-0.00055442442168624,6.2824980335205,nan,False,live,nan
03/22/2024-13:10:32.245722 -- 800000,0.3,0.0,0.0,1.0,0.0,0,0.00186140054154918,0.015799840530592198,384,1073.5892857143,0.00012714055887692,0.00088546592887893,-0.00011058304449426,6.2822326030927,nan,False,live,nan
03/22/2024-13:10:32.277048 -- 800000,0.3,0.0,0.0,1.0,0.0,0,7.4548049835057e-05,0.0155757523214967,386,1042.4729965157,0.00037626650140986,-0.00021265498441503,-0.00044313117732336,6.2824543704667,nan,False,live,nan
03/22/2024-13:10:32.311144 -- 800000,0.3,0.0,0.0,1.0,0.0,0,0.0019338471692793902,0.0162112748072628,388,780.61149825784,0.00019599766443856,0.001048645424225,-4.2346301963886e-05,6.2821748757768,nan,False,live,nan
03/22/2024-13:10:32.346889 -- 800000,0.3,0.0,0.0,1.0,0.0,0,0.0011147009640741,0.017565269736166497,390,955.05879790941,0.00065299026123133,0.00094177166718218,7.1542912990397e-05,6.2819498587528,nan,False,live,nan
03/22/2024-13:10:32.378676 -- 800000,0.3,0.0,0.0,1.0,0.0,0,0.00107233854878715,0.015538404112305601,392,810.85540069686,-0.00027311581315756,2.2054535303874e-05,-0.00072633726410685,6.2823815771023,nan,False,live,nan
03/22/2024-13:10:32.411707 -- 800000,0.3,0.0,0.0,1.0,0.0,0,-0.00021725571050826303,0.016887186720329697,394,993.89155052265,0.00020297509815016,0.00011095827836364,-0.0004545457585684,6.2823784942935,nan,False,live,nan
03/22/2024-13:10:32.445194 -- 800000,0.3,0.0,0.0,1.0,0.0,0,5.355148728326401e-05,0.0161260931987709,396,1022.3018292683,0.00040825171814697,-0.0001965981337029,0.00048221864198991,6.2817433497883,nan,False,live,nan
03/22/2024-13:10:32.479101 -- 800000,0.3,0.0,0.0,1.0,0.0,0,-0.00094239152426373,0.016346877578822097,398,906.94642857143,0.00055157178225871,-0.00011317216426467,0.00030914432612878,6.2816028747907,nan,False,live,nan
03/22/2024-13:10:32.511339 -- 800000,0.3,0.0,0.0,1.0,0.0,0,4.8724100361728995e-05,0.016050561454613102,400,960.90418118467,-0.00034428012091738,0.00035048621735767,-2.2969346021351e-06,6.2819086438118,nan,False,live,nan
03/22/2024-13:10:32.544318 -- 800000,0.3,0.0,0.0,1.0,0.0,0,-0.00131107118515953,0.0147099844126851,402,891.55008710801,-0.00016425576795177,-0.00173515459816,0.00048588027791793,6.2816966267599,nan,False,live,nan
03/22/2024-13:10:32.579505 -- 800000,0.3,0.0,0.0,1.0,0.0,0,0.00152718610651395,0.0160135304545308,404,989.84320557491,-0.00046157055823777,0.00036471056920843,-0.0002504475205903,6.2823837593846,nan,False,live,nan
03/22/2024-13:10:32.613582 -- 800000,0.3,0.0,0.0,1.0,0.0,0,0.00059704018007058,0.0158798749358334,406,811.08928571429,0.00024813414127332,-0.00010396580290119,0.00047670011946575,6.2820308879732,nan,False,live,nan
03/22/2024-13:10:32.646938 -- 800000,0.3,0.0,0.0,1.0,0.0,0,0.00078790082823033,0.0134993519469057,408,1256.2020905923,-0.00029407611768989,0.00013473858669369,0.00046169397074044,6.2818737911466,nan,False,live,nan
03/22/2024-13:10:32.680132 -- 800000,0.3,0.0,0.0,1.0,0.0,0,1.3220894979240602e-05,0.0152134748233509,410,795.01306620209,-0.00010772180665295,0.00035816261718429,0.00051379276526921,6.2818120687827,nan,False,live,nan
03/22/2024-13:10:32.713291 -- 800000,0.3,0.0,0.0,1.0,0.0,0,0.0044952691093655996,0.0153650998174884,412,778.97256097561,7.273834790152e-05,0.0012313480044355,0.0004045096021367,6.2819817800376,nan,False,live,nan
03/22/2024-13:10:32.746851 -- 800000,0.3,0.0,0.0,1.0,0.0,0,0.00184892139194679,0.0152722812716274,414,875.91245644599,-0.00046318000198334,-0.0003121437805508,-0.00069425379877115,6.2824165329019,nan,False,live,nan
03/22/2024-13:10:32.779177 -- 800000,0.3,0.0,0.0,1.0,0.0,0,0.0035345552863283998,0.0148770978718875,416,682.50174216028,-0.00030151570844388,0.00092723074676499,-4.4524323659581e-05,6.2820496616584,nan,False,live,nan
03/22/2024-13:10:32.812933 -- 800000,0.3,0.0,0.0,1.0,0.0,0,-0.00174993947911143,0.014672491634657099,418,734.20209059233,-0.00059797355354605,-0.00072015068040475,0.00082819322098132,6.2814754851784,nan,False,live,nan
03/22/2024-13:10:32.845292 -- 800000,0.3,0.0,0.0,1.0,0.0,0,-0.00139909680807054,0.015379119197447399,420,901.98257839721,0.00048646822398266,1.1233733201798e-05,4.6549855496214e-05,6.2824659315379,nan,False,live,nan
03/22/2024-13:10:32.878402 -- 800000,0.3,0.0,0.0,1.0,0.0,0,0.0007820041077425701,0.0159744771766914,422,870.70557491289,0.00054664623932617,0.00043457867647582,-6.2743973551588e-05,6.2819857201283,nan,False,live,nan
03/22/2024-13:10:32.911204 -- 800000,0.3,0.0,0.0,1.0,0.0,0,0.000275738299536621,0.015995148873142802,424,943.35017421603,0.00023238831104943,0.00085819744214686,0.00046038519726315,6.2813648628503,nan,False,live,nan
03/22/2024-13:10:32.944005 -- 800000,0.3,0.0,0.0,1.0,0.0,0,0.00143458547678409,0.015447478344314102,426,741.01045296167,-7.6554599482373e-05,0.00021885352441738,-0.00029280717268195,6.2820306456269,nan,False,live,nan
03/22/2024-13:10:32.978069 -- 800000,0.3,0.0,0.0,1.0,0.0,0,-0.00051302343153192,0.0160902445969221,428,804.1637630662,0.00029148725403082,-0.00086783249119127,0.00034530753560843,6.2819781452639,nan,False,live,nan
03/22/2024-13:10:33.010953 -- 800000,0.3,0.0,0.0,1.0,0.0,0,-0.00072207150019179,0.0167978281881414,430,979.99695121951,2.4632149051646e-05,0.0001947863909251,-0.00040041302692094,6.281921790531,nan,False,live,nan
03/22/2024-13:10:33.044655 -- 800000,0.3,0.0,0.0,1.0,0.0,0,0.00237380995823544,0.014200564349501399,432,632.67900696864,4.4786167863157e-05,0.00069812012307268,-8.4159377819332e-05,6.2825506411397,nan,False,live,nan
03/22/2024-13:10:33.078060 -- 800000,0.3,0.0,0.0,1.0,0.0,0,0.0032268844930835997,0.015751114928871,434,897.25827526132,0.00055800311853374,-0.00037500314338632,0.00033728154358893,6.2823412897236,nan,False,live,nan
03/22/2024-13:10:33.112075 -- 800000,0.3,0.0,0.0,1.0,0.0,0,-0.00231146126277213,0.015200905800379801,436,1047.9716898955,-0.00068469342331128,-0.00062533696966421,0.0001674605366444,6.2821969553888,nan,False,live,nan
03/22/2024-13:10:33.144885 -- 800000,0.3,0.0,0.0,1.0,0.0,0,0.0021507488069364,0.016287955830276903,438,799.88545296167,0.00058169147352196,0.0014420667405431,-0.00045952107192206,6.2819494034538,nan,False,live,nan
03/22/2024-13:10:33.178034 -- 800000,0.3,0.0,0.0,1.0,0.0,0,0.0044032265347422,0.0156005754343224,440,1035.4799651568,-5.5411025602268e-05,0.0012798511501708,-0.00073620484917704,6.2825350717272,nan,False,live,nan
03/22/2024-13:10:33.211909 -- 800000,0.3,0.0,0.0,1.0,0.0,0,-2.3733294614449198e-05,0.0169508723019363,442,1034.5984320557,0.00012184093112849,-0.0011340292594098,0.00010314104345475,6.2819109745751,nan,False,live,nan
03/22/2024-13:10:33.246101 -- 800000,0.3,0.0,0.0,1.0,0.0,0,-0.00102394517966865,0.015337793983621199,444,1129.7783101045,-0.00016091653653123,0.00043848346860693,0.0006249396691536,6.2819670128757,nan,False,live,nan
03/22/2024-13:10:33.277325 -- 800000,0.3,0.0,0.0,1.0,0.0,0,0.0008050408596188099,0.015783998088204302,446,896.02656794425,-0.00033819909172817,-0.0003088724389001,-1.2011627300867e-06,6.2820960957661,nan,False,live,nan
03/22/2024-13:10:33.312395 -- 800000,0.3,0.0,0.0,1.0,0.0,0,0.0025886921380738497,0.0137735463884481,448,918.13719512195,-0.00040833794362632,0.00078600850844482,-0.00015555605010095,6.2822592173225,nan,False,live,nan
03/22/2024-13:10:33.344616 -- 800000,0.3,0.0,0.0,1.0,0.0,0,0.00151187231483733,0.015109954466618999,450,1129.6402439024,0.00019436709269156,0.00046490326346404,-0.00033591653875681,6.2822016226265,nan,False,live,nan
03/22/2024-13:10:33.376746 -- 800000,0.3,0.0,0.0,1.0,0.0,0,0.00096873384468972,0.016276341100804798,452,1269.4891114983,0.00019444564523426,-6.7083529992352e-05,2.9719356728249e-05,6.2821090688241,nan,False,live,nan
03/22/2024-13:10:33.411090 -- 800000,0.3,0.0,0.0,1.0,0.0,0,-0.00261520144716894,0.016051780231719298,454,1266.9085365854,0.00066775671895283,-0.00097359853752242,9.073380183622e-05,6.2823049840336,nan,False,live,nan
03/22/2024-13:10:33.445020 -- 800000,0.3,0.0,0.0,1.0,0.0,0,-0.0043271931276477,0.0170871074939364,456,1335.8253484321,-0.00018345299463577,4.2849812384562e-05,-0.00066892637601308,6.2819598091036,nan,False,live,nan
03/22/2024-13:10:33.477106 -- 800000,0.3,0.0,0.0,1.0,0.0,0,-0.00032137100575377,0.015614425682319001,458,1087.4869337979,-0.00023920140448505,0.00063086748996687,-4.3338108605518e-05,6.2819946114408,nan,False,live,nan
03/22/2024-13:10:33.510504 -- 800000,0.3,0.0,0.0,1.0,0.0,0,-0.00109703529568881,0.0146855836913991,460,1028.381533101,-0.00015910081430703,-8.9447205615247e-05,1.4755660971289e-05,6.2819586452555,nan,False,live,nan
03/22/2024-13:10:33.544833 -- 800000,0.3,0.0,0.0,1.0,0.0,0,-0.00199391820471438,0.0161551464806961,462,1313.4834494774,0.00022382344609189,-0.0001460561260661,-8.1964111865663e-05,6.2821333201207,nan,False,live,nan
03/22/2024-13:10:33.582197 -- 800000,0.3,0.0,0.0,1.0,0.0,0,-0.0018076737798173401,0.0194140602994827,464,1203.4991289199,0.00066082091663359,-0.00055758144613203,-0.00018117786133548,6.2817876629373,nan,False,live,nan
03/22/2024-13:10:33.612258 -- 800000,0.3,0.0,0.0,1.0,0.0,0,-2.29568664753714e-05,0.0163338707363226,466,1335.949912892,-0.00045323630760749,0.00025768893222396,-0.00024574827298015,6.28229352434,nan,False,live,nan
03/22/2024-13:10:33.646027 -- 800000,0.3,0.0,0.0,1.0,0.0,0,-0.0009626264118952501,0.0165763409433783,468,1171.8205574913,1.4627639734659e-05,-0.00013475958041181,0.00041537765428893,6.2813893105951,nan,False,live,nan
03/22/2024-13:10:33.680386 -- 800000,0.3,0.0,0.0,1.0,0.0,0,-0.0017604228731802,0.016639859698352702,470,954.53702090592,1.0954866234859e-05,-0.00013304803307724,-0.00048461322418737,6.2824585360299,nan,False,live,nan
03/22/2024-13:10:33.713434 -- 800000,0.3,0.0,0.0,1.0,0.0,0,-0.00139704820917072,0.0149026736225646,472,1073.2826655052,4.0696756663523e-05,-0.00084954204697067,-0.0015628880603157,6.2824791349298,nan,False,live,nan
03/22/2024-13:10:33.746088 -- 800000,0.3,0.0,0.0,1.0,0.0,0,-0.00050264420918187,0.0170820705811773,474,1305.1885888502,0.00061898558427337,-0.00070847554425593,0.00058641390608557,6.2819663101341,nan,False,live,nan
03/22/2024-13:10:33.777657 -- 800000,0.3,0.0,0.0,1.0,0.0,0,0.00086682163791231,0.013376582070409801,476,1300.7844076655,-0.0018134826021427,-0.00016083839208595,-0.00028190656676116,6.2823570177747,nan,False,live,nan
03/22/2024-13:10:33.812046 -- 800000,0.3,0.0,0.0,1.0,0.0,0,0.00129362386004286,0.014904779471859,478,1437.1829268293,-0.00086750558629132,0.00083160126378128,0.0015621519153614,6.2810242624826,nan,False,live,nan
03/22/2024-13:10:33.835457 -- 800000,0.3,0.0,0.0,1.0,0.0,0,0.0030314328111713997,0.0156234000768837,479,1239.0413763066,0.00023865294694005,0.00057963579572967,-0.0012596501451224,6.2822839126277,nan,False,live,nan
03/22/2024-13:10:33.862329 -- 800000,0.3,0.0,0.0,1.0,0.0,0,0.00199845415907016,0.0160377900370002,481,1072.1023519164,0.00054097274585865,0.00088234202191788,3.0156257397697e-05,6.2821651415212,nan,False,live,nan
03/22/2024-13:10:33.895246 -- 800000,0.3,0.0,0.0,1.0,0.0,0,0.0018512122418390701,0.0155371182666444,483,1277.274825784,0.00037668261876897,-0.00078968515067264,0.00061590926183863,6.2816049461943,nan,False,live,nan
03/22/2024-13:10:33.928547 -- 800000,0.3,0.0,0.0,1.0,0.0,0,0.0023249186247384004,0.0159172609367727,485,1180.6746515679,-0.00033802460547629,0.0012359464648893,0.00037986522475927,6.2819076666736,nan,False,live,nan
03/22/2024-13:10:33.961432 -- 800000,0.3,0.0,0.0,1.0,0.0,0,0.00060684539083344,0.0204703859620251,487,1400.7756968641,0.00082810807590477,0.0011182528915021,0.00061041612948411,6.2816456771821,nan,False,live,nan
03/22/2024-13:10:33.995481 -- 800000,0.3,0.0,0.0,1.0,0.0,0,-0.00104885304395292,0.0158292479381313,489,1248.5426829268,-0.0020383578228839,-0.0014168813588949,0.00023953274318976,6.2821705260672,nan,False,live,nan
03/22/2024-13:10:34.029360 -- 800000,0.3,0.0,0.0,1.0,0.0,0,-0.00031507627430502,0.0166039697911353,491,901.22091503268,0.00043359564736066,-0.00041839524161365,0.00043861371587091,6.2817884687242,nan,False,live,nan
03/22/2024-13:10:34.061948 -- 800000,0.3,0.0,0.0,1.0,0.0,0,-0.0050180474047605,0.015397475021295,493,1275.218641115,-0.00068990105640071,-0.00044211103430171,0.0010330743907575,6.2809636967676,nan,False,live,nan
03/22/2024-13:10:34.093198 -- 800000,0.3,0.0,0.0,1.0,0.0,0,0.00057628295289192,0.0143926669935555,495,842.01132404181,-0.0001540375272201,0.00010936300015993,6.8975080301225e-06,6.2818830803664,nan,False,live,nan
03/22/2024-13:10:34.127752 -- 800000,0.3,0.0,0.0,1.0,0.0,0,0.0018410919332820898,0.0161156169089013,497,1249.5666376307,0.0007349481083308,0.00017077915620194,-0.0005045581098882,6.2824556467031,nan,False,live,nan
03/22/2024-13:10:34.161549 -- 800000,0.3,0.0,0.0,1.0,0.0,0,-0.0014663171202656399,0.014475660272109,499,1042.6006097561,-0.00022302452256537,0.00098624341466939,-0.00020505675389844,6.2819715484914,nan,False,live,nan
03/22/2024-13:10:34.194874 -- 800000,0.3,0.0,0.0,1.0,0.0,0,0.0027461234388195302,0.0188399653694388,501,1153.1467770035,0.00067661625406411,0.00070279582279618,-0.00011570539907154,6.2822016892046,nan,False,live,nan
03/22/2024-13:10:34.228059 -- 800000,0.3,0.0,0.0,1.0,0.0,0,0.0015938067449979602,0.016397090225988002,503,886.18292682927,0.00071794572889975,-0.00026385634758179,-0.00020103429904629,6.2817809564116,nan,False,live,nan
03/22/2024-13:10:34.261340 -- 800000,0.3,0.0,0.0,1.0,0.0,0,0.00266784217855866,0.0159786499978692,505,826.44947735192,0.00027334362289478,-0.00035164275354975,0.00030051632967981,6.2822203289817,nan,False,live,nan
03/22/2024-13:10:34.295051 -- 800000,0.3,0.0,0.0,1.0,0.0,0,-0.00244907362954374,0.0158839162054938,507,800.63763066202,0.00038967145017657,-0.0012309776256545,-0.00053101735146474,6.282077550016,nan,False,live,nan
03/22/2024-13:10:34.327002 -- 800000,0.3,0.0,0.0,1.0,0.0,0,0.00054958278967668,0.018822616535593202,509,1106.5474738676,0.00034532054978362,0.00011909370771789,0.00020666159340304,6.2818027694199,nan,False,live,nan
03/22/2024-13:10:34.362948 -- 800000,0.3,0.0,0.0,1.0,0.0,0,0.00206863581097887,0.014448005870950499,511,1171.2578397213,-0.00083089146302797,0.0022245569527786,6.4960989782927e-06,6.281923135257,nan,False,live,nan
03/22/2024-13:10:34.395564 -- 800000,0.3,0.0,0.0,1.0,0.0,0,-0.00037720852142142,0.016667044408603802,513,962.29965156794,-0.00015484593861039,-0.0010911114715902,-0.0006762516046207,6.2824659110224,nan,False,live,nan
03/22/2024-13:10:34.427172 -- 800000,0.3,0.0,0.0,1.0,0.0,0,-0.0046369996710630005,0.0171284357021907,515,1119.5958188153,7.1988479168478e-05,-0.0007251862345532,-0.00042239290659162,6.28218025233,nan,False,live,nan
03/22/2024-13:10:34.462353 -- 800000,0.3,0.0,0.0,1.0,0.0,0,-0.00285409985274951,0.018448417409371802,517,904.21167247387,0.00070811097822765,0.00082445892185291,-0.00023456450699594,6.2819378766828,nan,False,live,nan
03/22/2024-13:10:34.495244 -- 800000,0.3,0.0,0.0,1.0,0.0,0,6.485042366502901e-05,0.0167431398381303,519,1082.9708188153,-4.8023030537074e-05,0.00062960012047882,-0.00061926136204515,6.2820232977481,nan,False,live,nan
03/22/2024-13:10:34.529187 -- 800000,0.3,0.0,0.0,1.0,0.0,0,-0.0017787708189915298,0.0154937718891552,521,988.85322299652,-0.0003317519948094,-0.0012195526056725,0.00067127148454599,6.2818630299366,nan,False,live,nan
03/22/2024-13:10:34.563963 -- 800000,0.3,0.0,0.0,1.0,0.0,0,-0.00127070194428222,0.015929477052507298,523,889.74477351916,-0.00032359519370606,0.0011930571033228,-0.00073049492504923,6.282230586927,nan,False,live,nan
03/22/2024-13:10:34.593123 -- 800000,0.3,0.0,0.0,1.0,0.0,0,0.00124475862986631,0.0150740470435674,525,1216.6162891986,-0.00012211536606022,-0.00051047915306723,-9.0272818784524e-05,6.2822837052264,nan,False,live,nan
03/22/2024-13:10:34.627588 -- 800000,0.3,0.0,0.0,1.0,0.0,0,-0.00072463471693803,0.0143094039349239,527,1195.4817073171,-0.00012717214328985,-0.00032833629877461,-8.4094135944767e-05,6.2824518934982,nan,False,live,nan
03/22/2024-13:10:34.661333 -- 800000,0.3,0.0,0.0,1.0,0.0,0,-0.00188443585018239,0.0185328851620596,529,1098.0522648084,0.00073272201679463,-0.0010057707634636,4.959649825016e-05,6.2817736755791,nan,False,live,nan
03/22/2024-13:10:34.694306 -- 800000,0.3,0.0,0.0,1.0,0.0,0,-0.00101157723664401,0.01571972748555,531,680.14503484321,-0.00030453438104363,0.00011077606054513,0.0011103289468274,6.2813125581849,nan,False,live,nan
03/22/2024-13:10:34.727578 -- 800000,0.3,0.0,0.0,1.0,0.0,0,0.0028715113389891,0.0174661232780982,533,1159.6742160279,0.00057709656286769,0.0019880757215356,0.00033547497211817,6.2816847770336,nan,False,live,nan
03/22/2024-13:10:34.763214 -- 800000,0.3,0.0,0.0,1.0,0.0,0,0.00103913967666165,0.015229370188745098,535,1070.6772648084,-0.00033594064143551,0.0001149999917397,0.00013416038273009,6.2819237541626,nan,False,live,nan
03/22/2024-13:10:34.797168 -- 800000,0.3,0.0,0.0,1.0,0.0,0,0.00100441334296941,0.0137625989599926,537,1068.4481707317,-0.00098554568883197,0.0010118762022693,-0.00074363559053602,6.2825303596386,nan,False,live,nan
03/22/2024-13:10:34.830417 -- 800000,0.3,0.0,0.0,1.0,0.0,0,0.00149415449275269,0.0155099155799493,539,1016.9333623693,-0.00022796121141779,-0.00053788401285659,-0.00035710302421268,6.2823220739715,nan,False,live,nan
03/22/2024-13:10:34.862317 -- 800000,0.3,0.0,0.0,1.0,0.0,0,0.000139747796370477,0.0164902596842913,541,946.15331010453,0.00053124101914661,-0.001078980151527,0.00020541007856111,6.2818471612093,nan,False,live,nan
03/22/2024-13:10:34.896061 -- 800000,0.3,0.0,0.0,1.0,0.0,0,-0.0028843437268184402,0.0170948889610884,543,1052.4459930314,0.00048027746910381,-0.00014329659119552,-0.00028542062565987,6.2824054071983,nan,False,live,nan
03/22/2024-13:10:34.931119 -- 800000,0.3,0.0,0.0,1.0,0.0,0,-0.0015367801851875699,0.0182536901061417,545,909.0818815331,0.00089638336337195,-0.0015369591972802,-0.00014111341632472,6.2822677039645,nan,False,live,nan
03/22/2024-13:10:34.968385 -- 800000,0.3,0.0,0.0,1.0,0.0,0,-0.000263427037224117,0.0180106255107648,547,1020.2308362369,0.0011374158325722,-0.0021356742604135,-0.0004222083564811,6.2824962470242,nan,False,live,nan
03/22/2024-13:10:34.996576 -- 800000,0.3,0.0,0.0,1.0,0.0,0,-0.00264546472587381,0.0149255623536018,549,853.91986062718,-0.00021393286483131,-0.0012975772592823,-0.0012497603343768,6.2820008571844,nan,False,live,nan
03/22/2024-13:10:35.028115 -- 800000,0.3,0.0,0.0,1.0,0.0,0,-0.0009688581319597499,0.0156971515542675,551,791.25479094077,-8.7791558384811e-05,-0.0015284503954925,0.00032089121517851,6.2822364597575,nan,False,live,nan
03/22/2024-13:10:35.060917 -- 800000,0.3,0.0,0.0,1.0,0.0,0,0.00062916441448089,0.0167962917500592,553,785.82665505226,0.00025643253115015,0.00016512491050836,-0.00023290754744116,6.2820916075604,nan,False,live,nan
03/22/2024-13:10:35.097349 -- 800000,0.3,0.0,0.0,1.0,0.0,0,-9.381027061592699e-05,0.0160586108208519,555,881.0287456446,-0.00048743303437035,0.0005889138971891,0.00054229134252008,6.2817173180535,nan,False,live,nan
03/22/2024-13:10:35.128008 -- 800000,0.3,0.0,0.0,1.0,0.0,0,-0.0010440197083467601,0.0184265598673743,557,1082.9603658537,0.0010232434032372,-0.00013603536145997,-0.00055558629066455,6.282550949922,nan,False,live,nan
03/22/2024-13:10:35.163008 -- 800000,0.3,0.0,0.0,1.0,0.0,0,-0.00055626064544043,0.0175369522319811,559,1014.599738676,-0.00042814312111183,-4.8889623474412e-06,-1.4420697514168e-05,6.2818204954003,nan,False,live,nan
03/22/2024-13:10:35.197120 -- 800000,0.3,0.0,0.0,1.0,0.0,0,-0.00054967902195186,0.0181492125851706,561,757.23824041812,0.00056862383412856,-6.8879864061521e-06,-0.00031022720051364,6.2820818658556,nan,False,live,nan
03/22/2024-13:10:35.228349 -- 800000,0.3,0.0,0.0,1.0,0.0,0,-0.00250500167280246,0.0161720742536196,563,857.356271777,-0.00029743814225816,7.5601205397419e-05,-0.00042072378045041,6.2821823157606,nan,False,live,nan
03/22/2024-13:10:35.260761 -- 800000,0.3,0.0,0.0,1.0,0.0,0,-0.00070071095769681,0.0143663267634969,565,918.88545296167,-0.00030688547450046,0.00059854082254449,-3.4709286008266e-05,6.2825695949883,nan,False,live,nan
03/22/2024-13:10:35.293490 -- 800000,0.3,0.0,0.0,1.0,0.0,0,-0.00229008762632559,0.014940823517739898,567,928.6868466899,7.4830917822878e-05,-0.00022251317641631,0.0002256839146426,6.2820857627961,nan,False,live,nan
03/22/2024-13:10:35.312118 -- 800000,0.3,0.0,0.0,1.0,0.0,0,0.0011756636402208,0.015321037035595501,568,876.25217770035,0.00012533379581166,0.0011554035931828,0.00023146735298672,6.2818542954431,nan,False,live,nan
03/22/2024-13:10:35.345629 -- 800000,0.3,0.0,0.0,1.0,0.0,0,0.0025025458652123697,0.0144187941672846,570,1071.0727668845,-0.0012263424847059,-0.00053472188833189,-0.00034499079286823,6.2825608122859,nan,False,live,nan
03/22/2024-13:10:35.379292 -- 800000,0.3,0.0,0.0,1.0,0.0,0,-0.0066165673049466,0.0203596917922239,572,1213.3477501092,0.00088545198705413,-0.0014593364063277,7.9577847400871e-05,6.2823549568116,nan,False,live,nan
03/22/2024-13:10:35.412683 -- 800000,0.3,0.0,0.0,1.0,0.0,0,0.000293405830233462,0.014356175402921098,574,876.84799651568,-0.0001991716599845,0.00036389094561153,0.0001570067443843,6.2818873802563,nan,False,live,nan
03/22/2024-13:10:35.446706 -- 800000,0.3,0.0,0.0,1.0,0.0,0,-0.000131090160963177,0.014108051796771298,576,782.20426829268,-5.6604893882179e-05,-4.1431207523734e-05,2.885278037437e-05,6.2818453636234,nan,False,live,nan
03/22/2024-13:10:35.477548 -- 800000,0.3,0.0,0.0,1.0,0.0,0,7.1268806698455e-05,0.0190911144816015,578,948.88806620209,0.0001024057083599,0.00029168450818629,0.0002251015438833,6.2817051008282,nan,False,live,nan
03/22/2024-13:10:35.512482 -- 800000,0.3,0.0,0.0,1.0,0.0,0,-0.00225929249970336,0.0201343754643549,580,1026.7695993031,0.00017736362167129,-0.00035504803432005,-0.00027210734711418,6.2823012434977,nan,False,live,nan
03/22/2024-13:10:35.547078 -- 800000,0.3,0.0,0.0,1.0,0.0,0,-0.0039715394746536,0.018436858014531002,582,1008.0108885017,0.00096503846840887,-0.0018980630075163,-0.00023200023424655,6.2817654230675,nan,False,live,nan
03/22/2024-13:10:35.579413 -- 800000,0.3,0.0,0.0,1.0,0.0,0,0.0005574908552175,0.014601135260661,584,1237.4773519164,-0.00058846102921343,0.0012358827502492,0.00026041404785406,6.2819840109113,nan,False,live,nan
03/22/2024-13:10:35.611568 -- 800000,0.3,0.0,0.0,1.0,0.0,0,0.0050541361670841,0.0159337528272603,586,1110.3209930314,2.3146009004977e-05,0.0013883233483817,-5.8030897839532e-06,6.2824754219022,nan,False,live,nan
03/22/2024-13:10:35.646359 -- 800000,0.3,0.0,0.0,1.0,0.0,0,1.35514015171407e-06,0.015236537265372298,588,1109.031358885,0.00024481367083391,-0.00071151488772375,-0.00037034724217169,6.282425844284,nan,False,live,nan
03/22/2024-13:10:35.677645 -- 800000,0.3,0.0,0.0,1.0,0.0,0,-0.003159789366408,0.0193555477133907,590,1008.6485191638,0.00042544631380751,-0.00054450010000439,-0.00057876697614009,6.2822312254186,nan,False,live,nan
03/22/2024-13:10:35.712675 -- 800000,0.3,0.0,0.0,1.0,0.0,0,0.00030281186670303,0.015059750884738501,592,1263.8484320557,4.5707294555919e-05,-1.0402951816184e-05,0.00021004066990904,6.2819213383448,nan,False,live,nan
03/22/2024-13:10:35.743173 -- 800000,0.3,0.0,0.0,1.0,0.0,0,-0.00214517863882773,0.014534859008746799,594,1369.3976480836,-8.6464124988336e-05,-0.00090614102711583,0.00010452166872525,6.2816233363513,nan,False,live,nan
03/22/2024-13:10:35.761615 -- 800000,0.3,0.0,0.0,1.0,0.0,0,-0.0031116669700707,0.018872105712687298,595,1301.9590592334,0.0014462407446403,-0.00031994757343309,-6.0025763255892e-05,6.2816833621146,nan,False,live,nan
03/22/2024-13:10:35.795324 -- 800000,0.3,0.0,0.0,1.0,0.0,0,-0.0020033414002774497,0.0199157469629982,597,1013.5722996516,0.0011453264981034,-0.0019401899659413,-0.0016326362547384,6.2818627404897,nan,False,live,nan
03/22/2024-13:10:35.828862 -- 800000,0.3,0.0,0.0,1.0,0.0,0,-0.0045809962864961995,0.0182549741147487,599,987.45470383275,0.00077198137064565,-0.0022184532043087,0.000459129677958,6.2816224188852,nan,False,live,nan
03/22/2024-13:10:35.866232 -- 800000,0.3,0.0,0.0,1.0,0.0,0,-0.0034146335864286,0.0176099191883523,601,1195.2787456446,-0.00018367845330578,0.00062104408498203,-0.0010900320722387,6.2816146082055,nan,False,live,nan
03/22/2024-13:10:35.894732 -- 800000,0.3,0.0,0.0,1.0,0.0,0,0.0036034625328921,0.015438297847850101,603,1452.4046167247,-0.00044791727952327,0.0027057289225562,-0.0003294219901147,6.2823739887037,nan,False,live,nan
03/22/2024-13:10:35.927976 -- 800000,0.3,0.0,0.0,1.0,0.0,0,0.0038951687020284,0.0164314778126787,605,1400.3096689895,0.00013413939273008,0.00017291610792988,0.00016706100691468,6.2819830865475,nan,False,live,nan
03/22/2024-13:10:35.961098 -- 800000,0.3,0.0,0.0,1.0,0.0,0,0.0050407966061661,0.016668113015045997,607,1052.5978213508,4.4210409337084e-05,0.00019003328318691,-1.0067465280664e-05,6.2820229024195,nan,False,live,nan
03/22/2024-13:10:35.995193 -- 800000,0.3,0.0,0.0,1.0,0.0,0,0.0014876248038168001,0.0149763097857918,609,1075.1210801394,0.00068541545645276,-0.0016601788553513,0.00056998242200675,6.2814688134397,nan,False,live,nan
03/22/2024-13:10:36.030085 -- 800000,0.3,0.0,0.0,1.0,0.0,0,0.00093559347378699,0.014267945591211601,611,1279.0535714286,-0.0020047311536723,0.00014851041005685,5.6255788454993e-05,6.282335892875,nan,False,live,nan
03/22/2024-13:10:36.060946 -- 800000,0.3,0.0,0.0,1.0,0.0,0,-0.0042155325693336,0.0179198735473938,613,1148.406358885,0.0011040834316641,-0.0010547599378248,-0.00041296307246776,6.2822311734994,nan,False,live,nan
03/22/2024-13:10:36.095559 -- 800000,0.3,0.0,0.0,1.0,0.0,0,-0.000303181317777,0.019158666834299398,615,1302.7643728223,0.00024796474520837,3.8552241716659e-05,-0.00010413457462494,6.2824203147842,nan,False,live,nan
03/22/2024-13:10:36.122694 -- 800000,0.3,0.0,0.0,1.0,0.0,0,0.0025504960972776297,0.0198761783173437,617,1240.0474945534,-9.4887387432363e-06,0.00081284288234238,0.00058757456510297,6.2819373654292,nan,False,live,nan
03/22/2024-13:10:36.146317 -- 800000,0.3,0.0,0.0,1.0,0.0,0,0.00259067243057535,0.017366743214373002,618,1209.3074912892,-0.0008364955246845,1.2273838433188e-05,0.00017785222329664,6.2817595132059,nan,False,live,nan
03/22/2024-13:10:36.165756 -- 800000,0.3,0.0,0.0,1.0,0.0,0,0.0007911283561538999,0.0168629407862613,619,1150.9102787456,-0.0001673051693503,-0.00060002377180311,-0.00075477384467192,6.2825142870506,nan,False,live,nan
03/22/2024-13:10:36.196230 -- 800000,0.3,0.0,0.0,1.0,0.0,0,-0.00041912543701455,0.014539318065014399,621,1553.1990418118,-0.00037860285292383,-0.00021937534387515,0.00011400531800416,6.2822004862443,nan,False,live,nan
03/22/2024-13:10:36.230210 -- 800000,0.3,0.0,0.0,1.0,0.0,0,-0.0031953293310174003,0.017902107132837297,623,1262.7190766551,0.0015005278165258,-0.00070478998833194,-2.3832198427343e-05,6.2821103131247,nan,False,live,nan
03/22/2024-13:10:36.262663 -- 800000,0.3,0.0,0.0,1.0,0.0,0,0.00030043890411699003,0.0188724889199112,625,1658.5391986063,0.0008201735674657,-0.0012499088518739,0.0003079928434489,6.2813745055507,nan,False,live,nan
03/22/2024-13:10:36.295265 -- 800000,0.3,0.0,0.0,1.0,0.0,0,-0.0029304378614582703,0.0193823159771319,627,1698.6119337979,0.00011841609747214,-0.00055813495187771,-0.0003135733420775,6.282071559984,nan,False,live,nan
03/22/2024-13:10:36.330571 -- 800000,0.3,0.0,0.0,1.0,0.0,0,0.00244853911520463,0.0139559644202478,629,1829.7669860627,-0.00095376617985843,0.0025295476981938,0.00044032700756324,6.2820748379651,nan,False,live,nan
03/22/2024-13:10:36.362682 -- 800000,0.3,0.0,0.0,1.0,0.0,0,0.021174726130308,0.0131366287574274,631,4690.6964117092,-0.00014591627384632,0.0064053252507353,-0.00049472970809586,6.2785448700403,nan,False,live,nan
03/22/2024-13:10:36.397036 -- 800003,0.3,0.0,0.0,1.0,0.0,0,0.047537899396095,-0.00074917587944646,633,4535.417820868,-0.0002744934989709,0.0011057750265203,0.0083454890917781,6.2534829064327,nan,False,live,nan
03/22/2024-13:10:36.428963 -- 800004,0.3,0.0,0.0,1.0,0.0,0,0.044706750009491994,-0.0110128486234698,635,4358.4527296937,-0.002741536506771,-0.002048779747195,0.00086040988773585,6.2446904306783,nan,False,live,nan
03/22/2024-13:10:36.461639 -- 800003,0.3,0.0,0.0,1.0,0.0,0,0.061155955246098,-0.043297413564966,637,4519.8301193756,-0.010224110690894,0.0021363161195708,-0.0063907169916497,6.2568204121715,nan,False,live,nan
03/22/2024-13:10:36.493875 -- 800003,0.3,0.0,0.0,1.0,0.0,0,0.072209414073831,-0.043960518441207,639,4896.8535087719,-0.0075996016094259,0.001850301833855,-0.0016758681040596,6.2594769604546,nan,False,live,nan
03/22/2024-13:10:36.515965 -- 800004,0.3,0.0,0.0,1.0,0.0,0,0.062939907411279,-0.042895761648582,640,4669.9208095029,0.00044226355891153,-0.0030785578390775,0.009218778526488,6.2502581819281,nan,False,live,nan
03/22/2024-13:10:36.545377 -- 800003,0.3,0.0,0.0,1.0,0.0,0,0.072584963932146,-0.041027796207687,642,4337.5304878049,-0.00036650804218298,-0.00097287839714275,-0.0042047728282951,6.2544150977331,nan,False,live,nan
03/22/2024-13:10:36.580020 -- 800003,0.3,0.0,0.0,1.0,0.0,0,0.060737528100183,-0.043971487493378994,644,4072.1411764706,-0.0026448207092203,-0.0019875049327388,-0.0066903400654228,6.2558061444272,nan,False,live,nan
03/22/2024-13:10:36.611458 -- 800003,0.3,0.0,0.0,1.0,0.0,0,0.06504356254167899,-0.036618767626257,646,3998.9782229965,0.0024961742901938,0.0031281458783956,0.0018703008224809,6.2538053907862,nan,False,live,nan
03/22/2024-13:10:36.643104 -- 800004,0.3,0.0,0.0,1.0,0.0,0,0.073395207474456,-0.033867503973620997,648,3938.512630662,-0.0013980689121667,-0.0010588664994536,0.013133871674057,6.2510896447739,nan,False,live,nan
03/22/2024-13:10:36.661547 -- 800003,0.3,0.0,0.0,1.0,0.0,0,0.060357197162322004,-0.044067891471353995,649,3984.4398954704,-0.0032672156662101,-0.0044467920027507,-0.0037303755781734,6.2548200203521,nan,False,live,nan
03/22/2024-13:10:36.697051 -- 800003,0.3,0.0,0.0,1.0,0.0,0,0.072547088683452,-0.037484208052985996,651,4145.0143728223,0.0010237443601477,0.0022793133610541,-0.0047997921165285,6.2581393179325,nan,False,live,nan
03/22/2024-13:10:36.730525 -- 800003,0.3,0.0,0.0,1.0,0.0,0,0.068379054980658,-0.037818181118907,653,3871.5899782135,-0.0017666811786485,-0.0030285791444623,0.0017412177176756,6.2542933241249,nan,False,live,nan
03/22/2024-13:10:36.761821 -- 800003,0.3,0.0,0.0,1.0,0.0,0,0.07354034275478699,-0.037378527341361,655,3834.2047038328,0.0018116423522368,0.0048536395297991,0.0009098604226468,6.2524359796763,nan,False,live,nan
03/22/2024-13:10:36.794369 -- 800003,0.3,0.0,0.0,1.0,0.0,0,0.0746345614566,-0.029884310456639702,657,3999.0309233449,0.0015320598032652,0.0028756039706721,0.0015743127470957,6.2550520402078,nan,False,live,nan
03/22/2024-13:10:36.828329 -- 800003,0.3,0.0,0.0,1.0,0.0,0,0.066830340325482,-0.040813766124861,659,4226.275261324,-0.0020263222050943,-0.00049392195733933,0.0031632443314593,6.2565644286158,nan,False,live,nan
03/22/2024-13:10:36.861647 -- 800003,0.3,0.0,0.0,1.0,0.0,0,0.07715213082568201,-0.039238609144599,661,4022.4555749129,-0.00584421924712,0.00073467261533002,0.0046323045853486,6.2595670704252,nan,False,live,nan
