timestamp -- motor_step_command,mfc1_stpt,mfc2_stpt,mfc3_stpt,led1_stpt,led2_stpt,sig_status,ft_posx,ft_posy,ft_frame,ft_error,ft_roll,ft_pitch,ft_yaw,ft_heading,adapted_center,instrip,mode,strip_thresh
03/22/2024-11:42:50.987134 -- 799700,0.02,0.0,0.0,1.0,0.0,0,1.126901965509001,-6.09159609375816,125,7306.9782135076,0.036109402461822,0.019179469595571,-0.034254764853331,2.557266447473,nan,False,live,nan
03/22/2024-11:42:51.021522 -- 799700,0.02,0.0,0.0,1.0,0.0,0,1.121001747357301,-6.36945266858244,127,7380.5664488017,0.043486122722559,0.039568375418139,-0.0085958348769262,2.6028837305705,nan,False,live,nan
03/22/2024-11:42:51.052516 -- 799700,0.02,0.0,0.0,1.0,0.0,0,1.1211509757819016,-6.665258977628911,129,7427.005664488,0.034703486812553,-0.0079066830575691,0.0088143575031264,2.6053295761646,nan,False,live,nan
03/22/2024-11:42:51.086664 -- 799700,0.02,0.0,0.0,1.0,0.0,0,1.0832197550991012,-6.621765842303461,131,6799.699912892,-0.00022631922011458,0.00044393305997362,0.028946551008,2.5711838257366,nan,False,live,nan
03/22/2024-11:42:51.119859 -- 799700,0.02,0.0,0.0,1.0,0.0,0,1.1014234367520004,-6.56139006820863,133,6759.3135888502,-0.013739697302461,-0.0060786933967191,0.014647044051942,2.53863447108,nan,False,live,nan
03/22/2024-11:42:51.154350 -- 799700,0.02,0.0,0.0,1.0,0.0,0,1.0912581312777014,-6.55317966978552,135,6178.8057491289,-0.00095570623455432,0.0010709705349208,-0.00074985775618032,2.5300539719333,nan,False,live,nan
03/22/2024-11:42:51.187000 -- 799700,0.02,0.0,0.0,1.0,0.0,0,1.0643886212268008,-6.5466201284157,137,6653.637630662,-0.0019675002226965,0.0029892164233837,0.0010107773375035,2.5276583568852,nan,False,live,nan
03/22/2024-11:42:51.220941 -- 799700,0.02,0.0,0.0,1.0,0.0,0,1.0492638336369016,-6.53510552693766,139,6822.6851045296,-0.0032221963720725,-0.00053025664555391,0.0038062806971268,2.5222224500714,nan,False,live,nan
03/22/2024-11:42:51.255171 -- 799700,0.02,0.0,0.0,1.0,0.0,0,1.0489680749484016,-6.48750816438105,141,6424.8170731707,-0.0043975399787568,0.0017501702243202,-0.0034949336526559,2.5237596065722,nan,False,live,nan
03/22/2024-11:42:51.284706 -- 799700,0.02,0.0,0.0,1.0,0.0,0,1.0474982708931009,-6.484359224876281,143,6155.7443379791,-9.4093552732098e-05,-6.6525514326712e-05,-0.00028778624551568,2.5240598889826,nan,False,live,nan
03/22/2024-11:42:51.304268 -- 799700,0.02,0.0,0.0,1.0,0.0,0,1.0508467570095004,-6.48588903944145,144,5976.9028745645,0.0010617860533931,-0.00061519518218303,-0.0008376660731938,2.5248975550558,nan,False,live,nan
03/22/2024-11:42:51.338175 -- 799700,0.02,0.0,0.0,1.0,0.0,0,1.052934218614201,-6.4667903206371005,146,5770.5496515679,-0.00057795036299893,-0.00063888351487148,0.0012966567089287,2.5280715397628,nan,False,live,nan
03/22/2024-11:42:51.370538 -- 799700,0.02,0.0,0.0,1.0,0.0,0,1.0486129069374002,-6.46116158798073,148,5650.2243031359,-0.0017015475687311,0.002839687580022,-0.00048473116197627,2.5293777466239,nan,False,live,nan
03/22/2024-11:42:51.404004 -- 799700,0.02,0.0,0.0,1.0,0.0,0,1.042961747407201,-6.4634088182064,150,5446.7887630662,0.0011306447419903,-0.0003280012622981,0.00027343492199096,2.5296069345121,nan,False,live,nan
03/22/2024-11:42:51.436394 -- 799700,0.02,0.0,0.0,1.0,0.0,0,1.0529563968945013,-6.46637149079025,152,5340.8911149826,-0.0014558609985944,0.00050336331980681,0.00044530311936497,2.5290262849041,nan,False,live,nan
03/22/2024-11:42:51.470904 -- 799700,0.02,0.0,0.0,1.0,0.0,0,1.0557073982307017,-6.46800081842904,154,5381.7582752613,0.00092015692652784,0.00060154907624995,-0.00025649868449001,2.5288745857818,nan,False,live,nan
03/22/2024-11:42:51.502493 -- 799700,0.02,0.0,0.0,1.0,0.0,0,1.0629678513600016,-6.462983093661871,156,5415.5505226481,5.5940204697545e-05,-0.0020660232332009,0.00026337099085959,2.528305259648,nan,False,live,nan
03/22/2024-11:42:51.536314 -- 799700,0.02,0.0,0.0,1.0,0.0,0,1.0439268821649001,-6.462995483903191,158,5481.0100174216,-0.0017245328213074,0.002358875331155,-0.00050296733356191,2.5293962651562,nan,False,live,nan
03/22/2024-11:42:51.571480 -- 799700,0.02,0.0,0.0,1.0,0.0,0,1.0400578100790003,-6.45880890932169,160,5262.75,-0.00015949617227311,-0.002104829981225,-0.00032409819071095,2.5302233306805,nan,False,live,nan
03/22/2024-11:42:51.603845 -- 799700,0.02,0.0,0.0,1.0,0.0,0,1.0250488918560006,-6.46539106899357,162,5388.331010453,-0.00010926569299437,0.0018554180004621,0.0026756530208446,2.5271824563664,nan,False,live,nan
03/22/2024-11:42:51.637811 -- 799700,0.02,0.0,0.0,1.0,0.0,0,1.0522560850215008,-6.467501622104701,164,5298.7726480836,0.0054954015688731,-0.0091566369968842,-0.0023163261300319,2.528474789301,nan,False,live,nan
03/22/2024-11:42:51.671858 -- 799700,0.02,0.0,0.0,1.0,0.0,0,1.0392219442593014,-6.44523612481032,166,5601.0849673203,-0.0033281497055071,-0.0023895946385067,-0.0029564224935593,2.5245753323567,nan,False,live,nan
03/22/2024-11:42:51.704162 -- 799700,0.02,0.0,0.0,1.0,0.0,0,1.0314491154324017,-6.4631459767370405,168,5746.9171752398,-0.0064281139658469,0.0061560999829105,0.0061709311061431,2.5217944659906,nan,False,live,nan
03/22/2024-11:42:51.736979 -- 799700,0.02,0.0,0.0,1.0,0.0,0,1.0467721203477005,-6.44281727349261,170,5676.6859756098,-0.00036781951927229,-0.0029196906442803,0.0022192189249469,2.5159470405756,nan,False,live,nan
03/22/2024-11:42:51.771036 -- 799700,0.02,0.0,0.0,1.0,0.0,0,1.0649713335879003,-6.43622982366828,172,6003.5378919861,0.0015195572874998,-0.0035280448696446,0.001592321764868,2.5115902175429,nan,False,live,nan
03/22/2024-11:42:51.804025 -- 799700,0.02,0.0,0.0,1.0,0.0,0,1.0569675941562018,-6.42017053601883,174,5710.3071895425,-0.0017947429831423,-0.00049115002025845,0.0013094600887855,2.5093885083216,nan,False,live,nan
03/22/2024-11:42:51.836494 -- 799700,0.02,0.0,0.0,1.0,0.0,0,1.0410093443373007,-6.42892656018891,176,5804.4734320557,-0.0025716327558684,0.00044382675677163,0.00015301649559158,2.5104519045354,nan,False,live,nan
03/22/2024-11:42:51.870600 -- 799700,0.02,0.0,0.0,1.0,0.0,0,1.0640738203545013,-6.432029385316651,178,5536.9751633987,0.0027056673832082,-0.0023284800704049,-0.00029331687920649,2.5094730302044,nan,False,live,nan
03/22/2024-11:42:51.902150 -- 799700,0.02,0.0,0.0,1.0,0.0,0,1.0497565008372014,-6.4312987922343,180,5439.06228223,-0.0018586867736019,0.0062580266809284,0.00036916692535683,2.5082619716621,nan,False,live,nan
03/22/2024-11:42:51.934298 -- 799700,0.02,0.0,0.0,1.0,0.0,0,1.061302849271101,-6.44367357451263,182,5461.9385620915,0.00071894920760431,0.00075456081756095,0.00017157880626072,2.5095348406246,nan,False,live,nan
03/22/2024-11:42:51.970469 -- 799700,0.02,0.0,0.0,1.0,0.0,0,1.0711909183727997,-6.4017525001656,184,5286.4995644599,-0.0050934580524106,-0.012668681035066,0.0068989009381631,2.502119025008,nan,False,live,nan
03/22/2024-11:42:52.003214 -- 799700,0.02,0.0,0.0,1.0,0.0,0,1.0438300498728008,-6.417857769333601,186,5267.160924553,0.00097506185325668,0.0050749399325885,-0.0010239258017132,2.5024467638663,nan,False,live,nan
03/22/2024-11:42:52.037081 -- 799700,0.02,0.0,0.0,1.0,0.0,0,1.0559900577906003,-6.40201174852557,188,5060.5960784314,-0.003299753550403,-0.0040248926041092,0.0030177615608764,2.5006669948147,nan,False,live,nan
03/22/2024-11:42:52.070327 -- 799700,0.02,0.0,0.0,1.0,0.0,0,1.0622903714958003,-6.39185473531197,190,5003.3160418483,0.0013809322082857,-0.0012430051822535,-0.0014703462127891,2.4994779161146,nan,False,live,nan
03/22/2024-11:42:52.103087 -- 799700,0.02,0.0,0.0,1.0,0.0,0,1.0446912960816022,-6.4153745928170105,192,4876.4342334495,0.00094136957813974,0.0048384321594334,0.0017466127515469,2.4995012724792,nan,False,live,nan
03/22/2024-11:42:52.136763 -- 799700,0.02,0.0,0.0,1.0,0.0,0,1.021898084239501,-6.4334881004334905,194,5304.0387799564,0.00069271728408868,0.011157125195915,5.3663709697927e-05,2.4966182337156,nan,False,live,nan
03/22/2024-11:42:52.170829 -- 799700,0.02,0.0,0.0,1.0,0.0,0,1.051825700898,-6.42466232137302,196,5152.7365896206,0.0028911334375238,0.0029239356151333,0.0019140232760484,2.4952677066285,nan,False,live,nan
03/22/2024-11:42:52.204529 -- 799700,0.02,0.0,0.0,1.0,0.0,0,1.056505104846302,-6.396021245665411,198,5169.3545573485,-0.0065115981351046,0.0041375081230068,-0.0032737527296585,2.4940615231666,nan,False,live,nan
03/22/2024-11:42:52.231335 -- 799700,0.02,0.0,0.0,1.0,0.0,0,1.0542756092760008,-6.41135721252939,199,5049.5178727114,0.0036360950494378,0.0036692738104781,-0.0039137188499465,2.4979752420165,nan,False,live,nan
03/22/2024-11:42:52.260557 -- 799700,0.02,0.0,0.0,1.0,0.0,0,1.090260438054301,-6.39703573065318,201,5512.1143605412,6.9993423952354e-05,-0.002896711028381,0.002667799792024,2.4867985603587,nan,False,live,nan
03/22/2024-11:42:52.280294 -- 799700,0.02,0.0,0.0,1.0,0.0,0,1.0519839798249002,-6.38141135008905,203,5459.727629856,-0.0054450031332135,0.0030801808166497,-0.0014971567665639,2.4888829495954,nan,False,live,nan
03/22/2024-11:42:52.302898 -- 799700,0.02,0.0,0.0,1.0,0.0,0,1.0488144366753005,-6.38368872954027,204,5225.0723626853,-3.951425263601e-05,0.0013003593944683,0.0014312817109926,2.4874516678844,nan,False,live,nan
03/22/2024-11:42:52.337707 -- 799700,0.02,0.0,0.0,1.0,0.0,0,1.0612470949776007,-6.38782949725392,206,5287.6074074074,0.0001061156781229,-0.0018138539519972,0.00095322598630818,2.4855274027189,nan,False,live,nan
03/22/2024-11:42:52.370001 -- 799700,0.02,0.0,0.0,1.0,0.0,0,1.0718909308800022,-6.390856293259381,208,5178.5148212729,0.0018810918962792,-0.00035477376746702,0.00036369890838514,2.4834908076721,nan,False,live,nan
03/22/2024-11:42:52.402393 -- 799700,0.02,0.0,0.0,1.0,0.0,0,1.0374112991856013,-6.40551688308171,210,5019.5254901961,0.00056189692954422,-0.00082961653648052,0.0030739111567357,2.4733262765559,nan,False,live,nan
03/22/2024-11:42:52.436216 -- 799700,0.02,0.0,0.0,1.0,0.0,0,1.0530683100414002,-6.40423210716588,212,4740.369385085,0.0038721667108066,-0.0028469941184404,0.0020230563844624,2.4701473057179,nan,False,live,nan
03/22/2024-11:42:52.470639 -- 799700,0.02,0.0,0.0,1.0,0.0,0,1.0540445288499,-6.39432620878461,214,4730.2821631051,0.00039105204256811,-0.0067352675283237,-8.6916879750359e-05,2.4658724176861,nan,False,live,nan
03/22/2024-11:42:52.501269 -- 799700,0.02,0.0,0.0,1.0,0.0,0,1.0551475686750003,-6.381240322241851,216,4566.8643698212,-0.0016572861550352,-0.002315423510065,0.0022643160609646,2.4605016128173,nan,False,live,nan
03/22/2024-11:42:52.520632 -- 799700,0.02,0.0,0.0,1.0,0.0,0,1.0551660994527001,-6.3824439968248505,217,4674.4548626254,0.00031560021236815,0.00024782261693469,-3.9559396096687e-05,2.4605411722134,nan,False,live,nan
03/22/2024-11:42:52.553457 -- 799700,0.02,0.0,0.0,1.0,0.0,0,1.0529052404043,-6.3941302336461,219,4355.3571740078,0.0003534119404539,0.0015494976680062,-0.0031192943670532,2.4658744696093,nan,False,live,nan
03/22/2024-11:42:52.586184 -- 799700,0.02,0.0,0.0,1.0,0.0,0,1.0510217791323004,-6.391348507974181,221,4584.3923278117,-0.00030341588338651,0.00070503544392168,-0.00032216839417378,2.4662614353564,nan,False,live,nan
03/22/2024-11:42:52.620063 -- 799700,0.02,0.0,0.0,1.0,0.0,0,1.045841234285401,-6.398040894459241,223,4519.8716157205,-0.00178700535162,0.0017754206585528,-0.0022695486450303,2.4686857943959,nan,False,live,nan
03/22/2024-11:42:52.652062 -- 799700,0.02,0.0,0.0,1.0,0.0,0,1.054842558224701,-6.39473008439688,225,4264.2699520279,0.0035782619063321,-0.0014584020965635,0.0021362995776362,2.466628052457,nan,False,live,nan
03/22/2024-11:42:52.686894 -- 799700,0.02,0.0,0.0,1.0,0.0,0,1.0548893170092004,-6.39604076128146,227,4282.8967320261,-0.00050206492877629,-8.7604144206065e-05,0.0013069666908517,2.4654687375712,nan,False,live,nan
03/22/2024-11:42:52.720475 -- 799700,0.02,0.0,0.0,1.0,0.0,0,1.0524493212057013,-6.396051158357221,229,4077.5732345248,0.0020250956122434,0.0012871714476837,-0.00049632052202702,2.4666586841896,nan,False,live,nan
03/22/2024-11:42:52.752882 -- 799700,0.02,0.0,0.0,1.0,0.0,0,1.0531374719028008,-6.39417533097171,231,4170.5619006103,-0.00042593237450307,-0.00042511697412816,0.00016804391204644,2.4667686106385,nan,False,live,nan
03/22/2024-11:42:52.786728 -- 799700,0.02,0.0,0.0,1.0,0.0,0,1.1605678122413998,-6.4206226060581,233,4712.7802964255,0.02982178992611,-0.022751076781002,0.017244874024459,2.4490932687122,nan,False,live,nan
03/22/2024-11:42:52.820107 -- 799709,0.02,0.0,0.0,1.0,0.0,0,1.6670129070501005,-6.33485158301661,235,5480.7044463819,0.036832710041058,-0.062050413359361,0.10411277384958,2.278221469705,nan,False,live,nan
03/22/2024-11:42:52.853715 -- 799741,0.02,0.0,0.0,1.0,0.0,0,2.0443926039906017,-6.30879627820908,237,7339.2375545852,0.070990257876893,-0.046918521558222,0.1156379803866,2.0298517616076,nan,False,live,nan
03/22/2024-11:42:52.898369 -- 799762,0.02,0.0,0.0,1.0,0.0,0,2.3390793493464006,-6.163218668102401,239,9064.8645470383,0.007936873101546,-0.0040206040917334,0.051918249470015,1.8664453485611,nan,False,live,nan
03/22/2024-11:42:52.924988 -- 799770,0.02,0.0,0.0,1.0,0.0,0,2.825914308415201,-6.0347253894858905,241,7717.5536181343,0.090371208099591,-0.057653185272787,0.0072818782384836,1.7993527113697,nan,False,live,nan
03/22/2024-11:42:52.950422 -- 799770,0.02,0.0,0.0,1.0,0.0,0,3.2519431918956005,-5.97368029412733,243,7341.3090671316,0.038287017034432,-0.025593017465558,-0.0018375075930832,1.8058005269078,nan,False,live,nan
03/22/2024-11:42:52.970743 -- 799770,0.02,0.0,0.0,1.0,0.0,0,3.3789872627625,-6.104780606719441,244,7474.0087260035,0.051272172461723,0.032775399243014,0.0053410679711744,1.8004594589366,nan,False,live,nan
03/22/2024-11:42:53.004320 -- 799777,0.02,0.0,0.0,1.0,0.0,0,3.789158231097301,-6.13781721380574,246,8181.1978213508,0.083285336656924,-0.02855748434165,0.023690715798558,1.749954164664,nan,False,live,nan
03/22/2024-11:42:53.036641 -- 799791,0.02,0.0,0.0,1.0,0.0,0,4.2474389716407,-6.1431466660167,248,8508.7652439024,0.067983035024949,-0.021436883246323,0.055915545925753,1.6344456858772,nan,False,live,nan
03/22/2024-11:42:53.070626 -- 799805,0.02,0.0,0.0,1.0,0.0,0,4.6596240439674,-5.89141208746425,250,8901.7846556234,0.069026153044192,-0.041424567074883,0.053521282555986,1.5276888874311,nan,False,live,nan
03/22/2024-11:42:53.103180 -- 799820,0.02,0.0,0.0,1.0,0.0,0,5.029955828601301,-5.72271422637834,252,8699.5979965157,0.048795601117633,-0.0076234050431008,0.069935820293947,1.4065709317821,nan,False,live,nan
03/22/2024-11:42:53.136271 -- 799837,0.02,0.0,0.0,1.0,0.0,0,5.346606189550801,-5.62771701606891,254,9047.7256097561,0.062495188106794,-0.0017318007509508,0.06853430858481,1.2798061629503,nan,False,live,nan
03/22/2024-11:42:53.168579 -- 799846,0.02,0.0,0.0,1.0,0.0,0,5.729922646208401,-5.39289861321201,256,8453.9320557491,0.068948423911883,-0.016465404998535,0.035878810939729,1.2091090378117,nan,False,live,nan
03/22/2024-11:42:53.187517 -- 799848,0.02,0.0,0.0,1.0,0.0,0,5.868303740053201,-5.3105492245974,257,8303.4895470383,0.052937428444278,-0.0088822258716704,0.017752584639875,1.1913564531719,nan,False,live,nan
03/22/2024-11:42:53.220396 -- 799859,0.02,0.0,0.0,1.0,0.0,0,6.048410482468201,-5.026740983323171,259,8274.1293554007,0.053606815789638,-0.020998480948464,0.047087476621109,1.1015791907607,nan,False,live,nan
03/22/2024-11:42:53.251307 -- 799881,0.02,0.0,0.0,1.0,0.0,0,6.431951068262101,-4.60103697211489,261,7423.7739547038,0.073676374576404,-0.044651862999302,0.078387162723213,0.93433118978418,nan,False,live,nan
03/22/2024-11:42:53.271322 -- 799888,0.02,0.0,0.0,1.0,0.0,0,6.616396865750101,-4.396370569791157,262,7250.0383442266,0.090504128723668,-0.015670655558103,0.058807378483785,0.87552381130039,nan,False,live,nan
03/22/2024-11:42:53.302007 -- 799897,0.02,0.0,0.0,1.0,0.0,0,6.6282324852972,-4.14802337704017,264,7155.9324912892,0.020629437823675,-0.018746635471735,0.030949507566548,0.80230064665391,nan,False,live,nan
03/22/2024-11:42:53.337102 -- 799908,0.02,0.0,0.0,1.0,0.0,0,6.966526650360601,-3.8883310525951504,266,7562.5047909408,0.097268746753692,0.011547211467875,0.040127793695179,0.71916178528064,nan,False,live,nan
03/22/2024-11:42:53.369249 -- 799909,0.02,0.0,0.0,1.0,0.0,0,7.0819551920997,-3.9631271809393502,268,7255.7173344948,0.0026283283175058,0.014969749051702,-0.0071204563083649,0.71059260685554,nan,False,live,nan
03/22/2024-11:42:53.403396 -- 799898,0.02,0.0,0.0,1.0,0.0,0,7.348143455480221,-4.13387271571401,270,8035.2848432056,-0.0057921812689504,0.05549935010329,-0.056977336771724,0.7963012999421,nan,False,live,nan
03/22/2024-11:42:53.436511 -- 799873,0.02,0.0,0.0,1.0,0.0,0,7.627262437587181,-4.08939567589236,272,8544.637630662,0.039632713725783,0.010875570699124,-0.093616102633443,0.99392367681041,nan,False,live,nan
03/22/2024-11:42:53.470160 -- 799861,0.02,0.0,0.0,1.0,0.0,0,7.940482870774381,-4.0185081912425105,274,9452.7498910675,0.041320469532216,0.014120078043937,-0.023823222882334,1.0897079898619,nan,False,live,nan
03/22/2024-11:42:53.502980 -- 799864,0.02,0.0,0.0,1.0,0.0,0,8.21125865809239,-3.97970585381853,276,9531.5444250871,0.001002174135618,0.038710220895993,0.036638220681627,1.0644146039997,nan,False,live,nan
03/22/2024-11:42:53.536625 -- 799875,0.02,0.0,0.0,1.0,0.0,0,8.355526084969501,-4.121157330073411,278,9211.6145470383,-0.028419993832244,0.029476596590893,0.038037411822951,0.97505803785481,nan,False,live,nan
03/22/2024-11:42:53.570927 -- 799875,0.02,0.0,0.0,1.0,0.0,0,8.643222462368911,-4.198362663195789,280,9227.506533101,0.021287773896028,0.033819345885925,-0.01980300286253,0.98083838531723,nan,False,live,nan
03/22/2024-11:42:53.603334 -- 799875,0.02,0.0,0.0,1.0,0.0,0,9.140466381313171,-3.7525203260550604,282,9158.2347560976,0.099298115783098,-0.023203131013452,-0.0034346116853552,0.97839553030631,nan,False,live,nan
03/22/2024-11:42:53.637272 -- 799879,0.02,0.0,0.0,1.0,0.0,0,9.597288349814491,-3.5016996406586705,284,9188.4947735192,0.059520826865032,0.030648080971722,0.017984250317525,0.94353857880297,nan,False,live,nan
03/22/2024-11:42:53.671602 -- 799890,0.02,0.0,0.0,1.0,0.0,0,9.851249296642681,-3.1159916480108105,286,9635.2678571429,0.11334790435575,-0.021895892736446,0.052076357515837,0.86053798761736,nan,False,live,nan
03/22/2024-11:42:53.704014 -- 799910,0.02,0.0,0.0,1.0,0.0,0,10.114563440628471,-2.7321264642889505,288,9969.6210801394,0.04470411583215,-0.018412161483777,0.10707778052653,0.70640896570433,nan,False,live,nan
03/22/2024-11:42:53.736643 -- 799937,0.02,0.0,0.0,1.0,0.0,0,10.167960112864,-2.1293463605961604,290,9129.7138501742,0.12120587322091,-0.046654385417528,0.1213903550182,0.49173295690833,nan,False,live,nan
03/22/2024-11:42:53.769352 -- 799971,0.02,0.0,0.0,1.0,0.0,0,9.98814450310512,-1.3643324858934003,292,8544.3898083624,0.12715677292565,-0.097095312000636,0.1443404962377,0.21998228562097,nan,False,live,nan
03/22/2024-11:42:53.801916 -- 799999,0.02,0.0,0.0,1.0,0.0,0,9.7510849641138,-0.8936261797289999,294,7529.7905052265,0.033764510570106,-0.04639866683424,0.10594276232192,0.0060501494444116,nan,False,live,nan
03/22/2024-11:42:53.837604 -- 800026,0.02,0.0,0.0,1.0,0.0,0,9.526605284508841,-0.7487329430193004,296,7136.4255226481,0.016680297266758,-0.0347137549169,0.10411908051191,6.0786886120898,nan,False,live,nan
03/22/2024-11:42:53.869435 -- 800050,0.02,0.0,0.0,1.0,0.0,0,9.102910027954021,-0.7930608447593999,298,6580.9734320557,0.032672354210641,-0.10429953871058,0.097259086432035,5.8883835468501,nan,False,live,nan
03/22/2024-11:42:53.902651 -- 800068,0.02,0.0,0.0,1.0,0.0,0,8.731417600908362,-0.7682092234122,300,6068.7395470383,0.026610665194132,-0.047703264468003,0.064765700688506,5.7440455268907,nan,False,live,nan
03/22/2024-11:42:53.938334 -- 800083,0.02,0.0,0.0,1.0,0.0,0,8.37043470957639,-0.7516321570275002,302,5934.1271777003,0.040906012567756,-0.01979027838194,0.050343403926488,5.6276808663027,nan,False,live,nan
03/22/2024-11:42:53.968933 -- 800086,0.02,0.0,0.0,1.0,0.0,0,8.33393732551152,-0.7052145114177004,304,6095.0509581882,0.019827329617662,-0.0071191463163993,0.0046569639079111,5.6024776791264,nan,False,live,nan
03/22/2024-11:42:54.002636 -- 800072,0.02,0.0,0.0,1.0,0.0,0,8.5754242267317,-0.6860282393877002,306,5936.4734320557,-0.033913092120819,0.043175351405327,-0.068487067703953,5.7100457509961,nan,False,live,nan
03/22/2024-11:42:54.037396 -- 800045,0.02,0.0,0.0,1.0,0.0,0,8.702741713954651,-0.6593976064152001,308,6600.1820557491,0.0090654724486977,0.022545944764097,-0.12047820985367,5.9253676900846,nan,False,live,nan
03/22/2024-11:42:54.069582 -- 800008,0.02,0.0,0.0,1.0,0.0,0,9.003352813479061,-0.6731599780356006,310,7106.6864111498,-0.019852286216575,0.065652304002945,-0.14715752714817,6.214369729794,nan,False,live,nan
03/22/2024-11:42:54.102822 -- 799974,0.02,0.0,0.0,1.0,0.0,0,9.345880355868601,-0.7155833415657007,312,7215.9690766551,-0.001084827029497,0.046290923757222,-0.11600143543724,0.20308526095576,nan,False,live,nan
03/22/2024-11:42:54.136258 -- 799952,0.02,0.0,0.0,1.0,0.0,0,9.653077808193121,-0.6751182089282999,314,8868.6126361656,0.042147433925074,0.04518475730999,-0.062657596882781,0.37496062158472,nan,False,live,nan
03/22/2024-11:42:54.167233 -- 799946,0.02,0.0,0.0,1.0,0.0,0,9.5675222110368,-0.8569632738662998,316,8465.9638501742,-0.030624532828394,0.0073290432540559,-0.012176694364135,0.42282774712626,nan,False,live,nan
03/22/2024-11:42:54.187069 -- 799947,0.02,0.0,0.0,1.0,0.0,0,9.61452084614871,-0.8426187686319002,317,8483.6406794425,0.010715012756092,0.012388884197893,0.011967406769253,0.41086034035701,nan,False,live,nan
03/22/2024-11:42:54.218840 -- 799950,0.02,0.0,0.0,1.0,0.0,0,9.5204855625378,-0.7389837969600004,319,8713.8101045296,0.0096890763403551,-0.018940950693536,0.010835306644514,0.38745418543018,nan,False,live,nan
03/22/2024-11:42:54.255210 -- 799954,0.02,0.0,0.0,1.0,0.0,0,9.544346234920472,-0.7477361077260003,321,8499.5766550523,-0.0019068688102323,0.008337843609338,0.031425701183962,0.35512834214838,nan,False,live,nan
03/22/2024-11:42:54.286914 -- 799956,0.02,0.0,0.0,1.0,0.0,0,9.5199802021632,-0.7504418612517005,323,7896.6641986063,-0.0011761192627879,0.013337303968551,0.003833489081879,0.34334269792753,nan,False,live,nan
03/22/2024-11:42:54.318245 -- 799958,0.02,0.0,0.0,1.0,0.0,0,9.53957470565253,-0.7588582657329002,325,7793.3162020906,0.0040918573559883,-0.0083880815444593,0.0065784693993878,0.32229477735609,nan,False,live,nan
03/22/2024-11:42:54.352283 -- 799960,0.02,0.0,0.0,1.0,0.0,0,9.50389633535544,-0.7888157712867003,327,7403.1898954704,-0.0014272638617207,0.0016044917841487,0.0047095774096438,0.31362153084198,nan,False,live,nan
03/22/2024-11:42:54.384886 -- 799958,0.02,0.0,0.0,1.0,0.0,0,9.515289784576561,-0.7883924567544005,329,7340.1777003484,0.0079951565097186,-0.0089093877966556,-0.00073268362828242,0.3224772259278,nan,False,live,nan
03/22/2024-11:42:54.419208 -- 799958,0.02,0.0,0.0,1.0,0.0,0,9.5325072860208,-0.8188799295900004,331,7694.6972996516,0.0041420057737519,0.009720599000172,0.005714807369649,0.32347546198662,nan,False,live,nan
03/22/2024-11:42:54.452476 -- 799957,0.02,0.0,0.0,1.0,0.0,0,9.53446480680936,-0.8799399232515004,333,7214.1916376307,-0.0017828548106036,0.0055704404270713,-0.0022492421032867,0.33094850403137,nan,False,live,nan
03/22/2024-11:42:54.487459 -- 799957,0.02,0.0,0.0,1.0,0.0,0,9.55017488396823,-0.8965701895587004,335,7128.3667247387,-0.00072648777789015,0.0023043580340612,6.4149564472995e-05,0.33232177116877,nan,False,live,nan
03/22/2024-11:42:54.518854 -- 799957,0.02,0.0,0.0,1.0,0.0,0,9.54365078455692,-0.8916080443815,337,7438.043989547,0.00066432595314217,-0.00075449663793519,-0.00056295894576718,0.33459844552709,nan,False,live,nan
03/22/2024-11:42:54.538516 -- 799957,0.02,0.0,0.0,1.0,0.0,0,9.54009292212765,-0.8968061706486008,338,7031.1014808362,-0.002025785039792,-0.00055223383377356,0.0010405969191898,0.3335578486079,nan,False,live,nan
03/22/2024-11:42:54.570125 -- 799957,0.02,0.0,0.0,1.0,0.0,0,9.5414185584684,-0.8966296369959004,340,6745.1393728223,0.0019630663880579,0.00097673300836291,-0.0014623336307338,0.33414983088012,nan,False,live,nan
03/22/2024-11:42:54.604047 -- 799957,0.02,0.0,0.0,1.0,0.0,0,9.55122355646799,-0.8988560842683002,342,6581.5513937282,0.00042806124686993,0.0019461537629144,-0.00023074404799498,0.33188700154667,nan,False,live,nan
03/22/2024-11:42:54.635967 -- 799958,0.02,0.0,0.0,1.0,0.0,0,9.5444361932286,-0.8988304089753001,344,6284.7952961672,-0.00031597030946809,0.00043935329290729,-0.000960196389741,0.32985066051757,nan,False,live,nan
03/22/2024-11:42:54.669596 -- 799958,0.02,0.0,0.0,1.0,0.0,0,9.54336763879041,-0.8996112715583999,346,6010.7478222997,-0.00051575911947518,-0.00079959454745501,0.00011532995342178,0.32889832040188,nan,False,live,nan
03/22/2024-11:42:54.703715 -- 799958,0.02,0.0,0.0,1.0,0.0,0,9.53955167958777,-0.8935817036133002,348,6097.1676829268,0.001761359691309,-0.00020039689209167,0.00099698861006756,0.32770734436687,nan,False,live,nan
03/22/2024-11:42:54.737185 -- 799958,0.02,0.0,0.0,1.0,0.0,0,9.544742856935281,-0.8997233798469,350,5867.7086236934,-0.0007055318536415,0.0011234897682379,-0.0009173844299686,0.32950862901975,nan,False,live,nan
03/22/2024-11:42:54.770114 -- 799957,0.02,0.0,0.0,1.0,0.0,0,9.541749055743301,-0.893673322398,352,5960.4908536585,3.818431718911e-05,-0.00034757329448344,0.00033882133402422,0.33123133868051,nan,False,live,nan
03/22/2024-11:42:54.803631 -- 799957,0.02,0.0,0.0,1.0,0.0,0,9.58424906515278,-0.8931652302603004,354,6622.6737804878,0.0046024286754762,0.013755207618776,-0.00047780425909836,0.33159870185055,nan,False,live,nan
03/22/2024-11:42:54.837377 -- 799951,0.02,0.0,0.0,1.0,0.0,0,9.891564118206091,-0.8266612527933006,356,7671.1551198257,0.042065711127376,0.051654373273251,-0.035213770309279,0.38379704636972,nan,False,live,nan
03/22/2024-11:42:54.870926 -- 799937,0.02,0.0,0.0,1.0,0.0,0,10.2945486877715,-0.6372694908564003,358,8632.8148148148,0.0314558792334,0.040204192602081,-0.05655166873731,0.48980854376675,nan,False,live,nan
03/22/2024-11:42:54.905259 -- 799921,0.02,0.0,0.0,1.0,0.0,0,10.579234548124711,-0.6702033843726003,360,8747.6550522648,0.028359911566081,0.060134849859246,-0.070080133854586,0.61814014199265,nan,False,live,nan
03/22/2024-11:42:54.937977 -- 799910,0.02,0.0,0.0,1.0,0.0,0,10.81561672345629,-0.5411533726242004,362,8847.4255226481,0.036902456101646,-0.023230580368734,-0.02872994424623,0.70007371868264,nan,False,live,nan
03/22/2024-11:42:54.971116 -- 799912,0.02,0.0,0.0,1.0,0.0,0,11.13680936385996,-0.3347346647343006,364,9169.7260452962,0.0423058857847,0.035499065181569,0.013612309947089,0.68997120307339,nan,False,live,nan
03/22/2024-11:42:55.003575 -- 799923,0.02,0.0,0.0,1.0,0.0,0,11.231632501693651,-0.16832217507089986,366,8551.4838850174,0.030773254779425,-0.016939796049494,0.045916453166005,0.6006230553032,nan,False,live,nan
03/22/2024-11:42:55.038489 -- 799927,0.02,0.0,0.0,1.0,0.0,0,11.32504565306067,-0.07415153193390012,368,8514.2770034843,0.0066932436372727,0.015392153512645,-0.01578502912328,0.57046967507123,nan,False,live,nan
03/22/2024-11:42:55.069803 -- 799915,0.02,0.0,0.0,1.0,0.0,0,11.429865422185681,-0.2539504855800008,370,8516.2669860627,-0.014487905674741,0.036865976800941,-0.063651056492175,0.66132024163493,nan,False,live,nan
03/22/2024-11:42:55.103195 -- 799907,0.02,0.0,0.0,1.0,0.0,0,11.626782978765,-0.11902265010420088,372,7648.0531822145,0.033703915771285,-0.0028007325073827,-0.0078295337567905,0.72778072220523,nan,False,live,nan
03/22/2024-11:42:55.136259 -- 799931,0.02,0.0,0.0,1.0,0.0,0,11.69901031898625,0.02068929541889908,374,7221.1202090592,0.039803740492472,0.0023628605057063,0.12178787821885,0.53877244653149,nan,False,live,nan
03/22/2024-11:42:55.171297 -- 799960,0.02,0.0,0.0,1.0,0.0,0,11.58790840226265,0.31494903578970046,376,6867.350174216,0.066026236977147,-0.051446398059325,0.105101444632,0.30875031785067,nan,False,live,nan
03/22/2024-11:42:55.197980 -- 799965,0.02,0.0,0.0,1.0,0.0,0,11.49988098093126,0.4757831757398998,378,6895.8122004357,0.0092132598153808,-0.021319137160129,-0.0051704540802791,0.26881082214062,nan,False,live,nan
03/22/2024-11:42:55.237011 -- 799957,0.02,0.0,0.0,1.0,0.0,0,11.55992408176572,0.6642583191347997,380,6990.843641115,0.045974140165044,-0.025322397876727,-0.020183965883405,0.3363480610403,nan,False,live,nan
03/22/2024-11:42:55.268302 -- 799965,0.02,0.0,0.0,1.0,0.0,0,11.40874556064444,0.8645782321019997,382,7024.7229965157,0.029784941687591,-0.073892041776517,0.045886684077229,0.27078009787238,nan,False,live,nan
03/22/2024-11:42:55.302397 -- 799983,0.02,0.0,0.0,1.0,0.0,0,11.26557590992992,1.0826053157387996,384,7014.0043554007,0.021749946341067,-0.01922849399751,0.064453209179561,0.13194477672085,nan,False,live,nan
03/22/2024-11:42:55.337128 -- 799993,0.02,0.0,0.0,1.0,0.0,0,11.125235633443081,1.1618475252137994,386,6785.9067944251,0.010934171002539,-0.018166394953419,0.0316325772054,0.052001024248893,nan,False,live,nan
03/22/2024-11:42:55.370420 -- 799998,0.02,0.0,0.0,1.0,0.0,0,10.99913548848858,1.5214373399216994,388,7050.0544425087,0.060194642660789,-0.038006861624907,0.019149802099912,0.012833165932956,nan,False,live,nan
03/22/2024-11:42:55.404622 -- 800011,0.02,0.0,0.0,1.0,0.0,0,10.745830449720781,1.5723976785494997,390,6436.9237472767,0.0044792747616415,-0.03823929913194,0.081735383651896,6.1938405837895,nan,False,live,nan
03/22/2024-11:42:55.435843 -- 800043,0.02,0.0,0.0,1.0,0.0,0,10.247349087061949,1.7273579870735993,392,6274.7859633827,0.040560389715048,-0.10169903669857,0.14956139797897,5.9399112040193,nan,False,live,nan
03/22/2024-11:42:55.470471 -- 800081,0.02,0.0,0.0,1.0,0.0,0,9.88733877035331,1.8331628026785003,394,6447.2295296167,0.061864421764222,-0.025057870903026,0.14343728136712,5.6455375623836,nan,False,live,nan
03/22/2024-11:42:55.504780 -- 800100,0.02,0.0,0.0,1.0,0.0,0,9.838781815040191,1.7806347199571997,396,6396.6145470383,-0.0090501255587093,-0.0028627514961479,0.034821133329035,5.4972015545444,nan,False,live,nan
03/22/2024-11:42:55.536688 -- 800101,0.02,0.0,0.0,1.0,0.0,0,9.843283752718351,1.8367509642843007,398,6765.1759581882,0.00070809121059266,0.0049702424810165,-0.0032628995916656,5.4838754366643,nan,False,live,nan
03/22/2024-11:42:55.569721 -- 800098,0.02,0.0,0.0,1.0,0.0,0,9.695678471138551,2.0049605437161,400,6399.5161149826,0.0097081393524647,0.00075278338479598,-0.016074295314775,5.5079823293372,nan,False,live,nan
03/22/2024-11:42:55.603539 -- 800097,0.02,0.0,0.0,1.0,0.0,0,9.735715190808751,2.0411599467015,402,6653.7529411765,-0.00016812092372361,0.0010175035510245,0.0026550768162443,5.5171964280906,nan,False,live,nan
03/22/2024-11:42:55.637740 -- 800100,0.02,0.0,0.0,1.0,0.0,0,9.67888370729046,2.060890689177299,404,6534.4067944251,0.016082525152311,-0.008797979892072,0.024847618982449,5.4903159111335,nan,False,live,nan
03/22/2024-11:42:55.669300 -- 800103,0.02,0.0,0.0,1.0,0.0,0,9.56249341480485,1.9748827299666,406,6667.0108885017,0.019521303352739,-0.029516246329197,0.010337535735704,5.4694153518928,nan,False,live,nan
03/22/2024-11:42:55.702078 -- 800109,0.02,0.0,0.0,1.0,0.0,0,9.42956698798179,1.9831833858239998,408,6672.1019163763,0.024289588305506,-0.0053645195799167,0.031183971404511,5.4245486518131,nan,False,live,nan
03/22/2024-11:42:55.721865 -- 800115,0.02,0.0,0.0,1.0,0.0,0,9.2476255607232,2.0176705740804,409,7095.2652439024,0.054132331618476,-0.029674391798863,0.046768790741577,5.3777798610715,nan,False,live,nan
03/22/2024-11:42:55.754026 -- 800116,0.02,0.0,0.0,1.0,0.0,0,8.984217078251731,1.9634292149726988,411,6835.0152439024,-0.015272510131188,0.012421258131071,-0.0076648271183448,5.3714444027393,nan,False,live,nan
03/22/2024-11:42:55.784273 -- 800102,0.02,0.0,0.0,1.0,0.0,0,9.171016525013611,2.1236093257880997,413,6363.4679738562,0.0082346215084779,0.017288787181398,-0.054234963067558,5.4742369727089,nan,False,live,nan
03/22/2024-11:42:55.804033 -- 800093,0.02,0.0,0.0,1.0,0.0,0,9.234903830066191,2.1332070856397998,414,6913.8753812636,-0.012536973189857,0.01751528655882,-0.077200292958876,5.5514372656678,nan,False,live,nan
03/22/2024-11:42:55.837584 -- 800064,0.02,0.0,0.0,1.0,0.0,0,9.402682844988451,2.322090556812599,416,6956.7038327526,-0.0068511063462302,0.033108798060117,-0.12499255076621,5.7779137789719,nan,False,live,nan
03/22/2024-11:42:55.870584 -- 800032,0.02,0.0,0.0,1.0,0.0,0,9.64454247917679,2.5210658871909004,418,6511.2229965157,0.013131909369675,0.036360062167137,-0.1335295177203,6.0304509549323,nan,False,live,nan
03/22/2024-11:42:55.903356 -- 799997,0.02,0.0,0.0,1.0,0.0,0,9.812240308810981,2.829954747440399,420,7567.5431184669,0.053808431455437,0.054768988857927,-0.14341571945088,0.022725642440806,nan,False,live,nan
03/22/2024-11:42:55.936342 -- 799975,0.02,0.0,0.0,1.0,0.0,0,9.90337487168667,2.9349788171193003,422,8424.9045751634,0.032536777145643,0.013235795812733,-0.06681356995235,0.19462258540323,nan,False,live,nan
03/22/2024-11:42:55.969041 -- 799979,0.02,0.0,0.0,1.0,0.0,0,9.86723515953423,3.0871309071794997,424,8545.2361655773,0.018522748079409,-0.028960904446257,0.036303088319717,0.16296549341822,nan,False,live,nan
03/22/2024-11:42:56.001350 -- 800005,0.02,0.0,0.0,1.0,0.0,0,9.64166053406316,3.1255140571958995,426,7422.443815331,-0.007258591012058,-0.043962369110541,0.12463492314767,6.236488981296,nan,False,live,nan
03/22/2024-11:42:56.020715 -- 800026,0.02,0.0,0.0,1.0,0.0,0,9.44320796686431,3.1756892057361004,427,6530.6069716776,0.025009130538933,-0.063558280291829,0.1610749791563,6.0754140021397,nan,False,live,nan
03/22/2024-11:42:56.053574 -- 800050,0.02,0.0,0.0,1.0,0.0,0,9.366139123779242,3.2293743540563993,429,5716.7234320557,-0.0035112723643458,0.0036445273344555,0.065367376110598,5.8900637398488,nan,False,live,nan
03/22/2024-11:42:56.087665 -- 800041,0.02,0.0,0.0,1.0,0.0,0,9.465500851536572,3.127919481265499,431,6637.4024390244,-0.016271331060152,0.020865969122307,-0.056733500562377,5.9559383365862,nan,False,live,nan
03/22/2024-11:42:56.118335 -- 800041,0.02,0.0,0.0,1.0,0.0,0,9.414534310232881,2.9253487562040004,433,6512.8475609756,-0.023377625410576,-0.022845780060274,0.026572538911214,5.9539280940468,nan,False,live,nan
03/22/2024-11:42:56.137671 -- 800054,0.02,0.0,0.0,1.0,0.0,0,9.3854266247961,2.8927386840368996,434,6199.5102396514,-0.0065390765335147,-0.013026432806725,0.095188167505845,5.858739926541,nan,False,live,nan
03/22/2024-11:42:56.170735 -- 800074,0.02,0.0,0.0,1.0,0.0,0,9.227263438809901,2.8063552271378995,436,5696.9647058824,0.0039962624357698,-0.0070647459840026,0.074671331042343,5.6984408249712,nan,False,live,nan
03/22/2024-11:42:56.203004 -- 800072,0.02,0.0,0.0,1.0,0.0,0,9.21829874585253,2.7503634564716997,438,6160.4374727669,-0.011671001968377,0.00058608133939364,-0.023922040560694,5.7138811972823,nan,False,live,nan
03/22/2024-11:42:56.238154 -- 800074,0.02,0.0,0.0,1.0,0.0,0,9.22187474140965,2.8376199451712996,440,6284.0300653595,0.0080431281599313,0.0037920991839297,0.033501215960045,5.700182956567,nan,False,live,nan
03/22/2024-11:42:56.271317 -- 800088,0.02,0.0,0.0,1.0,0.0,0,9.19055936688516,2.8367785846578,442,5814.0697167756,-0.00045531915108043,0.00086525757071145,0.03855046153459,5.5912518133618,nan,False,live,nan
03/22/2024-11:42:56.305355 -- 800080,0.02,0.0,0.0,1.0,0.0,0,9.2746630745313,2.8871694455058003,444,5584.3440766551,-0.021065646742535,0.0070335392940746,-0.033135035045377,5.6543142073706,nan,False,live,nan
03/22/2024-11:42:56.340875 -- 800075,0.02,0.0,0.0,1.0,0.0,0,9.253736530039081,2.9991182719862994,446,5465.5015263846,0.013409312083915,-0.0051713592604916,-0.0095366598114167,5.6880199315989,nan,False,live,nan
03/22/2024-11:42:56.365793 -- 800085,0.02,0.0,0.0,1.0,0.0,0,9.15767779078719,2.8433358364862986,448,6379.5638344227,-0.016984598632873,-0.023561733657984,0.033365557644755,5.6136158468399,nan,False,live,nan
03/22/2024-11:42:56.398641 -- 800103,0.02,0.0,0.0,1.0,0.0,0,9.136146273304501,2.6370380640275997,450,6606.8484320557,-0.0054175859192038,-0.048272597021969,0.082690798581087,5.4687150127997,nan,False,live,nan
03/22/2024-11:42:56.432601 -- 800136,0.02,0.0,0.0,1.0,0.0,0,9.07131913420428,2.4310329588572994,452,6863.5779616725,-0.017894616571124,-0.032638436490222,0.1177871895485,5.2126526345795,nan,False,live,nan
03/22/2024-11:42:56.451277 -- 800136,0.02,0.0,0.0,1.0,0.0,0,9.13085235504645,2.428643351461499,453,7306.0283101045,-0.017809626885833,0.0087893402681709,0.0033979279909424,5.2092547065886,nan,False,live,nan
03/22/2024-11:42:56.485427 -- 800110,0.02,0.0,0.0,1.0,0.0,0,9.288820514119411,2.5229680942841988,455,6721.6104575163,-0.032304889675542,0.033194872630343,-0.1209194258256,5.4191480713059,nan,False,live,nan
03/22/2024-11:42:56.515601 -- 800063,0.02,0.0,0.0,1.0,0.0,0,9.57220896018153,2.6970279004761,457,5687.7081151832,-0.0074188428068629,0.04589924707062,-0.18069033715584,5.786463616946,nan,False,live,nan
03/22/2024-11:42:56.552497 -- 800016,0.02,0.0,0.0,1.0,0.0,0,9.87626240865273,2.8567718850170998,459,6625.2239651416,0.024831693107851,0.073610528243158,-0.17927742444943,6.1553420823,nan,False,live,nan
03/22/2024-11:42:56.570640 -- 799995,0.02,0.0,0.0,1.0,0.0,0,10.067458837654042,3.0074459906936992,460,7349.9978213508,0.047219974248022,0.066091070581764,-0.16159230851417,0.033749083634547,nan,False,live,nan
03/22/2024-11:42:56.602684 -- 799975,0.02,0.0,0.0,1.0,0.0,0,10.211677861998274,3.1950352753250995,462,8115.18744551,0.0056921212880124,0.028652820752206,-0.076073987516387,0.19602885341313,nan,False,live,nan
03/22/2024-11:42:56.625954 -- 799973,0.02,0.0,0.0,1.0,0.0,0,10.163440226746756,3.1728762132257993,463,7867.504143044,-0.010481237988998,-0.014256512469531,-0.014609825861733,0.21063867927486,nan,False,live,nan
03/22/2024-11:42:56.651710 -- 799961,0.02,0.0,0.0,1.0,0.0,0,10.462670721065065,3.1514406735111002,465,7433.6242371404,0.011373848623418,0.043786821872615,-0.043643085892897,0.29859733274829,nan,False,live,nan
03/22/2024-11:42:56.670344 -- 799954,0.02,0.0,0.0,1.0,0.0,0,10.472950897206193,3.1018275720384,466,7656.1403050109,-0.014558372812789,0.0085654073918947,-0.057791640553307,0.3563889733016,nan,False,live,nan
03/22/2024-11:42:56.703379 -- 799961,0.02,0.0,0.0,1.0,0.0,0,10.614888124680181,3.1329291239322004,468,7209.4463818657,0.018484203522456,0.019681832838978,0.051134259582202,0.30245807248021,nan,False,live,nan
03/22/2024-11:42:56.739121 -- 799985,0.02,0.0,0.0,1.0,0.0,0,10.494894106271627,3.1730358230424,470,6727.443766347,0.0055736664230801,-0.017590131281975,0.080472630291183,0.11741055727862,nan,False,live,nan
03/22/2024-11:42:56.770554 -- 799990,0.02,0.0,0.0,1.0,0.0,0,10.388021500600944,3.0081635409932996,472,7413.564516129,-0.027936320206575,-0.013385710535798,-0.00015886369834755,0.077135562128186,nan,False,live,nan
03/22/2024-11:42:56.803547 -- 800012,0.02,0.0,0.0,1.0,0.0,0,10.173799833249415,3.0045137101670996,474,6760.2733217088,0.0069247134721664,-0.043903061232103,0.12859854610714,6.1812685160442,nan,False,live,nan
03/22/2024-11:42:56.837651 -- 800031,0.02,0.0,0.0,1.0,0.0,0,10.022448659234433,3.008723294714999,476,6057.6470588235,0.010077170071871,-0.018997432264213,0.049912225061487,6.0375601042387,nan,False,live,nan
03/22/2024-11:42:56.870160 -- 800025,0.02,0.0,0.0,1.0,0.0,0,10.066583071903048,3.0756104607861,478,6270.5588491718,0.021029976002279,0.017316236069356,-0.030187112246377,6.0830345194219,nan,False,live,nan
03/22/2024-11:42:56.904059 -- 800014,0.02,0.0,0.0,1.0,0.0,0,10.138368395726562,3.5284217584506,480,6158.5250763192,0.072145414417352,0.017048659248042,-0.038760114057935,6.1669185235041,nan,False,live,nan
03/22/2024-11:42:56.937631 -- 800005,0.02,0.0,0.0,1.0,0.0,0,10.08412116939111,3.702429718942801,482,5535.3854529617,0.0019402629245132,-0.0029138849474754,-0.034296500931363,6.2406891888322,nan,False,live,nan
03/22/2024-11:42:56.969439 -- 800010,0.02,0.0,0.0,1.0,0.0,0,9.97050254825865,4.3290893608836,484,4807.1520034843,0.11618295430777,-0.019453356522685,0.040938601775107,6.2023607568115,nan,False,live,nan
03/22/2024-11:42:57.003040 -- 800024,0.02,0.0,0.0,1.0,0.0,0,10.037187601221774,4.5027999944787,486,4929.9594947735,0.00031757348126509,0.011150727194195,0.073441342876618,6.0905531136862,nan,False,live,nan
03/22/2024-11:42:57.034127 -- 800029,0.02,0.0,0.0,1.0,0.0,0,10.019691499991941,4.496395989554999,488,5478.4339869281,-0.0090652200365788,0.0051251033698108,-0.0097459849451919,6.052823021045,nan,False,live,nan
03/22/2024-11:42:57.053492 -- 800014,0.02,0.0,0.0,1.0,0.0,0,10.144148517976804,4.4483462470284,489,5178.0557977332,-0.022833348346684,0.038189682322628,-0.11987625837549,6.1726992794204,nan,False,live,nan
03/22/2024-11:42:57.085181 -- 799950,0.02,0.0,0.0,1.0,0.0,0,10.51663586548134,4.4716764744666,491,6585.2591463415,0.022846266345157,0.02230499804648,-0.2453616142119,0.38621552581607,nan,False,live,nan
03/22/2024-11:42:57.120512 -- 799928,0.02,0.0,0.0,1.0,0.0,0,10.741076138159281,4.561198510594799,493,7119.4590235397,0.027621465744534,0.017917118007332,-0.030832120950079,0.56042722094924,nan,False,live,nan
03/22/2024-11:42:57.153589 -- 799955,0.02,0.0,0.0,1.0,0.0,0,10.499693439018438,4.5130307217474,495,6055.4132519616,-0.045095471518062,-0.0408119014643,0.1337221153439,0.34694058030594,nan,False,live,nan
03/22/2024-11:42:57.187261 -- 799991,0.02,0.0,0.0,1.0,0.0,0,10.203351981291608,4.5516029090169,497,5103.2022667829,-0.024045406811628,-0.046243037344839,0.12752147889149,0.066902968390294,nan,False,live,nan
03/22/2024-11:42:57.220240 -- 799999,0.02,0.0,0.0,1.0,0.0,0,10.130507583516456,4.5328070087487,499,4371.7190766551,-0.014411502651345,-0.012022115460622,0.012766718110786,0.0068110809969633,nan,False,live,nan
03/22/2024-11:42:57.254520 -- 800005,0.02,0.0,0.0,1.0,0.0,0,10.086720531514555,4.529279003034,501,4382.1258710801,-0.0026393273037708,-0.0034035699254855,0.03910475590597,6.2382682014907,nan,False,live,nan
03/22/2024-11:42:57.287511 -- 800007,0.02,0.0,0.0,1.0,0.0,0,10.031041584360988,4.500272911099801,503,5008.4577157803,-0.00428870011283,-0.0040751191610543,-0.016072398280323,6.2216588609795,nan,False,live,nan
03/22/2024-11:42:57.319262 -- 799981,0.02,0.0,0.0,1.0,0.0,0,10.251279974307447,4.547536459903201,505,5024.6618736383,0.024919196418397,0.033428943007113,-0.13883391637434,0.14463047949295,nan,False,live,nan
03/22/2024-11:42:57.354153 -- 799936,0.02,0.0,0.0,1.0,0.0,0,10.539932129137261,4.66197804219,507,6618.8484320557,0.063868150760086,0.038851869163349,-0.17773439602514,0.49588989351839,nan,False,live,nan
03/22/2024-11:42:57.386503 -- 799937,0.02,0.0,0.0,1.0,0.0,0,10.315484977317924,4.7973496437171,509,6820.3109463585,0.0046945602200767,-0.068742486737396,0.0872615338646,0.49036209725215,nan,False,live,nan
03/22/2024-11:42:57.420748 -- 799973,0.02,0.0,0.0,1.0,0.0,0,10.369036109534644,5.085454204407,511,4803.5298735281,0.037089784207281,-0.037713475092079,0.13253049412478,0.20668590148456,nan,False,live,nan
03/22/2024-11:42:57.454900 -- 799975,0.02,0.0,0.0,1.0,0.0,0,10.364375287878564,4.972183117858199,513,4739.723580786,-0.018207240975445,0.0012346522882043,-0.018104563654577,0.19508095249897,nan,False,live,nan
03/22/2024-11:42:57.487416 -- 799961,0.02,0.0,0.0,1.0,0.0,0,10.320476895051273,4.8370780890885,515,5006.3102094241,-0.014773886193126,0.0079232820054308,-0.029875857428371,0.29932821393574,nan,False,live,nan
03/22/2024-11:42:57.519976 -- 799965,0.02,0.0,0.0,1.0,0.0,0,10.280225491576333,4.7799760789239,517,5150.2753054101,-0.0071963294381275,-0.0050031774127971,0.027720231068513,0.27254764924071,nan,False,live,nan
03/22/2024-11:42:57.554370 -- 799971,0.02,0.0,0.0,1.0,0.0,0,10.233962138861989,4.7005845111546005,519,4698.8727668845,-0.0062978694042703,0.00077953746558889,0.023741400252804,0.22323923509309,nan,False,live,nan
03/22/2024-11:42:57.587239 -- 799979,0.02,0.0,0.0,1.0,0.0,0,10.174324683628615,4.711471874828099,521,4587.0927700348,0.010103782199386,-0.010184955945043,0.042129057190022,0.16410938332399,nan,False,live,nan
03/22/2024-11:42:57.619980 -- 799985,0.02,0.0,0.0,1.0,0.0,0,10.222507014642183,4.7324925154664985,523,4616.5435919791,0.0036217901550049,0.0074806012807862,0.017393721307837,0.11219216922678,nan,False,live,nan
03/22/2024-11:42:57.654023 -- 799987,0.02,0.0,0.0,1.0,0.0,0,10.19471524413351,4.720951604845199,525,4297.8013071895,0.0029583326997152,-0.013781635520887,0.023810045651586,0.097313188379892,nan,False,live,nan
03/22/2024-11:42:57.688322 -- 800005,0.02,0.0,0.0,1.0,0.0,0,10.123082795056536,4.851656504634599,527,4202.0331443524,0.048248454980476,-0.023400455648942,0.086087668982345,6.2414973061137,nan,False,live,nan
03/22/2024-11:42:57.720330 -- 800038,0.02,0.0,0.0,1.0,0.0,0,10.039021098982024,5.044638034226098,529,4982.6033129904,0.0023088527856107,0.016825570168048,0.11019182332785,5.9786088066664,nan,False,live,nan
03/22/2024-11:42:57.753276 -- 800004,0.02,0.0,0.0,1.0,0.0,0,10.172212350868,5.1320412346971,531,4286.6745200698,0.0089970195048641,0.051756574819784,-0.2258046142345,6.2486745307934,nan,False,live,nan
03/22/2024-11:42:57.786565 -- 799929,0.02,0.0,0.0,1.0,0.0,0,10.56261268213407,5.2374908794740005,533,6300.8458188153,0.03655247048161,0.064906271358037,-0.29492170930486,0.55176481780522,nan,False,live,nan
03/22/2024-11:42:57.822081 -- 799878,0.02,0.0,0.0,1.0,0.0,0,11.06168447849199,5.572659486753899,535,7732.1772648084,0.13285458649572,-0.046183362034149,-0.15745934506363,0.95225166514593,nan,False,live,nan
03/22/2024-11:42:57.852373 -- 799873,0.02,0.0,0.0,1.0,0.0,0,11.44765753701168,6.3469847930031005,537,7468.3993902439,0.13203378094295,0.0071447792273431,-0.010091198047936,0.99226670433871,nan,False,live,nan
03/22/2024-11:42:57.872409 -- 799889,0.02,0.0,0.0,1.0,0.0,0,11.447398224162091,6.298639617862801,538,7052.1921568627,-0.0096848493847256,0.012891955245114,0.12079155077795,0.87147515356076,nan,False,live,nan
03/22/2024-11:42:57.904063 -- 799920,0.02,0.0,0.0,1.0,0.0,0,11.378729243869891,6.861909119557199,540,6537.3880662021,0.058969622229066,-0.066474222246065,0.12001463286058,0.62344027474054,nan,False,live,nan
03/22/2024-11:42:57.937176 -- 799937,0.02,0.0,0.0,1.0,0.0,0,11.48370228435558,7.213607788573199,542,6328.1861377507,0.045836864023227,0.0012829224407431,0.039658225957232,0.48771664158858,nan,False,live,nan
03/22/2024-11:42:57.970970 -- 799937,0.02,0.0,0.0,1.0,0.0,0,11.63148373387542,7.168540095233999,544,6323.834422658,0.0045770041738966,0.034933184482799,-0.026240594263229,0.48973034604568,nan,False,live,nan
03/22/2024-11:42:58.005007 -- 799936,0.02,0.0,0.0,1.0,0.0,0,11.62189602366519,6.9963760474926,546,6448.1306620209,0.00088870298400928,0.017504375552435,0.0065539118630076,0.49483477515952,nan,False,live,nan
03/22/2024-11:42:58.037719 -- 799941,0.02,0.0,0.0,1.0,0.0,0,11.59204184058165,6.972600722912999,548,5949.2216898955,0.0045466683174731,-0.020303587844987,0.017294281056639,0.46150834659871,nan,False,live,nan
03/22/2024-11:42:58.070788 -- 799945,0.02,0.0,0.0,1.0,0.0,0,11.5377072643002,6.934757411654999,550,5778.8683522232,0.0019000239770385,0.0012693403734656,0.020843256522233,0.42563409219646,nan,False,live,nan
03/22/2024-11:42:58.106242 -- 799952,0.02,0.0,0.0,1.0,0.0,0,11.44857532978251,6.9770117199468,552,5509.987369338,0.0087739805545931,-0.030908816069927,0.031280354043686,0.36944721896068,nan,False,live,nan
03/22/2024-11:42:58.137813 -- 799978,0.02,0.0,0.0,1.0,0.0,0,11.236992352237321,7.2189404807127,554,5323.8644289451,0.038934505882313,-0.017967154849554,0.09035118188756,0.16565561134621,nan,False,live,nan
03/22/2024-11:42:58.170156 -- 799971,0.02,0.0,0.0,1.0,0.0,0,11.278163408608322,7.323953738349299,556,5567.7132897603,0.015757540769046,0.0060214640370738,-0.083394141765179,0.22249611980324,nan,False,live,nan
03/22/2024-11:42:58.201095 -- 799947,0.02,0.0,0.0,1.0,0.0,0,11.34340614851556,7.7549469266862,558,6554.0143853531,0.076876175361338,-0.038158924776475,-0.081538456825759,0.41330997732645,nan,False,live,nan
03/22/2024-11:42:58.220519 -- 799940,0.02,0.0,0.0,1.0,0.0,0,11.464531752971821,7.763268554031599,559,6300.6393728223,0.019657271752286,0.035380343582231,-0.05045359017414,0.46376356750059,nan,False,live,nan
03/22/2024-11:42:58.253728 -- 799950,0.02,0.0,0.0,1.0,0.0,0,11.46952914565224,7.977759034516799,561,6403.2783101045,0.030840773064375,-0.014159788171028,0.056025573734572,0.38697602854697,nan,False,live,nan
03/22/2024-11:42:58.286926 -- 799965,0.02,0.0,0.0,1.0,0.0,0,11.48221757538171,8.1288390134148,563,6242.8671602787,0.0015005137414035,0.0010887262297175,0.024527361443276,0.27126988770197,nan,False,live,nan
03/22/2024-11:42:58.321719 -- 799948,0.02,0.0,0.0,1.0,0.0,0,11.60815110846039,8.0505113527104,565,6110.262745098,0.0042796514227132,0.024589637014199,-0.099274059353781,0.401029058902,nan,False,live,nan
03/22/2024-11:42:58.353773 -- 799914,0.02,0.0,0.0,1.0,0.0,0,11.927742341232571,7.922283390245999,567,6760.7037037037,0.019008609847423,0.035253107152651,-0.12076888537252,0.66959748818325,nan,False,live,nan
03/22/2024-11:42:58.388517 -- 799909,0.02,0.0,0.0,1.0,0.0,0,12.211291317904621,8.1478004238648,569,6705.0975609756,0.058165964615798,0.0040881802074695,0.020462488877063,0.70999854788786,nan,False,live,nan
03/22/2024-11:42:58.420604 -- 799931,0.02,0.0,0.0,1.0,0.0,0,12.340738723718552,8.284951595331599,571,5976.7530487805,0.024943420222272,-0.0087054137708911,0.10262870259062,0.53457775323697,nan,False,live,nan
03/22/2024-11:42:58.454573 -- 799950,0.02,0.0,0.0,1.0,0.0,0,12.36598639475301,8.308776425639701,573,5808.7552264808,-0.0023119816268065,0.01044541131153,0.050451059794595,0.38688069806645,nan,False,live,nan
03/22/2024-11:42:58.486771 -- 799950,0.02,0.0,0.0,1.0,0.0,0,12.52740119465988,8.3097829562094,575,5983.5071895425,0.0060235583837984,0.033494320218084,-0.031663268435375,0.39047166899327,nan,False,live,nan
03/22/2024-11:42:58.522583 -- 799941,0.02,0.0,0.0,1.0,0.0,0,12.637888252281002,8.3314307390184,577,5822.0487804878,0.019895083570023,0.019788780309759,-0.045787803215509,0.46044995740503,nan,False,live,nan
03/22/2024-11:42:58.553056 -- 799933,0.02,0.0,0.0,1.0,0.0,0,12.93104558135424,8.4438579518631,579,6254.4590592334,0.053239676978607,0.031949134677344,-0.026316647738299,0.52606315435182,nan,False,live,nan
03/22/2024-11:42:58.586764 -- 799928,0.02,0.0,0.0,1.0,0.0,0,13.2987395044062,8.587479982742101,581,7165.2900696864,0.020248426807607,0.024096621707897,0.0067451721695611,0.55965601501284,nan,False,live,nan
03/22/2024-11:42:58.620694 -- 799928,0.02,0.0,0.0,1.0,0.0,0,13.3191533692899,8.620098540958201,583,6823.0618736383,0.022468304100342,-0.00260838700931,0.018914825101333,0.55828530729921,nan,False,live,nan
03/22/2024-11:42:58.652982 -- 799936,0.02,0.0,0.0,1.0,0.0,0,13.277206810114171,8.6712859527432,585,7260.4479302832,0.020558736197062,-0.011572128485736,0.023196167914007,0.50228139525578,nan,False,live,nan
03/22/2024-11:42:58.671931 -- 799939,0.02,0.0,0.0,1.0,0.0,0,13.301778602018402,8.723909038234801,586,6813.5642701525,0.019334136402646,-0.00099393703665358,0.028134230166191,0.47414716508959,nan,False,live,nan
03/22/2024-11:42:58.703977 -- 799947,0.02,0.0,0.0,1.0,0.0,0,13.469561091717901,8.861227242251099,588,7323.1080139373,0.03691173482611,-0.00072219174943823,0.047995956313414,0.40903515999125,nan,False,live,nan
03/22/2024-11:42:58.737888 -- 799964,0.02,0.0,0.0,1.0,0.0,0,13.4277801393987,8.9835347399295,590,8032.8654181185,0.010093535708439,-0.020972658977583,0.078132921865729,0.28012376304223,nan,False,live,nan
03/22/2024-11:42:58.771011 -- 799977,0.02,0.0,0.0,1.0,0.0,0,13.310469326986201,8.9161246269249,592,7397.2408536585,-0.035433672547744,0.0093854017630591,0.045100896742061,0.17747870160122,nan,False,live,nan
03/22/2024-11:42:58.804366 -- 799988,0.02,0.0,0.0,1.0,0.0,0,13.2994038870129,9.0177836525823,594,7378.8301393728,0.033381501498342,0.00044826170255692,0.04462937407674,0.093916437749083,nan,False,live,nan
03/22/2024-11:42:58.838632 -- 800009,0.02,0.0,0.0,1.0,0.0,0,13.342792831381502,9.366484666333498,596,8570.5940766551,0.00076077056946538,0.0280914037314,0.076766785173114,6.2080251015016,nan,False,live,nan
03/22/2024-11:42:58.871143 -- 799986,0.02,0.0,0.0,1.0,0.0,0,13.566514171764002,9.358840116730798,598,8353.5694989107,0.052608782574489,0.052522153907079,-0.15655193928837,0.10645287794241,nan,False,live,nan
03/22/2024-11:42:58.902814 -- 799946,0.02,0.0,0.0,1.0,0.0,0,13.772817654205202,9.7537762575534,600,8824.0740418118,0.063828817802968,0.0037212514451369,-0.12165582464959,0.4204241547374,nan,False,live,nan
03/22/2024-11:42:58.937851 -- 799950,0.02,0.0,0.0,1.0,0.0,0,14.223895977519302,10.251109372644,602,9181.0762195122,0.11337615497056,0.04170248967653,0.071385850086918,0.38860568608206,nan,False,live,nan
03/22/2024-11:42:58.969999 -- 799978,0.02,0.0,0.0,1.0,0.0,0,14.072498812433402,10.6326426286281,604,10075.993466899,0.053328417442204,-0.042568176740682,0.11425664001038,0.17171803621508,nan,False,live,nan
03/22/2024-11:42:59.004009 -- 799994,0.02,0.0,0.0,1.0,0.0,0,14.015296548669902,10.9705301412294,606,10128.704882302,0.099562611618553,0.010554262805707,0.06093530206601,0.044093703764617,nan,False,live,nan
03/22/2024-11:42:59.038705 -- 800002,0.02,0.0,0.0,1.0,0.0,0,13.933999964457001,11.540643918852,608,10870.491289199,0.028495198296535,-0.00039638915841569,0.02816313241946,6.2641218290704,nan,False,live,nan
03/22/2024-11:42:59.069768 -- 800014,0.02,0.0,0.0,1.0,0.0,0,14.1680507999112,11.681880855040498,610,10965.676829268,0.03208937028613,0.030207650302702,0.042268052027284,6.1723554754761,nan,False,live,nan
03/22/2024-11:42:59.102981 -- 800020,0.02,0.0,0.0,1.0,0.0,0,14.1983787303789,11.726811233019601,612,10666.515243902,0.012699043375493,-0.017522435449157,0.021729983497852,6.1217996216204,nan,False,live,nan
03/22/2024-11:42:59.137290 -- 800017,0.02,0.0,0.0,1.0,0.0,0,14.392596372091202,11.829411709755599,614,10809.667682927,0.012973993637981,0.035411301813946,-0.018514721947781,6.1465459523649,nan,False,live,nan
03/22/2024-11:42:59.169659 -- 800005,0.02,0.0,0.0,1.0,0.0,0,14.398550719036201,11.968470509616,616,10795.474738676,0.022826452793757,-0.0069335450068744,-0.052606538121069,6.2426767059581,nan,False,live,nan
03/22/2024-11:42:59.205485 -- 800003,0.02,0.0,0.0,1.0,0.0,0,14.2299336313281,12.182244627901499,618,10769.817508711,0.042885404863393,-0.047828953602257,0.035673051179713,6.2587066240095,nan,False,live,nan
03/22/2024-11:42:59.237228 -- 800021,0.02,0.0,0.0,1.0,0.0,0,14.167806217800901,12.431942720635499,620,10544.073606272,0.047461963583337,-0.036778038247204,0.09153569135889,6.1121451978374,nan,False,live,nan
03/22/2024-11:42:59.271271 -- 800042,0.02,0.0,0.0,1.0,0.0,0,14.1437866172997,12.465308289864298,622,9695.7134146341,0.0023860829150924,0.0037692564595101,0.072470402760516,5.9456770831692,nan,False,live,nan
03/22/2024-11:42:59.302979 -- 800043,0.02,0.0,0.0,1.0,0.0,0,14.167278010015801,12.560266166139899,624,9945.5840592334,0.0053226570348468,0.0050976878823133,-0.0018950863114627,5.9429509535148,nan,False,live,nan
03/22/2024-11:42:59.337224 -- 800048,0.02,0.0,0.0,1.0,0.0,0,14.026603943532901,12.6185055927159,626,9945.5714285714,0.025844344574145,-0.023967197194683,0.03625359625588,5.9009333087062,nan,False,live,nan
03/22/2024-11:42:59.369742 -- 800070,0.02,0.0,0.0,1.0,0.0,0,13.882771122998701,12.676513837398899,628,9447.1546167247,0.016593301102018,-0.017605695953053,0.098417375571101,5.726832374875,nan,False,live,nan
03/22/2024-11:42:59.404099 -- 800089,0.02,0.0,0.0,1.0,0.0,0,13.672778970231,12.8810685619683,630,7856.137254902,0.057611976696786,-0.011329855898763,0.057065759937555,5.5798686020046,nan,False,live,nan
03/22/2024-11:42:59.437534 -- 800095,0.02,0.0,0.0,1.0,0.0,0,13.5435476940531,13.0289409059757,632,7270.0692508711,0.0011731535824574,0.024084415975632,0.012151006788818,5.5302527242539,nan,False,live,nan
03/22/2024-11:42:59.470002 -- 800095,0.02,0.0,0.0,1.0,0.0,0,13.7099434087251,13.0541375723904,634,7989.9033101045,-0.019923411668138,0.029801072243655,-0.021632959110571,5.5299117395214,nan,False,live,nan
03/22/2024-11:42:59.502256 -- 800061,0.02,0.0,0.0,1.0,0.0,0,14.230094943328501,13.2598251004833,636,8472.1398083624,0.0082300225789078,0.077755941417669,-0.18051040918958,5.8005909784862,nan,False,live,nan
03/22/2024-11:42:59.521488 -- 800044,0.02,0.0,0.0,1.0,0.0,0,14.1570147557943,13.278015410725201,637,9292.6306620209,0.015435769067975,-0.019817740607931,-0.12962451482174,5.930215493308,nan,False,live,nan
03/22/2024-11:42:59.553505 -- 800012,0.02,0.0,0.0,1.0,0.0,0,13.8685343693793,13.406204512215,639,10533.380392157,0.031472653508746,-0.039795748320961,-0.12680450868216,6.1838322622411,nan,False,live,nan
03/22/2024-11:42:59.587586 -- 800003,0.02,0.0,0.0,1.0,0.0,0,13.9515770769513,13.506187906844099,641,10063.428571429,0.010576566650728,0.01930960479621,-0.078741294188442,6.2595885719587,nan,False,live,nan
03/22/2024-11:42:59.622194 -- 799989,0.02,0.0,0.0,1.0,0.0,0,14.361523074415501,13.529676779649899,643,9677.9573170732,0.010460248431773,0.049696512408316,-0.088004419210272,0.079158765472438,nan,False,live,nan
03/22/2024-11:42:59.654921 -- 799982,0.02,0.0,0.0,1.0,0.0,0,14.5724129098881,13.906481260211999,645,9533.850174216,0.099465888727131,0.0097736881600004,-0.038665447854816,0.13886096570376,nan,False,live,nan
03/22/2024-11:42:59.687053 -- 799986,0.02,0.0,0.0,1.0,0.0,0,14.573310566162402,14.397370549723798,647,9592.118902439,0.072347786453673,-0.014011406125378,-0.00047149605999306,0.10601217402321,nan,False,live,nan
03/22/2024-11:42:59.719166 -- 799996,0.02,0.0,0.0,1.0,0.0,0,14.509441425009001,14.855464007499,649,9491.7347560976,0.07990757402784,-0.015850433832139,0.035353245139313,0.026494199239947,nan,False,live,nan
03/22/2024-11:42:59.737787 -- 800004,0.02,0.0,0.0,1.0,0.0,0,14.5345617365943,14.994277013039403,650,9007.5222125436,0.046246857349506,0.008542564060604,0.06024872002706,6.2494307863925,nan,False,live,nan
03/22/2024-11:42:59.769202 -- 800032,0.02,0.0,0.0,1.0,0.0,0,14.414219294125502,15.243825377197497,652,7488.8309368192,0.054199366647476,-0.02594842792981,0.10270075794756,6.0287431318039,nan,False,live,nan
03/22/2024-11:42:59.803767 -- 800059,0.02,0.0,0.0,1.0,0.0,0,14.001203781759301,15.490361573365798,654,6556.5538126362,0.070926121283444,-0.060806263242087,0.094171945039738,5.8163605695306,nan,False,live,nan
03/22/2024-11:42:59.836782 -- 800082,0.02,0.0,0.0,1.0,0.0,0,13.502087830255501,15.7097407723821,656,6028.7425958188,0.030309500601553,-0.057318089378825,0.080874827137809,5.6372343416717,nan,False,live,nan
03/22/2024-11:42:59.870741 -- 800099,0.02,0.0,0.0,1.0,0.0,0,13.22343020149356,15.959971146924298,658,5916.5718641115,0.076832436313146,0.017171906647247,0.051677048133044,5.5020966143313,nan,False,live,nan
03/22/2024-11:42:59.903620 -- 800117,0.02,0.0,0.0,1.0,0.0,0,12.860590478353082,16.140369625416298,660,5681.5294888598,0.059298298806568,-0.028232632261696,0.073894954353772,5.3605966411957,nan,False,live,nan
03/22/2024-11:42:59.937547 -- 800129,0.02,0.0,0.0,1.0,0.0,0,12.42939568179855,16.2508604806008,662,6419.3767421603,0.074847843690215,-0.0099429044190599,0.045466234648037,5.263778984869,nan,False,live,nan
03/22/2024-11:42:59.971554 -- 800138,0.02,0.0,0.0,1.0,0.0,0,12.077123060383201,16.566608450325297,664,6194.0466434176,0.065120443345598,0.037007666283465,0.029136645101631,5.1993320057694,nan,False,live,nan
03/22/2024-11:43:00.003982 -- 800145,0.02,0.0,0.0,1.0,0.0,0,11.726508468132572,16.789251960307496,666,6707.9353993889,0.099788369688024,0.0066358663546176,0.020181523472549,5.1380151971484,nan,False,live,nan
03/22/2024-11:43:00.037979 -- 800151,0.02,0.0,0.0,1.0,0.0,0,11.51574808292553,16.887598858824298,668,6848.8572675687,0.026678385143652,0.004707978221561,0.019133026602744,5.0926314820004,nan,False,live,nan
03/22/2024-11:43:00.070589 -- 800152,0.02,0.0,0.0,1.0,0.0,0,11.126791645298011,16.9089129692334,670,8567.8484320557,0.047145567925097,-0.01557408711843,-0.00031884423835523,5.0865112847811,nan,False,live,nan
03/22/2024-11:43:00.104804 -- 800159,0.02,0.0,0.0,1.0,0.0,0,10.664425405093771,17.3385357939675,672,8960.1082969432,0.10486237849976,0.052346821224834,0.03244518801733,5.0282107144152,nan,False,live,nan
03/22/2024-11:43:00.137765 -- 800167,0.02,0.0,0.0,1.0,0.0,0,10.104519795651457,17.461486534917,674,9948.1653577661,0.08941555535977,-0.013388820227194,0.043692450196181,4.9667518488497,nan,False,live,nan
