timestamp -- motor_step_command,mfc1_stpt,mfc2_stpt,mfc3_stpt,led1_stpt,led2_stpt,sig_status,ft_posx,ft_posy,ft_frame,ft_error,ft_roll,ft_pitch,ft_yaw,ft_heading,adapted_center,instrip,mode,strip_thresh
03/20/2024-17:39:11.080699 -- 799700,0.3,0.0,0.0,1.0,0.0,0,11.751563041309499,-30.487108354704002,118,15346.119879258,0.16624240116935,-1.5766757889764,0.22813059312426,2.9747910603694,nan,False,live,nan
03/20/2024-17:39:11.114339 -- 799700,0.3,0.0,0.0,1.0,0.0,0,20.2449821928735,-27.641796218052896,120,15702.008598452,0.091533599195868,-1.399585696509,0.23241608082829,2.5328396240712,nan,False,live,nan
03/20/2024-17:39:11.147462 -- 799732,0.3,0.0,0.0,1.0,0.0,0,27.202617449815502,-21.094598387718,122,14947.487521515,0.13074015249213,-1.5803456498277,0.23208216717904,2.0992812921955,nan,False,live,nan
03/20/2024-17:39:11.180497 -- 799775,0.3,0.0,0.0,1.0,0.0,0,31.434963010547996,-11.1188918745924,124,15535.655913978,0.068374522854471,-1.9761211518595,0.19707069092011,1.7671108623723,nan,False,live,nan
03/20/2024-17:39:11.214348 -- 799840,0.3,0.0,0.0,1.0,0.0,0,31.419017624679,-0.57572224263423,126,16646.77300086,0.20552416040699,-1.6778412066937,0.24657763780304,1.2511788032962,nan,False,live,nan
03/20/2024-17:39:11.245690 -- 799886,0.3,0.0,0.0,1.0,0.0,0,27.0971357342577,9.704640406839601,128,15745.349740933,0.19051753064992,-1.6732190744646,0.15914205437049,0.89282152296532,nan,False,live,nan
03/20/2024-17:39:11.264586 -- 799907,0.3,0.0,0.0,1.0,0.0,0,24.3207208702635,13.411224282453599,129,14046.64693172,0.18314802765133,-1.5345061378349,0.16741771076745,0.72540381219788,nan,False,live,nan
03/20/2024-17:39:11.297417 -- 799969,0.3,0.0,0.0,1.0,0.0,0,16.6914664294008,18.920655677124902,131,15091.928172043,0.1030205295662,-1.6006275702382,0.38025248473145,0.23926775338995,nan,False,live,nan
03/20/2024-17:39:11.331391 -- 800034,0.3,0.0,0.0,1.0,0.0,0,7.843618194151199,20.509500278145,133,14377.105058366,0.2370164147617,-1.4533221499402,0.27923150480384,6.0135705916565,nan,False,live,nan
03/20/2024-17:39:11.365169 -- 800075,0.3,0.0,0.0,1.0,0.0,0,-2.82197895029298,17.6561352328521,135,14414.853055917,0.29006272565741,-1.8986421552634,0.21105906341007,5.6919591056467,nan,False,live,nan
03/20/2024-17:39:11.397104 -- 800146,0.3,0.0,0.0,1.0,0.0,0,-11.1716924326821,11.3159617235388,137,16666.561478934,0.48230417222621,-1.6273052673747,0.28984107726111,5.1289639589692,nan,False,live,nan
03/20/2024-17:39:11.429465 -- 800193,0.3,0.0,0.0,1.0,0.0,0,-15.570246852186301,1.35860759317881,139,15833.288245462,0.16891699227207,-1.6519867763786,0.1922607378727,4.7671362801767,nan,False,live,nan
03/20/2024-17:39:11.462808 -- 800254,0.3,0.0,0.0,1.0,0.0,0,-14.887963126109998,-8.4919281769431,141,15862.241616509,0.29981031449113,-1.6764325089744,0.12412939963289,4.286956983831,nan,False,live,nan
03/20/2024-17:39:11.481151 -- 800275,0.3,0.0,0.0,1.0,0.0,0,-12.748639117983299,-14.124046362645899,142,14013.601819757,0.2949287993034,-1.9887545673224,0.16960710784827,4.1173498759828,nan,False,live,nan
03/20/2024-17:39:11.514063 -- 800300,0.3,0.0,0.0,1.0,0.0,0,-6.7371512077446,-22.798357187679,144,16522.966466036,0.54837156393414,-1.8070413984075,0.19577457636707,3.684628530616,nan,False,live,nan
03/20/2024-17:39:11.547599 -- 800300,0.3,0.0,0.0,1.0,0.0,0,4.2459874862679,-29.823581004798896,146,15215.624407072,0.50222815891704,-2.2974615397199,0.20488728060379,3.2796067424819,nan,False,live,nan
03/20/2024-17:39:11.580321 -- 800500,0.3,0.0,0.0,1.0,0.0,0,17.9437126532871,-30.646134982058996,148,13911.758456201,0.34772970835315,-2.2743409380909,0.2216909400594,2.833640094727,nan,False,live,nan
03/20/2024-17:39:11.613461 -- 800511,0.3,0.0,0.0,1.0,0.0,0,31.209870260013,-25.2089373038517,150,15295.542132416,0.5019107277001,-2.2548911537444,0.2630570032024,2.2664900137177,nan,False,live,nan
03/20/2024-17:39:11.646978 -- 800570,0.3,0.0,0.0,1.0,0.0,0,38.737436417748,-15.734175350515201,152,14925.771182796,0.35285348490414,-1.8916594287589,0.20644319023249,1.8061848352838,nan,False,live,nan
03/20/2024-17:39:11.680099 -- 800637,0.3,0.0,0.0,1.0,0.0,0,40.431304909488,-5.1126436043499,154,14148.618016457,0.30377150808733,-1.7113537703652,0.26008731758933,1.2737922516799,nan,False,live,nan
03/20/2024-17:39:11.713282 -- 800703,0.3,0.0,0.0,1.0,0.0,0,37.468541527332,3.6089927883273,156,16331.257093723,0.33012273442705,-1.4170272052165,0.25535088954177,0.76090803437209,nan,False,live,nan
03/20/2024-17:39:11.746904 -- 800750,0.3,0.0,0.0,1.0,0.0,0,30.905832087879002,9.969518229489001,158,16059.278639104,0.30966454157199,-1.5162585489162,0.17137414868786,0.38908663242455,nan,False,live,nan
03/20/2024-17:39:11.779721 -- 800813,0.3,0.0,0.0,1.0,0.0,0,21.1129032683925,13.2303379156686,160,15637.993981083,0.3791718670861,-1.7062207380752,0.22203357612577,6.1802684801734,nan,False,live,nan
03/20/2024-17:39:11.813313 -- 800856,0.3,0.0,0.0,1.0,0.0,0,9.8765747400441,11.9684236981848,162,15425.018119068,0.21578431923708,-1.8675268956699,0.17334255892411,5.8369507838783,nan,False,live,nan
03/20/2024-17:39:11.832179 -- 800889,0.3,0.0,0.0,1.0,0.0,0,5.4285905724138,9.943071158421601,163,14741.928602151,0.24107221229001,-1.6154994416587,0.25836829120172,5.5785824926766,nan,False,live,nan
03/20/2024-17:39:11.863536 -- 800955,0.3,0.0,0.0,1.0,0.0,0,-0.78491112381972,3.9099544026318,165,14272.255803955,0.29561999678496,-1.4339932181751,0.2552994235039,5.0613873437931,nan,False,live,nan
03/20/2024-17:39:11.896002 -- 801010,0.3,0.0,0.0,1.0,0.0,0,-4.2070684471236,-4.8540868430577,167,13863.557377049,0.35508411371634,-1.5221127904209,0.21357691531882,4.6303076371205,nan,False,live,nan
03/20/2024-17:39:11.914883 -- 801023,0.3,0.0,0.0,1.0,0.0,0,-4.3783399148079,-10.3702093677123,168,15413.165950129,0.30112643188209,-1.8155455994765,0.10248621887718,4.5278214182433,nan,False,live,nan
03/20/2024-17:39:11.947361 -- 801091,0.3,0.0,0.0,1.0,0.0,0,-1.3903669904976,-20.5459336126758,170,13415.00862069,0.30980299239174,-1.7271938929402,0.25885762769323,3.9923184146589,nan,False,live,nan
03/20/2024-17:39:11.979876 -- 801100,0.3,0.0,0.0,1.0,0.0,0,6.5395130839026,-28.315946739489604,172,14357.888172043,0.37358448826404,-1.9273254258382,0.28315111226422,3.4352512524803,nan,False,live,nan
03/20/2024-17:39:12.013282 -- 801300,0.3,0.0,0.0,1.0,0.0,0,15.624255697332899,-31.125477779079,174,14063.275161987,0.34780228388024,-1.4889281735363,0.21893317140649,3.0034426630351,nan,False,live,nan
03/20/2024-17:39:12.047004 -- 801300,0.3,0.0,0.0,1.0,0.0,0,24.7286332262733,-30.496040217626998,176,14308.026225279,0.31127282340118,-1.3219083095374,0.16791892859171,2.6886856738907,nan,False,live,nan
03/20/2024-17:39:12.080890 -- 801303,0.3,0.0,0.0,1.0,0.0,0,33.695534056647,-26.620010231380796,178,13559.992681877,0.40885001421488,-1.6571345309958,0.1887730243148,2.3304849799007,nan,False,live,nan
03/20/2024-17:39:12.113502 -- 801343,0.3,0.0,0.0,1.0,0.0,0,41.512430385363004,-18.810725438286298,180,13780.731812312,0.34593074162731,-1.9010133008043,0.159096878951,2.0155559670002,nan,False,live,nan
03/20/2024-17:39:12.146785 -- 801398,0.3,0.0,0.0,1.0,0.0,0,45.555179475351,-9.5466396512556,182,15802.696344086,0.35360682456254,-1.4920948148964,0.20494060560595,1.5827427025672,nan,False,live,nan
03/20/2024-17:39:12.180319 -- 801450,0.3,0.0,0.0,1.0,0.0,0,45.767428512549,-0.68973223952289,184,13456.217278618,0.33177390123791,-1.4227132245834,0.20662949816941,1.1702671946387,nan,False,live,nan
03/20/2024-17:39:12.213429 -- 801512,0.3,0.0,0.0,1.0,0.0,0,41.588685045063,8.3990825657781,186,15003.620215054,0.37364739371,-1.6868862828813,0.23358114045573,0.69034081145661,nan,False,live,nan
03/20/2024-17:39:12.247049 -- 801575,0.3,0.0,0.0,1.0,0.0,0,33.021070808261996,15.0364521155664,188,15075.746411483,0.33978988530584,-1.5963954095861,0.25759746855155,0.19621591213164,nan,False,live,nan
03/20/2024-17:39:12.280293 -- 801615,0.3,0.0,0.0,1.0,0.0,0,22.7714371992846,17.4287665747773,190,15663.302235598,0.34406605493615,-1.8239399711954,0.13054169328307,6.1617651263619,nan,False,live,nan
03/20/2024-17:39:12.314571 -- 801667,0.3,0.0,0.0,1.0,0.0,0,12.202636510792498,15.8402258127648,192,12351.144578313,0.26645231941437,-1.691537546197,0.24345463282324,5.7520831121951,nan,False,live,nan
03/20/2024-17:39:12.346481 -- 801720,0.3,0.0,0.0,1.0,0.0,0,3.1148834056953003,10.3741132922895,194,18557.342672414,0.3442929085939,-1.7794880430131,0.19704332291637,5.3350081690084,nan,False,live,nan
03/20/2024-17:39:12.382324 -- 801827,0.3,0.0,0.0,1.0,0.0,0,-1.37775945219963,0.6425394544366501,196,18844.089732528,0.43249346354138,-1.5945327740517,0.48926792765026,4.498493731366,nan,False,live,nan
03/20/2024-17:39:12.414226 -- 801867,0.3,0.0,0.0,1.0,0.0,0,0.34114674977394,-9.578240432268899,198,13174.071059432,0.27568201370343,-1.7775308053168,0.195504858605,4.1796907185376,nan,False,live,nan
03/20/2024-17:39:12.451931 -- 801900,0.3,0.0,0.0,1.0,0.0,0,6.235972792907099,-18.216568764215097,200,14663.148945329,0.37802164509039,-1.7120443737869,0.2170030813805,3.7056273035549,nan,False,live,nan
03/20/2024-17:39:12.480126 -- 801900,0.3,0.0,0.0,1.0,0.0,0,15.410943092250601,-23.8605530529348,202,14151.559878945,0.33465765673172,-1.6084817311934,0.22146912025734,3.271913482227,nan,False,live,nan
03/20/2024-17:39:12.515631 -- 802100,0.3,0.0,0.0,1.0,0.0,0,25.5296450010348,-25.315657235422798,204,14832.287931034,0.29639330738526,-1.7089624887529,0.14268449152745,2.9362409659788,nan,False,live,nan
03/20/2024-17:39:12.550901 -- 802100,0.3,0.0,0.0,1.0,0.0,0,36.487703791230004,-22.6216851685749,206,14476.798620095,0.12945301531914,-1.8340270901415,0.13225104156923,2.6438665233349,nan,False,live,nan
03/20/2024-17:39:12.582186 -- 802133,0.3,0.0,0.0,1.0,0.0,0,45.424420784019,-16.2230356852851,208,13671.782327586,0.33312937527652,-1.6985145621748,0.22585786684292,2.0915096280272,nan,False,live,nan
03/20/2024-17:39:12.615738 -- 802195,0.3,0.0,0.0,1.0,0.0,0,49.953012008001004,-7.640676968669999,210,13402.059559776,0.36149973378273,-1.6055779681951,0.25591772945713,1.6078540785092,nan,False,live,nan
03/20/2024-17:39:12.651564 -- 802251,0.3,0.0,0.0,1.0,0.0,0,49.943536716816,3.3540130157418,212,13155.079242033,0.37934163421957,-1.9841939381908,0.24049352682128,1.1645177765638,nan,False,live,nan
03/20/2024-17:39:12.685226 -- 802312,0.3,0.0,0.0,1.0,0.0,0,45.37911448611,12.630905076157802,214,14259.636637931,0.40758225958282,-1.7420848407918,0.21190104223463,0.69099397464629,nan,False,live,nan
03/20/2024-17:39:12.717531 -- 802363,0.3,0.0,0.0,1.0,0.0,0,37.079954553639,19.4902416381495,216,14004.302415876,0.35498014141414,-1.6034703758881,0.17289705340703,0.28401714280597,nan,False,live,nan
03/20/2024-17:39:12.750474 -- 802405,0.3,0.0,0.0,1.0,0.0,0,27.346287046921198,22.6332421663524,218,14503.609220164,0.31652498321753,-1.7269781023591,0.15105807742552,6.2383109873774,nan,False,live,nan
03/20/2024-17:39:12.782440 -- 802466,0.3,0.0,0.0,1.0,0.0,0,16.4539064969736,21.6540791436546,220,12641.476849849,0.30300359625736,-1.7319565179059,0.26311384005879,5.7579770515618,nan,False,live,nan
03/20/2024-17:39:12.820700 -- 802519,0.3,0.0,0.0,1.0,0.0,0,6.876662720366101,16.1384734025955,222,13440.139284174,0.37109507354414,-1.9052814871684,0.20271868721647,5.3481960871947,nan,False,live,nan
03/20/2024-17:39:12.851236 -- 802572,0.3,0.0,0.0,1.0,0.0,0,0.98231929563549,8.147945558369699,224,12338.344234079,0.4159677791415,-1.7009081735723,0.21146159534188,4.9261252425469,nan,False,live,nan
03/20/2024-17:39:12.882079 -- 802613,0.3,0.0,0.0,1.0,0.0,0,-1.6117213890616802,-2.6200801255278297,226,12955.808703145,0.33317585923061,-1.8914865778221,0.16810036628351,4.6031066607461,nan,False,live,nan
03/20/2024-17:39:12.915466 -- 802673,0.3,0.0,0.0,1.0,0.0,0,0.251314053253875,-13.386133308211502,228,14758.660775862,0.42330591078542,-1.9566598207998,0.23060738099806,4.1313354033386,nan,False,live,nan
03/20/2024-17:39:12.949092 -- 802700,0.3,0.0,0.0,1.0,0.0,0,6.6272402400486,-22.1576911876605,230,14076.322274882,0.26419317456877,-1.7953554387414,0.24913962821481,3.6419003890849,nan,False,live,nan
03/20/2024-17:39:12.981504 -- 802900,0.3,0.0,0.0,1.0,0.0,0,15.295345487601601,-24.9409653798633,232,14453.167814114,0.36135731828434,-1.5098767918758,0.26810704431333,2.9282072924837,nan,False,live,nan
03/20/2024-17:39:13.017002 -- 802900,0.3,0.0,0.0,1.0,0.0,0,23.678006342599197,-23.0618920954344,234,14448.673697805,0.32740784381334,-1.5770068683828,0.080511599409859,2.6094950936274,nan,False,live,nan
03/20/2024-17:39:13.050352 -- 802909,0.3,0.0,0.0,1.0,0.0,0,32.324703855678,-17.7852000285387,236,14084.464055101,0.2772637575321,-1.7639727682608,0.15226912093482,2.2813933927399,nan,False,live,nan
03/20/2024-17:39:13.083629 -- 802966,0.3,0.0,0.0,1.0,0.0,0,39.178492813485,-9.2302716941565,238,12003.152389152,0.29413054062739,-1.7263688239687,0.23767903101918,1.8334470827587,nan,False,live,nan
03/20/2024-17:39:13.117469 -- 803022,0.3,0.0,0.0,1.0,0.0,0,41.787271595391,1.2678164092893,240,13941.766451613,0.38810245089562,-1.8482413213601,0.21246284789227,1.3905683830344,nan,False,live,nan
03/20/2024-17:39:13.152057 -- 803080,0.3,0.0,0.0,1.0,0.0,0,39.666009699228,11.3281460782371,242,12319.465576592,0.36916910318584,-1.6396294129688,0.22625789257327,0.93748218142084,nan,False,live,nan
03/20/2024-17:39:13.180594 -- 803131,0.3,0.0,0.0,1.0,0.0,0,33.141706011536996,20.0386585688325,244,12341.51977644,0.34410191701123,-1.8102091740402,0.20230181177445,0.54151789835548,nan,False,live,nan
03/20/2024-17:39:13.215135 -- 803198,0.3,0.0,0.0,1.0,0.0,0,23.9247583484469,24.892971478087198,246,14665.956110155,0.4567444485048,-1.7144958239926,0.25620516150106,0.013493614568459,nan,False,live,nan
03/20/2024-17:39:13.252132 -- 803284,0.3,0.0,0.0,1.0,0.0,0,10.8832665395178,23.5642242974265,248,12079.337931034,0.50721689301499,-2.284956566594,0.37841492007508,5.6191589643031,nan,False,live,nan
03/20/2024-17:39:13.282569 -- 803360,0.3,0.0,0.0,1.0,0.0,0,-0.3724814730735,12.259842725353801,250,13837.833046472,0.52293775240654,-2.814285394185,0.29349478184563,5.0207459387607,nan,False,live,nan
03/20/2024-17:39:13.317837 -- 803435,0.3,0.0,0.0,1.0,0.0,0,-3.6193070632685997,-3.2614423563357002,252,11999.619621343,0.51532904640639,-2.6588615893965,0.29584771325379,4.4305496874644,nan,False,live,nan
03/20/2024-17:39:13.349646 -- 803500,0.3,0.0,0.0,1.0,0.0,0,1.4760520393444199,-16.7517773146854,254,15036.17211704,0.49730333984218,-2.2832553431623,0.29423420298713,3.8426675176694,nan,False,live,nan
03/20/2024-17:39:13.384194 -- 803500,0.3,0.0,0.0,1.0,0.0,0,13.553881891779,-24.318324151082997,256,13629.540215054,0.45552677433811,-2.5391354541382,0.32263549972005,3.2120239790897,nan,False,live,nan
03/20/2024-17:39:13.415716 -- 803700,0.3,0.0,0.0,1.0,0.0,0,29.279957193707098,-23.9723238591489,258,12063.563925958,0.38212864739839,-2.5159674569009,0.27711014244719,2.6933971423852,nan,False,live,nan
03/20/2024-17:39:13.450020 -- 803721,0.3,0.0,0.0,1.0,0.0,0,44.464715417381996,-14.042424744554399,260,13121.024086022,0.39612054298845,-3.1904926818008,0.24044407481084,2.1893165259484,nan,False,live,nan
03/20/2024-17:39:13.482169 -- 803794,0.3,0.0,0.0,1.0,0.0,0,53.196107535786,2.84228056910595,262,12542.916989247,0.40742358781595,-3.3529707227674,0.34494959047014,1.6135597271857,nan,False,live,nan
03/20/2024-17:39:13.516447 -- 803882,0.3,0.0,0.0,1.0,0.0,0,48.474429714603,12.132799174990652,264,19204.339931153,0.069121235702663,-3.4864805523875,0.31295490242432,0.9242896878383,nan,False,live,nan
03/20/2024-17:39:13.549120 -- 803993,0.3,0.0,0.0,1.0,0.0,0,40.781119625697,20.439951431065353,266,19141.206540448,0.26344595090008,-3.8589054313877,0.54710483185965,0.049702562587384,nan,False,live,nan
03/20/2024-17:39:13.582456 -- 804040,0.3,0.0,0.0,1.0,0.0,0,40.781119625697,20.439951431065353,268,12553.850688468,0.42272571589165,-3.6097585199213,0.18973398437323,5.9660641884041,nan,False,live,nan
03/20/2024-17:39:13.617237 -- 803997,0.3,0.0,0.0,1.0,0.0,0,40.78111962569701,20.439951431065353,270,14377.082651743,0.46242781368325,-3.5386695245934,-0.24470307735888,0.016892950609866,nan,False,live,nan
03/20/2024-17:39:13.636777 -- 803929,0.3,0.0,0.0,1.0,0.0,0,40.781119625697,20.439951431065353,271,15793.922184007,0.39975696542688,-3.6874336566227,-0.53432468925777,0.55121763986764,nan,False,live,nan
03/20/2024-17:39:13.667609 -- 803765,0.3,0.0,0.0,1.0,0.0,0,35.2271844237321,28.939365188161354,273,15118.170562771,0.4221299221969,-3.6049299921551,-0.73131096017228,1.8433349846907,nan,False,live,nan
03/20/2024-17:39:13.699369 -- 803494,0.3,0.0,0.0,1.0,0.0,0,51.7994057950599,31.451329483750357,275,14947.939013841,0.29575079997103,-3.5055447191738,-1.1142099306812,3.9726095913992,nan,False,live,nan
03/20/2024-17:39:13.733594 -- 803102,0.3,0.0,0.0,1.0,0.0,0,41.858716659431096,32.40866926996935,277,14841.221837088,0.55126165961936,-3.6683800052478,-1.644436322995,0.76906946667682,nan,False,live,nan
03/20/2024-17:39:13.765082 -- 803483,0.3,0.0,0.0,1.0,0.0,0,42.928702793472894,41.95845227051835,279,17239.836347976,0.14855625726837,-3.8584994978659,-1.7432006969679,4.0580438506071,nan,False,live,nan
03/20/2024-17:39:13.800531 -- 803847,0.3,0.0,0.0,1.0,0.0,0,32.3413325878122,36.564958356931356,281,18069.9860323,0.22367157613028,-3.3454356910477,-1.7128070717886,1.200973143757,nan,False,live,nan
03/20/2024-17:39:13.833145 -- 804114,0.3,0.0,0.0,1.0,0.0,0,40.736557352820896,36.220498205359355,283,16302.251911831,-0.052895007092328,-3.0367991047171,-2.1190161854822,5.3839810264962,nan,False,live,nan
03/20/2024-17:39:13.867843 -- 804300,0.3,0.0,0.0,1.0,0.0,0,39.054767206281596,41.11882138573035,285,17809.323715059,0.13498450541547,-2.745511416188,-2.4508988992691,3.6557314996493,nan,False,live,nan
03/20/2024-17:39:13.900644 -- 804529,0.3,0.0,0.0,1.0,0.0,0,34.78735378287119,40.63965086441835,287,17715.048586572,0.52253070986621,-2.6179685071405,-2.337571413203,2.1222800848022,nan,False,live,nan
03/20/2024-17:39:13.933024 -- 804684,0.3,0.0,0.0,1.0,0.0,0,35.0538147927567,37.32753582726435,289,18699.778159931,0.53012251219787,-2.3019075591007,-2.5462257015327,0.90487193144862,nan,False,live,nan
03/20/2024-17:39:13.967961 -- 804760,0.3,0.0,0.0,1.0,0.0,0,36.78086236581059,36.76494100760835,291,19014.88308887,0.29634497337727,-2.0096178619056,-2.853584149136,0.31342660370397,nan,False,live,nan
03/20/2024-17:39:14.000051 -- 804808,0.3,0.0,0.0,1.0,0.0,0,37.537562902312494,36.264910778452354,293,19123.81454872,0.29622171588963,-2.2867865434597,-2.9516703260252,6.2152554093489,nan,False,live,nan
03/20/2024-17:39:14.031557 -- 804865,0.3,0.0,0.0,1.0,0.0,0,37.737569449555494,36.918004868116356,295,18879.705091258,0.47966643212166,-1.8619503940144,-2.9800766188409,5.7649946294271,nan,False,live,nan
03/20/2024-17:39:14.064717 -- 804869,0.3,0.0,0.0,1.0,0.0,0,36.5554409993715,43.750358382970354,297,19688.209894332,0.68512383709671,-1.5938174022595,-3.208143991248,5.7407166307291,nan,False,live,nan
03/20/2024-17:39:14.100191 -- 804834,0.3,0.0,0.0,1.0,0.0,0,37.027501104054295,43.810825627129354,299,19047.731853907,0.51264745463945,-1.1754089852308,-3.377138130786,6.0084529941525,nan,False,live,nan
03/20/2024-17:39:14.150924 -- 804500,0.3,0.0,0.0,1.0,0.0,0,37.3446346909077,47.16402300565036,302,18536.755536257,-0.26140977705782,-0.098047021282877,-0.17263507969252,2.9599649937885,nan,False,live,nan
03/20/2024-17:39:14.180581 -- 804300,0.3,0.0,0.0,1.0,0.0,0,38.177517490350894,50.543561150962354,304,19157.580895009,-0.63132610344448,-0.067898358032043,-0.40263777792366,3.6224608124108,nan,False,live,nan
03/20/2024-17:39:14.200135 -- 804286,0.3,0.0,0.0,1.0,0.0,0,39.3040322281056,52.15102010396236,305,17678.737091222,-0.65676734715158,0.050545074471511,-0.41441327352768,4.0368740859385,nan,False,live,nan
03/20/2024-17:39:14.233645 -- 804156,0.3,0.0,0.0,1.0,0.0,0,41.736334796327995,52.768776090322355,307,16077.395525727,-0.32124485944063,-0.048831349622112,-0.4789628639086,5.054096489028,nan,False,live,nan
03/20/2024-17:39:14.267702 -- 804039,0.3,0.0,0.0,1.0,0.0,0,43.138431736974596,51.755127286561354,309,19940.129411765,-0.12531486238871,0.0045066728489593,-0.45102500867943,5.9744739088241,nan,False,live,nan
03/20/2024-17:39:14.301151 -- 803924,0.3,0.0,0.0,1.0,0.0,0,42.85729687445429,53.458709375389354,311,18205.521290323,0.43742419583694,-0.13039015058663,-0.45581972544826,0.59603592614485,nan,False,live,nan
03/20/2024-17:39:14.350632 -- 803927,0.3,0.0,0.0,1.0,0.0,0,42.8967104527086,53.50322370208335,314,19616.578064516,0.019619722868701,0.0028037390340662,0.026563080680781,0.56947284546407,nan,False,live,nan
03/20/2024-17:39:14.399168 -- 803925,0.3,0.0,0.0,1.0,0.0,0,42.8509870045152,53.72548757361435,317,19694.901547721,0.05374896956856,-0.053221083451321,-0.016207832175062,0.58568067763913,nan,False,live,nan
03/20/2024-17:39:14.430975 -- 803920,0.3,0.0,0.0,1.0,0.0,0,43.202215393847695,53.91186566662636,319,19345.674408602,0.063328188420008,0.031085508608353,-0.020596820928191,0.6276203787376,nan,False,live,nan
03/20/2024-17:39:14.465168 -- 803917,0.3,0.0,0.0,1.0,0.0,0,43.528459764312,54.00412575042434,321,19347.875322442,0.045669230810393,0.034388722410524,-0.012673457077547,0.65026465317116,nan,False,live,nan
03/20/2024-17:39:14.498792 -- 803918,0.3,0.0,0.0,1.0,0.0,0,43.9873765802055,53.834165049895354,323,19472.135425623,0.0090747965838768,0.14120610718745,0.0099297541049981,0.64193134338453,nan,False,live,nan
03/20/2024-17:39:14.532114 -- 803886,0.3,0.0,0.0,1.0,0.0,0,44.2408149780852,53.925386533624355,325,19647.713671539,-0.032851196571219,0.022043150394544,-0.12560447244196,0.89316491835295,nan,False,live,nan
03/20/2024-17:39:14.568062 -- 803866,0.3,0.0,0.0,1.0,0.0,0,44.4845248639797,53.60370565920136,327,19776.78116939,-0.0066572376902665,0.1346671715337,-0.074521609869049,1.0520899200766,nan,False,live,nan
03/20/2024-17:39:14.600936 -- 803839,0.3,0.0,0.0,1.0,0.0,0,44.586617955893395,53.51169605361135,329,19051.39311828,0.0188074622432,0.041858061924728,-0.20737988468645,1.259469804763,nan,False,live,nan
03/20/2024-17:39:14.632972 -- 803818,0.3,0.0,0.0,1.0,0.0,0,45.443758526355296,53.638142955505366,331,17818.392165303,0.13520222515657,-0.086989783739698,-0.0076761798053164,1.4250117447856,nan,False,live,nan
03/20/2024-17:39:14.666930 -- 803811,0.3,0.0,0.0,1.0,0.0,0,45.45082984932719,53.47171466868435,333,17704.249461439,0.037273973790329,0.12370027859797,-0.0097051073496058,1.4804998849665,nan,False,live,nan
03/20/2024-17:39:14.700637 -- 803807,0.3,0.0,0.0,1.0,0.0,0,45.5727041076459,53.33309605080736,335,17832.661923243,0.016933681490244,0.12556876157317,-0.022139406107099,1.5095542984063,nan,False,live,nan
03/20/2024-17:39:14.733013 -- 803817,0.3,0.0,0.0,1.0,0.0,0,46.035426211907094,53.48184493335736,337,17363.870090634,0.079500802174269,-0.0235197026309,0.037548726978917,1.4372216593035,nan,False,live,nan
03/20/2024-17:39:14.767325 -- 803826,0.3,0.0,0.0,1.0,0.0,0,46.506663432026095,53.713306121596354,339,16834.182879377,0.099918455827435,-0.018666877760828,0.052951420889608,1.3652586215056,nan,False,live,nan
03/20/2024-17:39:14.801245 -- 803830,0.3,0.0,0.0,1.0,0.0,0,46.49079722593079,54.01614894976935,341,16518.725507121,0.10096475181158,-0.045269406672484,-0.0028811792155413,1.3286267331834,nan,False,live,nan
03/20/2024-17:39:14.835351 -- 803832,0.3,0.0,0.0,1.0,0.0,0,46.8247102585446,54.368562611707354,343,16411.137678032,0.082899608384159,-0.05022654494746,0.012588901467504,1.3172867907512,nan,False,live,nan
03/20/2024-17:39:14.867267 -- 803840,0.3,0.0,0.0,1.0,0.0,0,47.00053084118699,54.59832215141535,345,16699.372464394,0.082693303219719,-0.063229445291928,0.028952129347764,1.2507524793165,nan,False,live,nan
03/20/2024-17:39:14.898250 -- 803845,0.3,0.0,0.0,1.0,0.0,0,47.296336488622195,54.72873745858336,347,15871.737115634,0.045264836253419,-0.0020317237894416,0.0061511906642531,1.2142458905623,nan,False,live,nan
03/20/2024-17:39:14.932540 -- 803838,0.3,0.0,0.0,1.0,0.0,0,47.399078178333895,54.83818624407136,349,15334.400516796,0.012441485675146,-0.0073294151188915,-0.042168679903637,1.2721632289344,nan,False,live,nan
03/20/2024-17:39:14.964966 -- 803830,0.3,0.0,0.0,1.0,0.0,0,47.443908209202895,55.44015579427636,351,15990.987510767,0.031623974417178,-0.18226179554676,-0.030423562357764,1.3341640537111,nan,False,live,nan
03/20/2024-17:39:14.998324 -- 803826,0.3,0.0,0.0,1.0,0.0,0,47.510791519908,55.80707086100235,353,16305.290697674,0.01733824068491,-0.090248907258076,0.0058714625156026,1.3630534734011,nan,False,live,nan
03/20/2024-17:39:15.019024 -- 803830,0.3,0.0,0.0,1.0,0.0,0,47.6628025756977,55.52622339173535,354,16374.383951682,0.028797150740785,0.10248350537949,0.028869802934261,1.3341836704668,nan,False,live,nan
03/20/2024-17:39:15.051950 -- 803833,0.3,0.0,0.0,1.0,0.0,0,47.8609755113907,55.78672190371335,356,17184.065829363,0.078098428621365,0.0090094893161545,-0.00030837661451116,1.3082654305879,nan,False,live,nan
03/20/2024-17:39:15.084332 -- 803834,0.3,0.0,0.0,1.0,0.0,0,48.438731868887395,55.53102026379435,358,15930.259991217,0.089498988066163,0.039983527223287,0.048975025516673,1.2971803029154,nan,False,live,nan
03/20/2024-17:39:15.118174 -- 803835,0.3,0.0,0.0,1.0,0.0,0,48.980085917009696,55.59393282282735,360,15868.61045235,0.068096230462509,0.0087711657969709,-0.0037494645635695,1.294172950316,nan,False,live,nan
03/20/2024-17:39:15.148752 -- 803826,0.3,0.0,0.0,1.0,0.0,0,49.289267424714296,55.700333291944354,362,16397.073911131,0.082052162889459,-0.025438402450537,-0.059922719418022,1.3635269997331,nan,False,live,nan
03/20/2024-17:39:15.179846 -- 803814,0.3,0.0,0.0,1.0,0.0,0,49.6350635647338,55.86016164898036,364,16858.412795793,0.041554052124526,-0.015041778649846,-0.027233009491708,1.4589569241994,nan,False,live,nan
03/20/2024-17:39:15.205430 -- 803803,0.3,0.0,0.0,1.0,0.0,0,49.589453398015195,55.820236924795346,365,16965.912760417,-0.016077928920119,0.012247336979396,-0.087581363875969,1.5465382880753,nan,False,live,nan
03/20/2024-17:39:15.234654 -- 803782,0.3,0.0,0.0,1.0,0.0,0,50.295174538713,55.70232240694936,367,17095.362953139,0.10858876157012,0.013669888254125,-0.082116426970579,1.7082404371948,nan,False,live,nan
03/20/2024-17:39:15.268035 -- 803784,0.3,0.0,0.0,1.0,0.0,0,50.3538063651216,55.43883575187436,369,16487.355217391,0.020275839378476,0.046513190647061,0.0096629004526141,1.6954713197686,nan,False,live,nan
03/20/2024-17:39:15.299160 -- 803781,0.3,0.0,0.0,1.0,0.0,0,50.7410224762035,55.65439890203536,371,15790.257588899,-0.024426220600513,-0.065706986367276,0.026996693123309,1.7154140378917,nan,False,live,nan
03/20/2024-17:39:15.330821 -- 803781,0.3,0.0,0.0,1.0,0.0,0,51.2433218321619,56.13301186251436,373,14853.5476086,0.087444833602091,-0.10441503592079,-0.010703637311306,1.7123182163531,nan,False,live,nan
03/20/2024-17:39:15.364991 -- 803777,0.3,0.0,0.0,1.0,0.0,0,51.6636038428317,55.80458316296235,375,14574.888792354,0.073018003490337,0.035117501599685,-0.011416720084627,1.7438232139136,nan,False,live,nan
03/20/2024-17:39:15.398832 -- 803779,0.3,0.0,0.0,1.0,0.0,0,52.068101191602956,56.14885653913935,377,14275.091225022,0.064556062177534,-0.094430974334241,-0.0067605229509312,1.7281757786455,nan,False,live,nan
03/20/2024-17:39:15.429649 -- 803780,0.3,0.0,0.0,1.0,0.0,0,52.41226299008012,56.11797050376135,379,13938.529284165,0.062750538790799,-0.014653756406431,-0.0020609443118188,1.7273230469525,nan,False,live,nan
03/20/2024-17:39:15.464718 -- 803781,0.3,0.0,0.0,1.0,0.0,0,52.97478114008253,56.322008159212366,381,14556.189469141,0.093248609376393,-0.045607369965794,0.0063751811221653,1.713318156736,nan,False,live,nan
03/20/2024-17:39:15.495665 -- 803785,0.3,0.0,0.0,1.0,0.0,0,53.24464835296086,56.20364164005736,383,15048.196989247,0.067259273271094,0.0013115462885939,0.037203727490187,1.6845871495509,nan,False,live,nan
03/20/2024-17:39:15.529125 -- 803781,0.3,0.0,0.0,1.0,0.0,0,53.551732972995055,56.18375949219136,385,15703.466036113,0.038452978402726,-0.022110975143109,-0.030709758481507,1.7185740726122,nan,False,live,nan
03/20/2024-17:39:15.548672 -- 803781,0.3,0.0,0.0,1.0,0.0,0,53.74393267650861,56.22300144466036,386,15515.35038693,0.061451900473721,-0.022344858816448,0.00085974008795365,1.7177143325243,nan,False,live,nan
03/20/2024-17:39:15.581479 -- 803782,0.3,0.0,0.0,1.0,0.0,0,54.155764822023414,56.466159456769354,388,15161.599742046,0.033227634894164,-0.017027528592265,-0.00021122412874389,1.7096980633053,nan,False,live,nan
03/20/2024-17:39:15.615575 -- 803783,0.3,0.0,0.0,1.0,0.0,0,54.42518020719375,56.57918358432135,390,16307.437231298,0.04480284448315,-0.040745312123232,0.0011559668345958,1.7014183169203,nan,False,live,nan
03/20/2024-17:39:15.647414 -- 803784,0.3,0.0,0.0,1.0,0.0,0,54.76597038886433,56.679864790147356,392,16504.674548581,0.050551981807724,-0.02593002929744,1.6014112049218e-05,1.69258661552,nan,False,live,nan
03/20/2024-17:39:15.680738 -- 803781,0.3,0.0,0.0,1.0,0.0,0,55.34544303353061,56.73812044212436,394,16621.024075666,0.13922196192843,-0.021623518974658,-0.026666768891424,1.718777271869,nan,False,live,nan
03/20/2024-17:39:15.714821 -- 803783,0.3,0.0,0.0,1.0,0.0,0,55.734280800149065,56.00144503386735,396,17308.713548387,0.055208749429673,0.048125267020771,0.021141270721695,1.7013341815138,nan,False,live,nan
03/20/2024-17:39:15.747692 -- 803795,0.3,0.0,0.0,1.0,0.0,0,56.09759562894099,55.77649400845636,398,17542.86027515,0.073239868396734,0.034370215786264,0.013040082604322,1.6085631447721,nan,False,live,nan
03/20/2024-17:39:15.781431 -- 803799,0.3,0.0,0.0,1.0,0.0,0,56.28258714928067,55.98588771660135,400,17350.420034394,0.058005774694437,-0.049606819774787,0.005148170618264,1.5765441234352,nan,False,live,nan
03/20/2024-17:39:15.814757 -- 803799,0.3,0.0,0.0,1.0,0.0,0,56.69553587561322,55.980556165798355,402,17964.399398108,0.082324674667684,-0.0074413444626757,-0.0064249591839276,1.5782687457044,nan,False,live,nan
03/20/2024-17:39:15.847042 -- 803797,0.3,0.0,0.0,1.0,0.0,0,57.145233681380034,55.86978103164436,404,19536.451182796,0.099763020566162,0.041255964914674,-0.013425788302509,1.5865269224959,nan,False,live,nan
03/20/2024-17:39:15.880798 -- 803806,0.3,0.0,0.0,1.0,0.0,0,57.6829848082812,55.89940285384336,406,19493.87661221,0.11509862498961,-0.019307967073177,-0.015280898177729,1.5177946359053,nan,False,live,nan
03/20/2024-17:39:15.914163 -- 803813,0.3,0.0,0.0,1.0,0.0,0,58.44014402875229,56.08549131006135,408,18435.606620808,0.18223952007244,-0.027258154974249,0.010770261462981,1.4652617451033,nan,False,live,nan
03/20/2024-17:39:15.935766 -- 803810,0.3,0.0,0.0,1.0,0.0,0,58.72821857336189,55.87134069195135,409,18548.692473118,0.088793409668082,0.080203335131643,-0.020354606539028,1.4856163516424,nan,False,live,nan
03/20/2024-17:39:15.965555 -- 803827,0.3,0.0,0.0,1.0,0.0,0,59.27654038170989,55.71090363519736,411,18995.068357696,0.11093825297566,0.16114086811351,0.066663894179774,1.3548653966748,nan,False,live,nan
03/20/2024-17:39:15.988128 -- 803815,0.3,0.0,0.0,1.0,0.0,0,59.6333500546359,55.761557842498355,412,19142.574806535,0.12011543772691,0.0035463597967849,-0.090786052410138,1.445651449085,nan,False,live,nan
03/20/2024-17:39:16.016809 -- 803808,0.3,0.0,0.0,1.0,0.0,0,59.6552636181969,56.12287558612335,414,18452.562768702,0.03187817111981,-0.1253123495234,-0.040471313799679,1.5062007861697,nan,False,live,nan
03/20/2024-17:39:16.049243 -- 803810,0.3,0.0,0.0,1.0,0.0,0,60.2570368087368,55.996259605027355,416,18587.314703353,0.054124423846398,0.14942944214373,-0.0051865443134455,1.4859551342006,nan,False,live,nan
03/20/2024-17:39:16.079926 -- 803815,0.3,0.0,0.0,1.0,0.0,0,60.7167642943635,56.311408017598346,418,18135.231298366,0.10871610086259,-0.019865846906315,0.01449364563552,1.4460879863458,nan,False,live,nan
03/20/2024-17:39:16.114870 -- 803818,0.3,0.0,0.0,1.0,0.0,0,61.14795994456949,56.34223967901735,420,17688.377472055,0.062882482362584,-0.022183301775086,-0.0020664034259218,1.4286092304163,nan,False,live,nan
03/20/2024-17:39:16.147062 -- 803817,0.3,0.0,0.0,1.0,0.0,0,61.4879350684095,56.94230831961436,422,17883.949269132,0.070008686305466,-0.1780233350538,-0.0010319857115808,1.4353929070907,nan,False,live,nan
03/20/2024-17:39:16.179353 -- 803823,0.3,0.0,0.0,1.0,0.0,0,61.509184124265296,56.84082153334935,424,17755.50171969,-0.048833426536144,0.028909832313304,0.051290642004832,1.3842299600139,nan,False,live,nan
03/20/2024-17:39:16.199627 -- 803828,0.3,0.0,0.0,1.0,0.0,0,61.925124113048994,56.92654851856636,425,17584.934595525,0.14156704320592,1.1765494364818e-05,0.033549582421092,1.3506803775928,nan,False,live,nan
03/20/2024-17:39:16.232661 -- 803831,0.3,0.0,0.0,1.0,0.0,0,62.2156655107314,57.22187073731535,427,18562.328460877,0.050591728790087,-0.06111661275122,-0.0096336214025313,1.3199523168708,nan,False,live,nan
03/20/2024-17:39:16.263587 -- 803838,0.3,0.0,0.0,1.0,0.0,0,62.43765391891169,57.748861499956355,429,18228.231728289,0.054798888053468,-0.057766174232056,0.027668024921539,1.270908384601,nan,False,live,nan
03/20/2024-17:39:16.295431 -- 803847,0.3,0.0,0.0,1.0,0.0,0,62.9084759126214,57.63036489565035,431,17764.960877042,0.043957823314059,0.052830829213824,0.013961009591247,1.1967938414384,nan,False,live,nan
03/20/2024-17:39:16.330256 -- 803843,0.3,0.0,0.0,1.0,0.0,0,63.298318242688495,57.89077153505236,433,17176.527085125,0.018577454601232,-0.0042728569698917,-0.014185370592424,1.2255652657315,nan,False,live,nan
03/20/2024-17:39:16.363569 -- 803849,0.3,0.0,0.0,1.0,0.0,0,63.415634895217494,58.07569031967136,435,16461.125107481,0.027046268756495,-0.036406996668644,0.016726092008781,1.1842817548087,nan,False,live,nan
03/20/2024-17:39:16.397382 -- 803850,0.3,0.0,0.0,1.0,0.0,0,63.909562516494596,58.25493465161235,437,17574.013327601,0.099123671986493,0.10434721156908,0.0031831313867058,1.1740060887307,nan,False,live,nan
03/20/2024-17:39:16.430291 -- 803848,0.3,0.0,0.0,1.0,0.0,0,64.2104048451144,58.33053415159335,439,16914.027085125,0.049534422384395,-0.014998589716214,-0.013780750752911,1.1916058364449,nan,False,live,nan
03/20/2024-17:39:16.463415 -- 803845,0.3,0.0,0.0,1.0,0.0,0,64.198742534943,58.31279193542836,441,16981.414015477,-0.013788656966465,0.021038956119425,-0.0027544253505311,1.2171212735339,nan,False,live,nan
03/20/2024-17:39:16.500843 -- 803832,0.3,0.0,0.0,1.0,0.0,0,64.4524252771212,58.281666900691356,443,16126.397248495,0.086864908307905,0.019016388119208,-0.062896553148973,1.3135617348124,nan,False,live,nan
03/20/2024-17:39:16.531090 -- 803816,0.3,0.0,0.0,1.0,0.0,0,64.5578178863175,58.07784951320536,445,16472.96344086,0.010955427506951,0.014270530393997,-0.069960351888325,1.4376807343258,nan,False,live,nan
03/20/2024-17:39:16.568139 -- 803792,0.3,0.0,0.0,1.0,0.0,0,64.7563557217338,57.923959219717354,447,16722.550300946,0.076015342289001,0.0034071929307425,-0.11449639843701,1.6307062023547,nan,False,live,nan
03/20/2024-17:39:16.601617 -- 803775,0.3,0.0,0.0,1.0,0.0,0,65.1600193357527,57.59092740375136,449,17002.032674119,0.078842771179043,0.047187837289657,-0.066817819141928,1.7608118419619,nan,False,live,nan
03/20/2024-17:39:16.632464 -- 803769,0.3,0.0,0.0,1.0,0.0,0,65.66423655000419,58.13711858206636,451,16140.519569892,0.049028445716529,-0.18104351188518,-0.023291574931803,1.8119894486327,nan,False,live,nan
03/20/2024-17:39:16.667307 -- 803765,0.3,0.0,0.0,1.0,0.0,0,66.1562687860134,58.530707897512364,453,15830.979793637,0.063627554789284,-0.088589290253876,-0.013606845018794,1.8397331483464,nan,False,live,nan
03/20/2024-17:39:16.700830 -- 803761,0.3,0.0,0.0,1.0,0.0,0,66.3665007464586,58.26340322588535,455,16104.362854686,0.016275628693251,-0.0086566476837645,-0.016381746700376,1.870537571049,nan,False,live,nan
03/20/2024-17:39:16.731689 -- 803760,0.3,0.0,0.0,1.0,0.0,0,66.15438432840719,57.550125133720364,457,16774.94239037,0.0029476664054525,0.20601463263449,-1.4775241405132e-05,1.8836354398899,nan,False,live,nan
03/20/2024-17:39:16.768540 -- 803761,0.3,0.0,0.0,1.0,0.0,0,66.29758051499189,57.24696440067135,459,15982.185296647,-0.014945407048157,-0.01620280131694,0.0021504188410503,1.8753346785325,nan,False,live,nan
03/20/2024-17:39:16.799000 -- 803762,0.3,0.0,0.0,1.0,0.0,0,66.697669526133,57.19416439389435,461,16283.428202923,0.086206297464629,-0.009651080687188,0.0005969113148536,1.8667808542979,nan,False,live,nan
03/20/2024-17:39:16.830025 -- 803767,0.3,0.0,0.0,1.0,0.0,0,66.87109778158259,57.110871457987365,463,16218.930782459,-0.013075956623346,0.024815581658101,0.029565217676519,1.8262581341293,nan,False,live,nan
03/20/2024-17:39:16.863894 -- 803777,0.3,0.0,0.0,1.0,0.0,0,67.07570233039169,56.75706613435636,465,16136.622527945,0.05493969573617,0.069421882297353,0.039736173298214,1.7444608899872,nan,False,live,nan
03/20/2024-17:39:16.883165 -- 803787,0.3,0.0,0.0,1.0,0.0,0,67.2426577739538,56.562952114888354,466,15941.711951849,0.064007040343651,0.056479200440205,0.072382334098762,1.6720785558885,nan,False,live,nan
03/20/2024-17:39:16.915637 -- 803789,0.3,0.0,0.0,1.0,0.0,0,67.4266138429839,56.41416971265436,468,16221.542132416,-0.0053540635064506,0.0021721763222251,0.0024995865888662,1.650466253667,nan,False,live,nan
03/20/2024-17:39:16.948901 -- 803782,0.3,0.0,0.0,1.0,0.0,0,67.7291749203234,56.41633776198736,470,16950.699914015,0.067030600475697,-0.0052343211950455,-0.031740569283702,1.7101045507177,nan,False,live,nan
03/20/2024-17:39:16.979480 -- 803784,0.3,0.0,0.0,1.0,0.0,0,68.0095150757688,56.23306089768436,472,17547.299656062,0.050202311350009,0.043837654367778,0.022366584974984,1.6919551439105,nan,False,live,nan
03/20/2024-17:39:17.016253 -- 803785,0.3,0.0,0.0,1.0,0.0,0,68.3097576119808,56.032251718996356,474,17553.68916595,0.058047587640954,0.020022747710501,0.018042912197677,1.682451339457,nan,False,live,nan
03/20/2024-17:39:17.049155 -- 803783,0.3,0.0,0.0,1.0,0.0,0,68.5005098344233,56.03760557641335,476,17521.012467756,0.0369756157635,-0.023741174622163,-0.081238660689054,1.6986964372117,nan,False,live,nan
03/20/2024-17:39:17.082241 -- 803778,0.3,0.0,0.0,1.0,0.0,0,68.69421677645579,55.799306223574355,478,18364.748495271,0.037394271955282,0.039011157788218,-0.11325491250933,1.7387980468532,nan,False,live,nan
03/20/2024-17:39:17.117781 -- 803778,0.3,0.0,0.0,1.0,0.0,0,68.9681227566486,55.61611037044336,480,17757.834909716,-0.0012868709102892,0.0054129037569592,-0.0076877890566934,1.7357680791636,nan,False,live,nan
03/20/2024-17:39:17.150573 -- 803779,0.3,0.0,0.0,1.0,0.0,0,69.512221609806,55.49052549796635,482,18159.014617369,0.1757412784952,0.00092990414365552,0.0030218169018108,1.7349725232409,nan,False,live,nan
03/20/2024-17:39:17.182826 -- 803774,0.3,0.0,0.0,1.0,0.0,0,69.8958502153287,54.76237919090536,484,17120.833619948,-0.0010087152555047,-0.0018101496785336,-0.011096504338856,1.7675464064771,nan,False,live,nan
03/20/2024-17:39:17.217888 -- 803761,0.3,0.0,0.0,1.0,0.0,0,70.14187239958349,54.32285925426735,486,17003.461306965,0.056267057093201,0.14985689649081,-0.049373755833013,1.8702604890814,nan,False,live,nan
03/20/2024-17:39:17.250477 -- 803761,0.3,0.0,0.0,1.0,0.0,0,70.39113982974659,53.98674380752036,488,17258.688306105,0.066006649842389,0.052357951601987,0.032181036714152,1.8695937157215,nan,False,live,nan
03/20/2024-17:39:17.282757 -- 803773,0.3,0.0,0.0,1.0,0.0,0,70.9870128653136,54.828404362429346,490,16371.135425623,0.071638040217398,-0.072311113645899,0.035555888673458,1.7828062476789,nan,False,live,nan
03/20/2024-17:39:17.318433 -- 803781,0.3,0.0,0.0,1.0,0.0,0,71.095504604691,54.779795997640356,492,16217.974204643,-0.018100717176783,-0.078106213759713,0.034841388057891,1.7199587987561,nan,False,live,nan
03/20/2024-17:39:17.348782 -- 803790,0.3,0.0,0.0,1.0,0.0,0,71.4968625044319,55.203069548962354,494,16540.892089424,0.093849080129287,-0.047640230290733,0.073291253843241,1.6436549967435,nan,False,live,nan
03/20/2024-17:39:17.381729 -- 803799,0.3,0.0,0.0,1.0,0.0,0,71.712577769466,55.26380245053735,496,17099.329320722,0.053368720685882,-0.056022528652813,0.022500922572205,1.5709939025942,nan,False,live,nan
03/20/2024-17:39:17.413838 -- 803819,0.3,0.0,0.0,1.0,0.0,0,72.2061753082092,55.22801772003135,498,17623.042562339,0.075181343351312,0.094719088494686,0.079818650798872,1.4174792544996,nan,False,live,nan
03/20/2024-17:39:17.447722 -- 803824,0.3,0.0,0.0,1.0,0.0,0,72.499446501729,55.50348026899035,500,17496.211092003,0.033422168785567,0.017178035089644,0.0038539754786746,1.3799234739429,nan,False,live,nan
03/20/2024-17:39:17.480209 -- 803839,0.3,0.0,0.0,1.0,0.0,0,72.4232231071959,56.16216095394136,502,17019.350816853,0.0090753227295611,-0.075220462743548,-0.0062568282148385,1.2617795064432,nan,False,live,nan
03/20/2024-17:39:17.514540 -- 803841,0.3,0.0,0.0,1.0,0.0,0,72.5752404490344,56.31497367890835,504,17326.367583835,0.061048806204473,-0.038653031472358,0.010857762564426,1.2427615019354,nan,False,live,nan
03/20/2024-17:39:17.547547 -- 803834,0.3,0.0,0.0,1.0,0.0,0,73.23863598539549,55.78438151661435,506,16433.811693895,0.057039679109189,0.093365055955709,-0.090996489002572,1.3017580615818,nan,False,live,nan
03/20/2024-17:39:17.580573 -- 803832,0.3,0.0,0.0,1.0,0.0,0,73.51246967673029,56.11350552112335,508,17082.881771281,0.071466214686337,-0.078762041793648,-0.027438783948091,1.3143152593709,nan,False,live,nan
03/20/2024-17:39:17.615938 -- 803822,0.3,0.0,0.0,1.0,0.0,0,73.83848890539389,55.66899944017634,510,17462.400257954,0.033646269904401,0.10288894898823,-0.033467119990017,1.3945775527145,nan,False,live,nan
03/20/2024-17:39:17.651234 -- 803816,0.3,0.0,0.0,1.0,0.0,0,74.272816844628,55.85302958017936,512,19204.647893379,0.062797660577302,0.05722621797745,-0.043204448086954,1.4425599241954,nan,False,live,nan
03/20/2024-17:39:17.683617 -- 803802,0.3,0.0,0.0,1.0,0.0,0,74.5103962324815,55.49260514763136,514,18963.610920034,0.026644363842445,0.058012411183815,-0.054684305796042,1.5518230521089,nan,False,live,nan
03/20/2024-17:39:17.717730 -- 803783,0.3,0.0,0.0,1.0,0.0,0,74.6578721358396,55.556655281740355,516,19803.979793637,0.016087440317044,-0.078332540620844,-0.089073900623478,1.6964649988041,nan,False,live,nan
03/20/2024-17:39:17.747449 -- 803761,0.3,0.0,0.0,1.0,0.0,0,73.8032718874737,55.62821013075136,518,19154.212811694,-0.1188272318185,0.10221386627711,-0.092903884081857,1.8759563594244,nan,False,live,nan
03/20/2024-17:39:17.781252 -- 803741,0.3,0.0,0.0,1.0,0.0,0,73.76170871922629,55.23326404758435,520,19418.374032674,-0.017174203777582,0.052394457546775,-0.074457440551832,2.0289466622651,nan,False,live,nan
03/20/2024-17:39:17.817633 -- 803722,0.3,0.0,0.0,1.0,0.0,0,73.69526699295719,54.99182262148336,522,19735.584264832,0.025728263870637,0.034500277733412,-0.083350305301452,2.1830745926028,nan,False,live,nan
03/20/2024-17:39:17.849912 -- 803709,0.3,0.0,0.0,1.0,0.0,0,72.7531910016771,55.484562519586355,524,17365.896818573,-0.34892535297263,0.062673762999258,-0.094704626986068,2.2777792195889,nan,False,live,nan
03/20/2024-17:39:17.882051 -- 803700,0.3,0.0,0.0,1.0,0.0,0,70.30009226614919,57.62137078469835,526,18847.647160069,-0.59219977027978,0.095209429858293,-0.25120976017622,2.6381899378646,nan,False,live,nan
03/20/2024-17:39:17.915568 -- 803700,0.3,0.0,0.0,1.0,0.0,0,70.1625309815679,60.71256308310736,528,18536.846947549,-0.38327099341856,-0.23751975157269,-0.12760872135512,2.6869439530505,nan,False,live,nan
03/20/2024-17:39:18.000195 -- 803700,0.3,0.0,0.0,1.0,0.0,0,70.4127866656317,61.84042671700036,533,19366.729892473,0.039725187971146,0.082461343455395,0.0024264618670918,2.9868172644743,nan,False,live,nan
03/20/2024-17:39:18.032904 -- 803700,0.3,0.0,0.0,1.0,0.0,0,70.2636029700345,61.718591735623356,535,19368.875698925,0.023950878936674,0.066016665606369,-0.030364104514393,3.0280277941636,nan,False,live,nan
03/20/2024-17:39:18.067180 -- 803500,0.3,0.0,0.0,1.0,0.0,0,69.946000490025,61.683036157360355,537,19241.564488392,-0.018152901381679,0.051066813932222,-0.08819946591652,3.144255699319,nan,False,live,nan
03/20/2024-17:39:18.100918 -- 803500,0.3,0.0,0.0,1.0,0.0,0,70.054162772358,61.80539671602735,539,18668.495270851,-0.0118552478155,0.076908394257802,-0.088882703565837,3.326392999733,nan,False,live,nan
03/20/2024-17:39:18.134383 -- 803500,0.3,0.0,0.0,1.0,0.0,0,70.74916128211049,61.85742434711235,541,18864.701633706,-0.078464832209637,-0.26595834974017,-0.12993781669245,3.5280770627818,nan,False,live,nan
03/20/2024-17:39:18.166393 -- 803500,0.3,0.0,0.0,1.0,0.0,0,72.6486595260261,60.43226796791836,543,16989.755374033,-0.019799241071421,-0.44359441590551,-0.03439653496692,3.5295793740207,nan,False,live,nan
03/20/2024-17:39:18.195838 -- 803500,0.3,0.0,0.0,1.0,0.0,0,72.5768201739231,59.90780335679235,545,17841.969045572,0.22094884288036,0.068884480991707,-0.012635484841167,3.5397575311049,nan,False,live,nan
03/20/2024-17:39:18.218232 -- 803500,0.3,0.0,0.0,1.0,0.0,0,72.5704071774684,59.835115735864356,546,18118.478073947,0.023089784522027,-0.0076487513930797,-0.019437225121152,3.5591947562261,nan,False,live,nan
03/20/2024-17:39:18.249949 -- 803500,0.3,0.0,0.0,1.0,0.0,0,72.8316076970826,59.497923335941344,548,18713.701505376,0.024621099329238,-0.054618651569124,0.10240869664185,3.530279035701,nan,False,live,nan
03/20/2024-17:39:18.282832 -- 803500,0.3,0.0,0.0,1.0,0.0,0,72.9798379207368,59.160554313838354,550,18994.813413586,0.053287752210879,-0.037655939044629,-0.023468641863543,3.6109833488699,nan,False,live,nan
03/20/2024-17:39:18.317951 -- 803500,0.3,0.0,0.0,1.0,0.0,0,72.9803396256384,58.63401951143236,552,19544.613069647,0.077438305076947,-0.04029954486045,-0.0062134565680784,3.6209173271423,nan,False,live,nan
03/20/2024-17:39:18.350895 -- 803500,0.3,0.0,0.0,1.0,0.0,0,72.3159004077267,57.96479770946835,554,19832.251504729,0.25105992700319,0.082912589841958,0.039386865289149,3.5272574414422,nan,False,live,nan
03/20/2024-17:39:18.381962 -- 803500,0.3,0.0,0.0,1.0,0.0,0,72.1907941512108,57.93583655839635,556,19639.170826162,0.11879914879247,0.021761379043863,-0.039431023129452,3.6260484413913,nan,False,live,nan
03/20/2024-17:39:18.417542 -- 803500,0.3,0.0,0.0,1.0,0.0,0,72.1563110434476,56.98908889298236,558,19165.969032258,0.15806871927845,-0.054521747613826,0.0052571603893442,3.6312258203338,nan,False,live,nan
03/20/2024-17:39:18.449428 -- 803500,0.3,0.0,0.0,1.0,0.0,0,72.1616976349947,56.69150887261335,560,19909.095872743,0.039919970889114,0.056411939707203,-0.027354572611252,3.6901560837901,nan,False,live,nan
03/20/2024-17:39:18.483207 -- 803500,0.3,0.0,0.0,1.0,0.0,0,71.7028025575266,56.42445979466236,562,19957.703225806,0.077531500178728,0.030553934353341,-0.049294916734102,3.7902105087251,nan,False,live,nan
03/20/2024-17:39:18.532719 -- 803500,0.3,0.0,0.0,1.0,0.0,0,71.7432921758244,55.82181448923135,565,19826.204213242,0.15237353208905,-0.13159821084373,0.0066701277766987,3.7835403809484,nan,False,live,nan
03/20/2024-17:39:18.566125 -- 803500,0.3,0.0,0.0,1.0,0.0,0,71.07498934247519,55.63689820122135,567,19696.23688736,0.096288460677553,0.056462601529828,-0.053255663902205,3.8909972564026,nan,False,live,nan
03/20/2024-17:39:18.601440 -- 803494,0.3,0.0,0.0,1.0,0.0,0,70.0764929250426,55.947475422388344,569,18741.996990542,0.0939920282053,0.030076491661096,-0.034802407073393,3.9680335668189,nan,False,live,nan
03/20/2024-17:39:18.632842 -- 803494,0.3,0.0,0.0,1.0,0.0,0,69.963144993915,55.18681196345535,571,19819.510748065,0.10472732434044,-0.16017543484213,-0.0036327956871722,3.9720901654936,nan,False,live,nan
03/20/2024-17:39:18.667737 -- 803500,0.3,0.0,0.0,1.0,0.0,0,69.54782642761529,54.329247949252355,573,19248.918744626,0.17967870892174,-0.032739298194791,0.078096393514007,3.8948466973138,nan,False,live,nan
03/20/2024-17:39:18.699034 -- 803494,0.3,0.0,0.0,1.0,0.0,0,69.3156363622755,54.12852333228735,575,18987.918744626,-0.0083069176625589,0.004015012074133,0.025051699868659,3.9677414599478,nan,False,live,nan
03/20/2024-17:39:18.734573 -- 803494,0.3,0.0,0.0,1.0,0.0,0,68.9848362263586,53.09492282810536,577,18032.449699054,0.14719309173793,-0.17925907737707,-0.0091640233994525,3.9693822568641,nan,False,live,nan
03/20/2024-17:39:18.766676 -- 803499,0.3,0.0,0.0,1.0,0.0,0,68.74032959828969,52.979853635869354,579,17617.006018917,0.10996231047048,0.017522534142014,-0.0078508022551543,3.9325478261357,nan,False,live,nan
03/20/2024-17:39:18.799729 -- 803495,0.3,0.0,0.0,1.0,0.0,0,68.1850128896715,52.65386093180236,581,17885.068787618,0.10236996763716,0.023966445665687,-0.015079601819249,3.9613138561706,nan,False,live,nan
03/20/2024-17:39:18.833967 -- 803482,0.3,0.0,0.0,1.0,0.0,0,67.55650272587789,52.94163848276836,583,17456.532674119,0.073287583894057,0.079698032047489,-0.0029516246112817,4.0640827569469,nan,False,live,nan
03/20/2024-17:39:18.867419 -- 803482,0.3,0.0,0.0,1.0,0.0,0,67.04995356258719,52.52126911065735,585,17817.487962167,0.13830048750692,0.021076011430157,0.023207733246722,4.0605940580845,nan,False,live,nan
03/20/2024-17:39:18.898634 -- 803477,0.3,0.0,0.0,1.0,0.0,0,66.7987090921758,52.385516839759354,587,18437.528804815,0.066479201348556,0.0092552098881612,-0.0047190294514626,4.0999112475042,nan,False,live,nan
03/20/2024-17:39:18.933266 -- 803477,0.3,0.0,0.0,1.0,0.0,0,66.28319689510829,52.40354996297835,589,19328.864574377,0.061817454338701,0.095056816489329,-0.0021311661347507,4.1046783822404,nan,False,live,nan
03/20/2024-17:39:18.969549 -- 803492,0.3,0.0,0.0,1.0,0.0,0,65.2883038595712,52.335608412907355,591,19387.122527945,0.27476567430225,0.18739322701097,0.11804878247235,3.9866295997681,nan,False,live,nan
03/20/2024-17:39:18.999822 -- 803486,0.3,0.0,0.0,1.0,0.0,0,64.9730808627687,52.259097875524354,593,18548.569217541,-0.028013992879512,0.039657758190281,-0.12741299260853,4.0357472644598,nan,False,live,nan
03/20/2024-17:39:19.033226 -- 803482,0.3,0.0,0.0,1.0,0.0,0,64.4361645428238,52.330363350880354,595,19111.588134136,0.11554933889497,0.071771976377061,-0.03618725455218,4.0655760534834,nan,False,live,nan
03/20/2024-17:39:19.066081 -- 803472,0.3,0.0,0.0,1.0,0.0,0,64.302301975134,51.73066186667236,597,18889.973344798,0.061511137055656,-0.052290113463884,-0.025823583028348,4.1395152705414,nan,False,live,nan
03/20/2024-17:39:19.098237 -- 803490,0.3,0.0,0.0,1.0,0.0,0,65.2500502286814,50.45234169263535,599,17403.286758383,-0.032695998676997,-0.43000962317395,0.037550121795505,3.9982295137735,nan,False,live,nan
03/20/2024-17:39:19.133166 -- 803500,0.3,0.0,0.0,1.0,0.0,0,65.5530954417312,48.938275051705354,601,17600.542562339,0.050609277722651,-0.16439329016083,0.12245146652285,3.8082493859902,nan,False,live,nan
03/20/2024-17:39:19.165891 -- 803500,0.3,0.0,0.0,1.0,0.0,0,65.43953225264579,48.657077599204364,603,18623.407136715,0.070189396549712,0.013208237298059,-0.012240975881764,3.8015087095167,nan,False,live,nan
03/20/2024-17:39:19.199345 -- 803500,0.3,0.0,0.0,1.0,0.0,0,64.96764897960419,48.384726458263366,605,18683.384780739,0.085125107937861,0.038752298656972,0.014887813854724,3.8007179561258,nan,False,live,nan
03/20/2024-17:39:19.234876 -- 803500,0.3,0.0,0.0,1.0,0.0,0,64.4691324447426,47.936030954641346,607,19141.647741935,0.08756894630834,0.059047902956008,-0.036716336678167,3.841799667512,nan,False,live,nan
03/20/2024-17:39:19.265519 -- 803500,0.3,0.0,0.0,1.0,0.0,0,64.2089244885147,47.58390025457536,609,19758.69905417,0.07155844128189,-0.0084964265026114,0.0026128409459031,3.8361662797956,nan,False,live,nan
03/20/2024-17:39:19.332588 -- 803500,0.3,0.0,0.0,1.0,0.0,0,63.7330390261428,47.738403317656356,613,19708.795786758,0.064172939455658,0.1539446836106,-0.028616188503002,3.8647824682986,nan,False,live,nan
03/20/2024-17:39:19.364105 -- 803493,0.3,0.0,0.0,1.0,0.0,0,63.93379981037219,48.24272140540635,615,16317.25322442,0.019691129674637,0.012774541665387,-0.0040904896473454,3.9775262040706,nan,False,live,nan
03/20/2024-17:39:19.397522 -- 803495,0.3,0.0,0.0,1.0,0.0,0,63.535663431446096,47.97245509935136,617,15852.344797936,0.061165359896315,-0.014147306295787,0.046445819760093,3.9597701532731,nan,False,live,nan
03/20/2024-17:39:19.432496 -- 803500,0.3,0.0,0.0,1.0,0.0,0,63.2494320757737,47.54314750703235,619,16206.659931212,0.082626003310869,-0.049121930446982,0.019252328436482,3.9148284390764,nan,False,live,nan
03/20/2024-17:39:19.466569 -- 803500,0.3,0.0,0.0,1.0,0.0,0,62.9839918002237,47.09100168853936,621,17230.453568358,0.10199486413763,0.015350484048466,0.012063359828124,3.8799675481186,nan,False,live,nan
03/20/2024-17:39:19.500581 -- 803500,0.3,0.0,0.0,1.0,0.0,0,62.529448038502494,46.78641779497335,623,17963.550537634,0.080690583807273,0.048304240853909,0.062488945723177,3.7884407894144,nan,False,live,nan
03/20/2024-17:39:19.534077 -- 803500,0.3,0.0,0.0,1.0,0.0,0,62.0416169354007,46.53889877499436,625,18768.021075269,0.087515103819105,0.037974268130341,0.034630379726314,3.7231018433399,nan,False,live,nan
03/20/2024-17:39:19.567214 -- 803500,0.3,0.0,0.0,1.0,0.0,0,61.177503911763296,46.79940815511434,627,19093.35483871,-0.053159283327103,0.14315366008474,0.076950226091987,3.5634460461646,nan,False,live,nan
03/20/2024-17:39:19.618336 -- 803500,0.3,0.0,0.0,1.0,0.0,0,60.37733158901219,47.33659107842836,630,19318.825021496,-0.020244332651163,0.31826006018852,-0.0026967835739375,3.5045867162892,nan,False,live,nan
03/20/2024-17:39:19.647999 -- 803500,0.3,0.0,0.0,1.0,0.0,0,58.553993600355895,47.91941095666936,632,18228.92383821,-0.02403394702169,0.34795953903858,-0.024584213383453,3.3712590210812,nan,False,live,nan
03/20/2024-17:39:19.669139 -- 803500,0.3,0.0,0.0,1.0,0.0,0,56.41203350877909,47.916893623252356,633,19962.226139295,0.17500113131012,0.69224066554233,-0.033548511039877,3.4048075321211,nan,False,live,nan
03/20/2024-17:39:19.714990 -- 803500,0.3,0.0,0.0,1.0,0.0,0,53.93995176342786,47.35526900211436,636,19673.881771281,0.0083156861315164,-0.18763921381818,0.001077855753386,3.3667668045616,nan,False,live,nan
03/20/2024-17:39:19.748749 -- 803500,0.3,0.0,0.0,1.0,0.0,0,55.25863897566215,47.11953175680136,638,16658.405417025,-0.006476869482227,-0.20197716967515,0.071702110675129,3.2028424532033,nan,False,live,nan
03/20/2024-17:39:19.783319 -- 803700,0.3,0.0,0.0,1.0,0.0,0,55.670159766522836,46.623550995094355,640,16978.441100602,0.14256134574101,-0.031863061032575,0.039386760023131,3.1187823489172,nan,False,live,nan
03/20/2024-17:39:19.815090 -- 803700,0.3,0.0,0.0,1.0,0.0,0,55.15071481295467,45.947827777639354,642,16975.140584695,0.090053201077326,0.037084860296197,-0.012706612773147,3.0908189541134,nan,False,live,nan
03/20/2024-17:39:19.850065 -- 803700,0.3,0.0,0.0,1.0,0.0,0,55.18920586038218,45.49463373792736,644,15054.632416165,0.066187572105369,-0.039696709831378,-0.0270686952892,3.1177562769233,nan,False,live,nan
03/20/2024-17:39:19.881751 -- 803700,0.3,0.0,0.0,1.0,0.0,0,55.48311653552091,45.11904796719136,646,16622.087704213,0.025294679209307,-0.019410169556449,-0.027332565503232,3.1206864140668,nan,False,live,nan
03/20/2024-17:39:19.915662 -- 803500,0.3,0.0,0.0,1.0,0.0,0,55.51636555217927,44.75567326797435,648,14582.736774194,0.044632591642009,0.013547301339676,-0.00088315393232728,3.1775205622897,nan,False,live,nan
03/20/2024-17:39:19.950669 -- 803500,0.3,0.0,0.0,1.0,0.0,0,55.47526313051877,44.46100756536436,650,14753.371453138,0.051335584333709,-0.0015599621256231,-0.018582161521784,3.2030667947291,nan,False,live,nan
03/20/2024-17:39:19.982678 -- 803500,0.3,0.0,0.0,1.0,0.0,0,55.484012930478656,44.377948040755356,652,14979.805245056,-0.016244986559961,0.028197703679298,-0.015811422613106,3.2477549185399,nan,False,live,nan
03/20/2024-17:39:20.016667 -- 803500,0.3,0.0,0.0,1.0,0.0,0,55.53425312005638,44.27766540377235,654,15584.606451613,0.059480230971502,0.047510602989323,0.096327391377713,3.2672357455455,nan,False,live,nan
03/20/2024-17:39:20.048104 -- 803500,0.3,0.0,0.0,1.0,0.0,0,55.49183668886709,44.04182823328636,656,15706.120378332,0.014268872421814,0.01918447321807,-0.034308448066521,3.3327476854061,nan,False,live,nan
03/20/2024-17:39:20.085067 -- 803500,0.3,0.0,0.0,1.0,0.0,0,55.48028575052829,44.14143546970936,658,15452.36844368,-0.032683523914812,-0.0093428505118378,0.013738454518361,3.3561883501432,nan,False,live,nan
03/20/2024-17:39:20.116663 -- 803500,0.3,0.0,0.0,1.0,0.0,0,55.46701687002714,44.084312845156354,660,15430.907566638,0.0096877491783726,-0.0081731118321925,-0.0030285313015915,3.3327792132177,nan,False,live,nan
03/20/2024-17:39:20.154260 -- 803500,0.3,0.0,0.0,1.0,0.0,0,55.69519738778169,43.720254912190356,662,15875.007308684,0.061643021577662,-0.046143166192015,-0.021277050553083,3.3679698860376,nan,False,live,nan
03/20/2024-17:39:20.178107 -- 803500,0.3,0.0,0.0,1.0,0.0,0,55.66682830478913,43.14665964919936,664,15799.371453138,0.092409587516317,-0.019467651584482,-0.0074621050746943,3.3818459134035,nan,False,live,nan
03/20/2024-17:39:20.199150 -- 803500,0.3,0.0,0.0,1.0,0.0,0,55.87606636281215,42.93401981974036,665,15972.130696475,0.050882223435247,-0.085441634136276,-0.032178150679652,3.4140240640831,nan,False,live,nan
03/20/2024-17:39:20.234219 -- 803500,0.3,0.0,0.0,1.0,0.0,0,56.115250551233906,42.519348551194355,667,15545.434651763,0.073241859136132,-0.058086000305717,0.031043333099561,3.3237890546873,nan,False,live,nan
03/20/2024-17:39:20.267336 -- 803500,0.3,0.0,0.0,1.0,0.0,0,56.12734174086471,42.14849541186736,669,15275.031814273,0.06856514141532,0.015305932518292,0.019300035068751,3.278252200552,nan,False,live,nan
03/20/2024-17:39:20.300229 -- 803500,0.3,0.0,0.0,1.0,0.0,0,56.029895790492894,41.758797755086356,671,15215.710232158,0.074023381921571,-0.0034634852452066,0.022884982813344,3.2274281029503,nan,False,live,nan
03/20/2024-17:39:20.334453 -- 803500,0.3,0.0,0.0,1.0,0.0,0,55.879091100557304,41.204699577346354,673,14972.206362855,0.10691134887196,0.023726799577622,0.01518918542287,3.1982620255849,nan,False,live,nan
03/20/2024-17:39:20.366166 -- 803500,0.3,0.0,0.0,1.0,0.0,0,55.89643729146237,40.81756615128136,675,15002.817712812,0.059444237298503,-0.0034292222002383,0.0024354981567798,3.1691535447834,nan,False,live,nan
03/20/2024-17:39:20.401474 -- 803500,0.3,0.0,0.0,1.0,0.0,0,55.887091180954705,40.28787011202436,677,15571.19905417,0.11692937993486,-3.0956363600106e-05,-0.0081706466163202,3.1747222064731,nan,False,live,nan
03/20/2024-17:39:20.434890 -- 803500,0.3,0.0,0.0,1.0,0.0,0,55.81591114075341,39.75618271268535,679,16533.344368014,0.070749623679095,0.0056335165491188,-0.0420196532731,3.2284323274317,nan,False,live,nan
03/20/2024-17:39:20.466598 -- 803500,0.3,0.0,0.0,1.0,0.0,0,56.155640417700866,39.31752370111936,681,16761.321152193,0.059540703762627,-0.17028757179564,-0.01535880593976,3.2427785542562,nan,False,live,nan
03/20/2024-17:39:20.499361 -- 803500,0.3,0.0,0.0,1.0,0.0,0,55.76083062395712,38.83925954364435,683,16317.448839209,0.071679009409199,0.053930310274651,-0.014160791145603,3.2530497165524,nan,False,live,nan
03/20/2024-17:39:20.534131 -- 803500,0.3,0.0,0.0,1.0,0.0,0,55.19865524709143,38.50253171882236,685,16107.331470335,0.089000431935172,0.082630321226887,-0.0064523976868595,3.2826604497476,nan,False,live,nan
03/20/2024-17:39:20.567625 -- 803500,0.3,0.0,0.0,1.0,0.0,0,55.641227718994706,38.01913714491736,687,15880.720980224,0.055706619140389,-0.084298887101111,-0.027449303357465,3.33641855618,nan,False,live,nan
03/20/2024-17:39:20.600029 -- 803500,0.3,0.0,0.0,1.0,0.0,0,55.08272365363191,37.65814867742536,689,16384.267411866,0.088445410039959,0.056649623521294,0.013643669546128,3.3113440076166,nan,False,live,nan
03/20/2024-17:39:20.633650 -- 803500,0.3,0.0,0.0,1.0,0.0,0,54.373966621001124,37.18539207456735,691,16846.712381771,0.097237727523323,-0.031500690922661,0.010592257470567,3.287702411632,nan,False,live,nan
03/20/2024-17:39:20.666692 -- 803500,0.3,0.0,0.0,1.0,0.0,0,54.44654855930346,36.735430184539354,693,17311.391659501,0.10683409014007,-0.033850156504702,0.027114152682115,3.244539433835,nan,False,live,nan
03/20/2024-17:39:20.699819 -- 803500,0.3,0.0,0.0,1.0,0.0,0,54.39315276627578,36.21772437296536,695,18878.668529665,0.063194654687266,-0.019503293855063,0.028536345625207,3.2016646223263,nan,False,live,nan
03/20/2024-17:39:20.735022 -- 803500,0.3,0.0,0.0,1.0,0.0,0,54.61282975399032,35.440129778914354,697,18336.377204301,0.18878855672273,-0.072598190886404,0.035504475937841,3.1426614476299,nan,False,live,nan
