timestamp -- motor_step_command,mfc1_stpt,mfc2_stpt,mfc3_stpt,led1_stpt,led2_stpt,sig_status,ft_posx,ft_posy,ft_frame,ft_error,ft_roll,ft_pitch,ft_yaw,ft_heading,adapted_center,instrip,mode,strip_thresh
03/21/2024-11:22:34.484561 -- 799896,0.3,0.0,0.0,1.0,0.0,0,4.273979095391999,4.951399402702199,119,7410.477124183,0.0020854121617268,-0.025163048498338,0.038451176207265,0.81575795225477,nan,False,live,nan
03/21/2024-11:22:34.517696 -- 799918,0.3,0.0,0.0,1.0,0.0,0,4.059142305320698,5.195466965612999,121,6893.7208188153,0.0050829647559545,-0.0261059667369,0.086420337151624,0.6363148711574,nan,False,live,nan
03/21/2024-11:22:34.551723 -- 799949,0.3,0.0,0.0,1.0,0.0,0,4.0578699415383,5.558824674475497,123,6774.562962963,0.031909873919698,-0.010460613952419,0.12712721253507,0.39586947005776,nan,False,live,nan
03/21/2024-11:22:34.585354 -- 799958,0.3,0.0,0.0,1.0,0.0,0,3.9161418053957977,5.609943381065699,125,7035.350174216,0.016420064387135,0.0011293183357394,0.0029640102302059,0.32938355333409,nan,False,live,nan
03/21/2024-11:22:34.617599 -- 799949,0.3,0.0,0.0,1.0,0.0,0,4.037558126201999,5.619988309858799,127,6749.3540940767,0.014215378555541,0.041685549335565,-0.072256213426429,0.40049665040432,nan,False,live,nan
03/21/2024-11:22:34.649511 -- 799939,0.3,0.0,0.0,1.0,0.0,0,4.098124978034699,5.616112589564098,129,6878.2961672474,0.0050764510258731,-0.0030055578048137,-0.0033320771012567,0.47269684798941,nan,False,live,nan
03/21/2024-11:22:34.686138 -- 799941,0.3,0.0,0.0,1.0,0.0,0,4.106815066829098,5.637216441679497,131,6517.7273519164,0.0081532781061375,-0.00029422068671649,-0.00047201660681847,0.4610416320339,nan,False,live,nan
03/21/2024-11:22:34.715781 -- 799945,0.3,0.0,0.0,1.0,0.0,0,4.095947635384498,5.643324536367901,133,6313.4512195122,-4.5604872568553e-05,0.0030016394078834,-0.0012858402531048,0.42991019279377,nan,False,live,nan
03/21/2024-11:22:34.748331 -- 799941,0.3,0.0,0.0,1.0,0.0,0,4.0755102083967,5.6296616059965015,135,6470.9355400697,0.00035519300597638,0.0018170550769797,-0.0024833537856035,0.46050385773348,nan,False,live,nan
03/21/2024-11:22:34.767727 -- 799941,0.3,0.0,0.0,1.0,0.0,0,4.081720881078001,5.632594134953999,136,6373.8358013937,0.0017939374585003,0.0014223727894479,0.0024637821221896,0.45804007561129,nan,False,live,nan
03/21/2024-11:22:34.800820 -- 799941,0.3,0.0,0.0,1.0,0.0,0,4.0951838067606,5.6258126717295,138,6255.4102787456,-0.0011688754219103,0.0041487957385366,0.0033789954785765,0.45622987562349,nan,False,live,nan
03/21/2024-11:22:34.837426 -- 799939,0.3,0.0,0.0,1.0,0.0,0,4.245896364878099,5.8173929897769,140,6136.5979965157,0.067060129888705,0.0098775867199248,-0.017703240916833,0.47817061557537,nan,False,live,nan
03/21/2024-11:22:34.868003 -- 799929,0.3,0.0,0.0,1.0,0.0,0,4.420221357647401,6.1636050584732995,142,6870.074912892,0.050069514757663,-0.0079969703611848,-0.042007015832804,0.556471918112,nan,False,live,nan
03/21/2024-11:22:34.901484 -- 799928,0.3,0.0,0.0,1.0,0.0,0,4.674850719264901,6.452183391855597,144,6878.3105400697,0.066827329449371,0.013046765848414,0.031552016383466,0.56196374434482,nan,False,live,nan
03/21/2024-11:22:34.935361 -- 799938,0.3,0.0,0.0,1.0,0.0,0,4.668412284566099,6.6908714946608985,146,6993.3824041812,0.0068151968446609,-0.028138891596833,0.037008697934399,0.48256567008591,nan,False,live,nan
03/21/2024-11:22:34.972171 -- 799937,0.3,0.0,0.0,1.0,0.0,0,4.662299694392397,6.863898472866298,148,7316.9960801394,0.03077206973645,-0.0062528294645639,-0.006384081268229,0.4922794674618,nan,False,live,nan
03/21/2024-11:22:34.998550 -- 799931,0.3,0.0,0.0,1.0,0.0,0,4.701387945291598,7.232943540746701,150,7414.1324041812,0.077934892015688,-0.025538916081454,-0.019084774024366,0.53498263638455,nan,False,live,nan
03/21/2024-11:22:35.017877 -- 799933,0.3,0.0,0.0,1.0,0.0,0,4.7730637212999,7.3262336771796,151,7386.1694989107,0.038909373060316,0.0048889303393521,0.0097193128507204,0.52526332353383,nan,False,live,nan
03/21/2024-11:22:35.048961 -- 799946,0.3,0.0,0.0,1.0,0.0,0,4.617804674347498,7.589488268906999,153,7298.6132404181,0.041515291578424,-0.044971305454269,0.060255492585556,0.42263929880723,nan,False,live,nan
03/21/2024-11:22:35.086153 -- 799963,0.3,0.0,0.0,1.0,0.0,0,4.490871739014299,7.981764473097,155,7879.6026143791,0.062198596084251,-0.045924085968389,0.082539164336918,0.28277110275753,nan,False,live,nan
03/21/2024-11:22:35.119659 -- 799983,0.3,0.0,0.0,1.0,0.0,0,4.437544983904198,8.2839200089101,157,8272.7656794425,0.043364382620303,-0.011186373382192,0.072278771546275,0.12954823278861,nan,False,live,nan
03/21/2024-11:22:35.153649 -- 799981,0.3,0.0,0.0,1.0,0.0,0,4.493361861919498,8.6244207139224,159,7825.3972125436,0.06268959734861,0.014729550594598,-0.036891508483923,0.14789673461792,nan,False,live,nan
03/21/2024-11:22:35.183842 -- 799972,0.3,0.0,0.0,1.0,0.0,0,4.5220530046431,8.8644844680255,161,8110.8793554007,0.037568670814781,-0.029872140962311,-0.016948687573993,0.21370931162097,nan,False,live,nan
03/21/2024-11:22:35.215639 -- 799992,0.3,0.0,0.0,1.0,0.0,0,4.332035767917599,9.1817119130472,163,8502.6067073171,0.04253133943797,-0.038172214426551,0.095033914194734,0.060832196370329,nan,False,live,nan
03/21/2024-11:22:35.234613 -- 800000,0.3,0.0,0.0,1.0,0.0,0,4.273345583795999,9.2411115638154,164,8695.5004355401,0.019224988180232,-0.020134677214084,0.06343262537028,6.2805848781796,nan,False,live,nan
03/21/2024-11:22:35.269618 -- 800012,0.3,0.0,0.0,1.0,0.0,0,4.0930567689486,9.502663080131098,166,8595.181184669,0.046816821268848,-0.016362899192209,0.030605009028072,6.1830189890836,nan,False,live,nan
03/21/2024-11:22:35.299744 -- 800000,0.3,0.0,0.0,1.0,0.0,0,4.1853472230219,9.744788718599098,168,7976.1977351916,0.036407473295275,0.0082648185654503,-0.041809876554018,6.2831445663912,nan,False,live,nan
03/21/2024-11:22:35.334328 -- 799992,0.3,0.0,0.0,1.0,0.0,0,4.1081842806729,10.046153304576299,170,7586.5069686411,0.037114163301614,-0.022916316845959,-0.031144104469685,0.059143309433696,nan,False,live,nan
03/21/2024-11:22:35.366438 -- 800007,0.3,0.0,0.0,1.0,0.0,0,3.9397143265361994,10.324543058931601,172,7143.8928571429,0.064707776078939,-0.027524204053648,0.094317006439448,6.2220599025442,nan,False,live,nan
03/21/2024-11:22:35.406214 -- 800021,0.3,0.0,0.0,1.0,0.0,0,3.923670547542601,10.586213089702197,174,7018.5317944251,0.023885881094675,0.014527764122577,0.039328817955679,6.1107530294881,nan,False,live,nan
03/21/2024-11:22:35.432452 -- 800031,0.3,0.0,0.0,1.0,0.0,0,3.7352994289187986,10.885773852120002,176,7109.1772648084,0.079905009261735,-0.015750985868844,0.0089539807469403,6.0379404701059,nan,False,live,nan
03/21/2024-11:22:35.451886 -- 800024,0.3,0.0,0.0,1.0,0.0,0,3.889540532046299,11.0932252858206,177,7446.4581881533,0.056303232879247,0.065242954781216,-0.051519944047255,6.0894604141532,nan,False,live,nan
03/21/2024-11:22:35.481238 -- 800023,0.3,0.0,0.0,1.0,0.0,0,3.7460438977941006,11.3754122724564,179,6740.1716027875,0.060785864041346,-0.012495410794141,0.0072970320058142,6.0989751463696,nan,False,live,nan
03/21/2024-11:22:35.499327 -- 800021,0.3,0.0,0.0,1.0,0.0,0,3.6757527045072003,11.498193819376203,180,7102.3118466899,0.044432093214888,-0.015806082263518,-0.012079530621626,6.1110546769912,nan,False,live,nan
03/21/2024-11:22:35.540372 -- 800030,0.3,0.0,0.0,1.0,0.0,0,3.5668406658171,11.742530321277,182,7319.093641115,0.076421364780599,-0.012670799869655,0.0695121185573,6.043213922145,nan,False,live,nan
03/21/2024-11:22:35.566169 -- 800046,0.3,0.0,0.0,1.0,0.0,0,3.3866110842474004,12.040734588131999,184,7446.8040069686,0.023209718075146,-0.019416445638625,0.060731895039871,5.9153278677855,nan,False,live,nan
03/21/2024-11:22:35.585573 -- 800055,0.3,0.0,0.0,1.0,0.0,0,3.273006356001,12.220747503049202,185,7363.7368191721,0.070031666057022,-0.011478819805252,0.065292760589288,5.8500351071962,nan,False,live,nan
03/21/2024-11:22:35.618342 -- 800048,0.3,0.0,0.0,1.0,0.0,0,3.2436730523477983,12.674475354519599,187,8117.2363238512,0.04886789229834,0.04056498681599,-0.093360219673501,5.9043963787862,nan,False,live,nan
03/21/2024-11:22:35.651368 -- 800038,0.3,0.0,0.0,1.0,0.0,0,3.169789256190299,12.9582458713851,189,8163.0048140044,0.079461984990239,-0.020333470747769,-0.019885275581952,5.9828067438857,nan,False,live,nan
03/21/2024-11:22:35.684540 -- 800042,0.3,0.0,0.0,1.0,0.0,0,3.069898298845498,13.2403320553095,191,8406.8139737991,0.047473688137624,0.019280567679975,0.028974529281814,5.9533094640376,nan,False,live,nan
03/21/2024-11:22:35.717285 -- 800058,0.3,0.0,0.0,1.0,0.0,0,2.892831514975498,13.643906587601697,193,8672.2279860506,0.057498983021465,-0.015477210439624,0.063831217565033,5.8236934295699,nan,False,live,nan
03/21/2024-11:22:35.751484 -- 800061,0.3,0.0,0.0,1.0,0.0,0,2.886558887907901,13.786143525884702,195,8837.1450980392,0.068065044300722,0.030054809280714,0.0073132261965357,5.7987096711762,nan,False,live,nan
03/21/2024-11:22:35.785834 -- 800050,0.3,0.0,0.0,1.0,0.0,0,2.7055534518419986,14.3355003321168,197,9519.3594771242,0.087289816218435,0.012103183362613,-0.039969826147679,5.885807561394,nan,False,live,nan
03/21/2024-11:22:35.817765 -- 800041,0.3,0.0,0.0,1.0,0.0,0,2.4213926807946002,14.605388064921597,199,9492.7735191638,0.061791577167181,-0.038558312413361,-0.033408938637962,5.9584284833161,nan,False,live,nan
03/21/2024-11:22:35.836486 -- 800045,0.3,0.0,0.0,1.0,0.0,0,2.311372334785199,14.694302165809498,200,9422.8057491289,0.040183946686327,-0.02467339110505,0.031368471420446,5.9270600118956,nan,False,live,nan
03/21/2024-11:22:35.868780 -- 800054,0.3,0.0,0.0,1.0,0.0,0,2.1818331676322984,15.146646646386897,202,9603.8205574913,0.087469889415796,0.0083943347843492,0.037323053877903,5.855542133854,nan,False,live,nan
03/21/2024-11:22:35.901225 -- 800067,0.3,0.0,0.0,1.0,0.0,0,1.941881850169798,15.404497018376402,204,10278.117160279,0.064363724771308,0.0049918804441723,0.038671891496402,5.755903808573,nan,False,live,nan
03/21/2024-11:22:35.935078 -- 800061,0.3,0.0,0.0,1.0,0.0,0,1.8242262580368003,15.862045766491503,206,11194.537456446,0.077601139942131,0.025041848851638,-0.0028844376906448,5.7999353518123,nan,False,live,nan
03/21/2024-11:22:35.968423 -- 800060,0.3,0.0,0.0,1.0,0.0,0,1.5869085641577012,16.095055133421,208,11216.75043554,0.063448183430841,-0.02438047287212,0.014221058754886,5.808566663573,nan,False,live,nan
03/21/2024-11:22:36.003134 -- 800071,0.3,0.0,0.0,1.0,0.0,0,1.3899015772064978,16.5145001401374,210,12855.392857143,0.061584007820923,0.024766701940132,0.059410554118333,5.7236769492277,nan,False,live,nan
03/21/2024-11:22:36.034787 -- 800090,0.3,0.0,0.0,1.0,0.0,0,0.8855128791533975,16.953195097032,212,11388.077961672,0.14662793950901,-0.015330669819531,0.089071289539283,5.5703024502158,nan,False,live,nan
03/21/2024-11:22:36.054048 -- 800095,0.3,0.0,0.0,1.0,0.0,0,0.45851253742199916,17.12993411595,213,10320.639808362,0.1390029550519,-0.066412554228889,0.039524823088555,5.5307776271273,nan,False,live,nan
03/21/2024-11:22:36.084357 -- 800095,0.3,0.0,0.0,1.0,0.0,0,0.22642367275349962,17.268410317098002,215,9576.7486933798,0.047683461381452,-0.014872904544423,0.00088219160063217,5.5329260319011,nan,False,live,nan
03/21/2024-11:22:36.117525 -- 800097,0.3,0.0,0.0,1.0,0.0,0,-0.04976841340230109,17.56851201354,217,8285.8867595819,0.077103897079681,-0.0029849572919053,0.040382270587338,5.5179440006913,nan,False,live,nan
03/21/2024-11:22:36.150730 -- 800107,0.3,0.0,0.0,1.0,0.0,0,-0.35833167578970126,17.882619592038004,219,7896.0283101045,0.057912901753728,-0.0085309300372988,0.042919596518499,5.4360374981554,nan,False,live,nan
03/21/2024-11:22:36.172081 -- 800113,0.3,0.0,0.0,1.0,0.0,0,-0.4743892439289006,17.925611114484,220,7824.9477351916,0.038824612586829,-0.013960911052791,0.047392335364703,5.3886451627907,nan,False,live,nan
03/21/2024-11:22:36.201489 -- 800104,0.3,0.0,0.0,1.0,0.0,0,-0.8339516530509012,18.313485346145995,222,7643.8471254355,0.086475496735652,0.025411561718508,-0.048234534968188,5.4621298794709,nan,False,live,nan
03/21/2024-11:22:36.235408 -- 800095,0.3,0.0,0.0,1.0,0.0,0,-1.077812274147302,18.563237352492003,224,7695.9773519164,0.084533292034898,-0.013371328608009,-0.029980469995524,5.534649582713,nan,False,live,nan
03/21/2024-11:22:36.268951 -- 800109,0.3,0.0,0.0,1.0,0.0,0,-1.4959268032464017,18.739336845645006,226,6438.3083623693,0.052544095437499,-0.033546433444874,0.087473169852021,5.4205515150641,nan,False,live,nan
03/21/2024-11:22:36.301589 -- 800116,0.3,0.0,0.0,1.0,0.0,0,-1.8711689553405009,18.953889343874998,228,6685.6328397213,0.094617196825078,0.0025396145937902,0.011034040507696,5.3666726223881,nan,False,live,nan
03/21/2024-11:22:36.333663 -- 800114,0.3,0.0,0.0,1.0,0.0,0,-2.1834287201085,19.102066887878998,230,6066.2412891986,0.037134177209462,-0.011674036868854,-0.014760393026674,5.3835216666438,nan,False,live,nan
03/21/2024-11:22:36.366286 -- 800113,0.3,0.0,0.0,1.0,0.0,0,-2.4385782751911016,19.185967643109002,232,6032.3558362369,0.020605739882977,-0.019629219970131,0.023016108929047,5.3921674494445,nan,False,live,nan
03/21/2024-11:22:36.386450 -- 800123,0.3,0.0,0.0,1.0,0.0,0,-2.6972213193873014,19.213312772576998,233,5870.2643728223,0.074539303636499,-0.044309192272578,0.076245393045889,5.3159220563986,nan,False,live,nan
03/21/2024-11:22:36.418292 -- 800142,0.3,0.0,0.0,1.0,0.0,0,-3.065841611462101,19.355669454378003,235,5912.0396341463,0.039206208356776,-0.022706040713986,0.061892707053616,5.1675044535523,nan,False,live,nan
03/21/2024-11:22:36.451399 -- 800145,0.3,0.0,0.0,1.0,0.0,0,-3.6241995529827005,19.433078653455006,237,6402.4608013937,0.1094109010971,-0.030149607673315,0.00030087229033022,5.1411808468916,nan,False,live,nan
03/21/2024-11:22:36.485198 -- 800132,0.3,0.0,0.0,1.0,0.0,0,-3.8748281240457008,19.681234189377,239,5681.1868466899,0.019060779196351,0.013145417257963,-0.027646692896725,5.2396045406395,nan,False,live,nan
03/21/2024-11:22:36.517708 -- 800136,0.3,0.0,0.0,1.0,0.0,0,-4.273769309968801,19.819204338435,241,5950.1768292683,0.099826675563442,-0.0057371725086215,0.02236759228781,5.2117373731141,nan,False,live,nan
03/21/2024-11:22:36.550745 -- 800152,0.3,0.0,0.0,1.0,0.0,0,-4.726551301000801,19.966697909004004,243,6299.56228223,0.066707399817966,-0.0090786309410873,0.083815553694987,5.0882395184057,nan,False,live,nan
03/21/2024-11:22:36.584348 -- 800159,0.3,0.0,0.0,1.0,0.0,0,-5.1417042123366015,20.165295112764,245,6864.081010453,0.083445268726117,0.036994767040612,0.0049582994372279,5.0314532300087,nan,False,live,nan
03/21/2024-11:22:36.615933 -- 800159,0.3,0.0,0.0,1.0,0.0,0,-5.632835767873502,20.163748105614005,247,6714.6101916376,0.061127418646631,-0.01662745267788,-0.0032662717318571,5.0330929190689,nan,False,live,nan
03/21/2024-11:22:36.651233 -- 800155,0.3,0.0,0.0,1.0,0.0,0,-5.893338535297501,20.138215797309,249,6646.5483449477,0.053394026085038,-0.03692917422844,0.023847916310588,5.0630865253652,nan,False,live,nan
03/21/2024-11:22:36.684457 -- 800169,0.3,0.0,0.0,1.0,0.0,0,-6.420108003345302,20.100734736903,251,6740.9860627178,0.088068439200768,-0.048254539212522,0.071677744002729,4.9484624322897,nan,False,live,nan
03/21/2024-11:22:36.717798 -- 800187,0.3,0.0,0.0,1.0,0.0,0,-6.768255659763901,20.044272103302,253,7430.3105400697,0.057702384033201,-0.011892264330862,0.082511041519931,4.8106809788848,nan,False,live,nan
03/21/2024-11:22:36.749740 -- 800179,0.3,0.0,0.0,1.0,0.0,0,-7.170092579870401,20.262458463252003,255,7121.4220383275,0.070207359978626,0.021300551623919,-0.012744357156123,4.875339397884,nan,False,live,nan
03/21/2024-11:22:36.768419 -- 800182,0.3,0.0,0.0,1.0,0.0,0,-7.3107143129745005,20.141862425373,256,7156.1912020906,0.040285883364827,-0.046800747411308,0.02353464900862,4.8518047488754,nan,False,live,nan
03/21/2024-11:22:36.799435 -- 800185,0.3,0.0,0.0,1.0,0.0,0,-7.793209610653201,20.251439698785,258,7101.3741289199,0.07367896242265,0.027268791409279,0.018688685362421,4.8291283560452,nan,False,live,nan
03/21/2024-11:22:36.833548 -- 800198,0.3,0.0,0.0,1.0,0.0,0,-7.910926909531801,20.193863173910998,260,7357.0949477352,0.020839157952315,-0.0060365241165974,0.034396276496505,4.7212244629344,nan,False,live,nan
03/21/2024-11:22:36.867230 -- 800192,0.3,0.0,0.0,1.0,0.0,0,-8.45372072756079,20.271399139527,262,7141.2465156794,0.07141340477494,-0.0057201818878526,-0.029241681771025,4.7677614183246,nan,False,live,nan
03/21/2024-11:22:36.901028 -- 800185,0.3,0.0,0.0,1.0,0.0,0,-8.717162056879591,20.281762624098,264,6668.443815331,0.045003166999796,0.019202043850076,-0.0369554927967,4.8289700792307,nan,False,live,nan
03/21/2024-11:22:36.934678 -- 800190,0.3,0.0,0.0,1.0,0.0,0,-9.021764517615392,20.25859409577,266,6120.368902439,0.054740452529394,-0.018021087101569,0.059783118227506,4.7907724463563,nan,False,live,nan
03/21/2024-11:22:36.969298 -- 800201,0.3,0.0,0.0,1.0,0.0,0,-9.367433705545531,20.220429377022,268,6804.8275261324,0.039549152331283,-0.00021591130107501,0.017253536612217,4.7028028870345,nan,False,live,nan
03/21/2024-11:22:37.000835 -- 800215,0.3,0.0,0.0,1.0,0.0,0,-9.49061119749585,19.962687331419005,270,6184.8344947735,0.043481579334319,-0.035154436148267,0.049528256466341,4.5904552254897,nan,False,live,nan
03/21/2024-11:22:37.023863 -- 800212,0.3,0.0,0.0,1.0,0.0,0,-9.74185147090413,20.021431165992006,271,6416.8767421603,0.081062704833724,0.028741228076584,-0.021790761331034,4.6122459868207,nan,False,live,nan
03/21/2024-11:22:37.049688 -- 800206,0.3,0.0,0.0,1.0,0.0,0,-10.10377601285883,19.955990961714,273,6167.2295296167,0.040587926342715,-0.036211536688809,-0.018641579455916,4.6602054475134,nan,False,live,nan
03/21/2024-11:22:37.085344 -- 800208,0.3,0.0,0.0,1.0,0.0,0,-10.52257555939461,19.894117996772998,275,6278.2591463415,0.12313238341659,0.011647062514136,0.019755694446121,4.6461511817301,nan,False,live,nan
03/21/2024-11:22:37.117093 -- 800221,0.3,0.0,0.0,1.0,0.0,0,-10.882979904849895,19.886486899794,277,6649.7412891986,0.025114810209469,0.0057397873374925,0.052207241957718,4.5400144825905,nan,False,live,nan
03/21/2024-11:22:37.153140 -- 800227,0.3,0.0,0.0,1.0,0.0,0,-11.39549022142488,19.721964506528998,279,6732.0805749129,0.13364816129411,-0.0094945998924846,0.036834707407566,4.4993507788004,nan,False,live,nan
03/21/2024-11:22:37.185812 -- 800225,0.3,0.0,0.0,1.0,0.0,0,-11.57904361646058,19.675001949459002,281,7094.5300522648,0.0002513598213368,0.0037748840715667,0.0036745263188004,4.5126990790593,nan,False,live,nan
03/21/2024-11:22:37.216725 -- 800234,0.3,0.0,0.0,1.0,0.0,0,-11.78453701940667,19.379963426178,283,7380.1045296167,0.034523288179738,-0.043814294796481,0.043948813299273,4.4423433393873,nan,False,live,nan
03/21/2024-11:22:37.249040 -- 800254,0.3,0.0,0.0,1.0,0.0,0,-11.7730704865857,19.049486920691997,285,7256.0331010453,0.024032590314849,-0.052880316540893,0.095400469836683,4.2877680584504,nan,False,live,nan
03/21/2024-11:22:37.282400 -- 800267,0.3,0.0,0.0,1.0,0.0,0,-11.778794673260911,18.82912825338,287,7472.9786585366,0.017997597376413,-0.031785276099895,0.039335296297548,4.1795081557648,nan,False,live,nan
03/21/2024-11:22:37.315698 -- 800268,0.3,0.0,0.0,1.0,0.0,0,-11.931728183267822,18.520453291964998,289,8059.81228223,0.063302035172972,-0.025995664259147,-0.0094122907584575,4.1758840240583,nan,False,live,nan
03/21/2024-11:22:37.349323 -- 800266,0.3,0.0,0.0,1.0,0.0,0,-12.340468064919571,18.362099230257,291,7909.4682055749,0.11170281834269,0.010726229906389,0.018405024762885,4.1927012990504,nan,False,live,nan
03/21/2024-11:22:37.382160 -- 800283,0.3,0.0,0.0,1.0,0.0,0,-12.602761923693482,18.169026245649,293,7727.8475609756,0.0028324173441748,-0.011226762465679,0.085972311219154,4.0572783120005,nan,False,live,nan
03/21/2024-11:22:37.404717 -- 800284,0.3,0.0,0.0,1.0,0.0,0,-12.590518467918871,18.140682936579005,294,7448.1585365854,0.0025582913713956,-0.00996854013879,0.0077273174872925,4.0495509945132,nan,False,live,nan
03/21/2024-11:22:37.433307 -- 800275,0.3,0.0,0.0,1.0,0.0,0,-12.720715430224471,18.205970848790997,296,7841.8575783972,-0.001700271025384,0.027902326327781,-0.061954919387512,4.1173598914661,nan,False,live,nan
03/21/2024-11:22:37.465847 -- 800247,0.3,0.0,0.0,1.0,0.0,0,-12.961098759285841,18.411505140270002,298,8695.3898083624,0.028854066411258,0.050307931836703,-0.1154880875175,4.3428810983163,nan,False,live,nan
03/21/2024-11:22:37.484523 -- 800231,0.3,0.0,0.0,1.0,0.0,0,-13.14193542250689,18.431771341785,299,9182.7016550523,0.055442696869404,0.024692631867743,-0.12422516061072,4.467106258927,nan,False,live,nan
03/21/2024-11:22:37.516498 -- 800202,0.3,0.0,0.0,1.0,0.0,0,-13.365556969783892,18.728063340257997,301,9010.5091463415,0.048153566121978,0.037124548407938,-0.11567800584324,4.6947104682409,nan,False,live,nan
03/21/2024-11:22:37.548695 -- 800183,0.3,0.0,0.0,1.0,0.0,0,-13.76643116301261,18.890474996805004,303,9965.4847560976,0.06593481591126,0.023769105075415,-0.057073448335338,4.8391885643706,nan,False,live,nan
03/21/2024-11:22:37.584924 -- 800172,0.3,0.0,0.0,1.0,0.0,0,-14.1988330442496,19.102976501865,305,10192.088850174,0.08155726678842,0.023368080615903,-0.047266252105043,4.9247782179599,nan,False,live,nan
03/21/2024-11:22:37.618520 -- 800166,0.3,0.0,0.0,1.0,0.0,0,-14.319055061430602,19.13093083677,307,10414.614111498,-0.031220959963796,-0.0066965620669036,-0.019042160771119,4.972948729411,nan,False,live,nan
03/21/2024-11:22:37.649609 -- 800169,0.3,0.0,0.0,1.0,0.0,0,-14.8808007441678,19.308780730365,309,10945.779616725,0.09752041812472,-0.031164443816004,0.038662458215156,4.9498678317316,nan,False,live,nan
03/21/2024-11:22:37.685233 -- 800176,0.3,0.0,0.0,1.0,0.0,0,-15.233066266883402,19.423292282360997,311,11581.010452962,0.040010599245736,-0.012507239366989,0.0019128361641344,4.894535380463,nan,False,live,nan
03/21/2024-11:22:37.717770 -- 800176,0.3,0.0,0.0,1.0,0.0,0,-15.675227840684101,19.570670973767996,313,11544.104965157,0.10815194401711,-0.0087961649197106,-0.0085017943498599,4.8948308999225,nan,False,live,nan
03/21/2024-11:22:37.750128 -- 800160,0.3,0.0,0.0,1.0,0.0,0,-16.186439383474802,19.549258321014,315,11493.75087108,0.060575917618695,-0.0078169302341985,-0.055276826291566,5.0215403403665,nan,False,live,nan
03/21/2024-11:22:37.783611 -- 800156,0.3,0.0,0.0,1.0,0.0,0,-16.3873593184884,19.551878931501,317,11066.266550523,0.021505142970899,-0.024226386276095,-0.019038723965165,5.057524855661,nan,False,live,nan
03/21/2024-11:22:37.816679 -- 800163,0.3,0.0,0.0,1.0,0.0,0,-16.9051676796531,19.587520613252998,319,10529.532229965,0.076969975597023,-0.021560960806937,0.028734404304607,5.0027954562292,nan,False,live,nan
03/21/2024-11:22:37.851050 -- 800175,0.3,0.0,0.0,1.0,0.0,0,-17.0709074258421,19.485470505758997,321,9873.6180313589,0.027700581176489,0.001276928819143,0.052943528136605,4.9034810454118,nan,False,live,nan
03/21/2024-11:22:37.884364 -- 800174,0.3,0.0,0.0,1.0,0.0,0,-17.5827232079649,19.518312295563,323,8690.5675087108,0.094254717187163,-5.627756158526e-05,-0.01871157186332,4.9104901712981,nan,False,live,nan
03/21/2024-11:22:37.918587 -- 800167,0.3,0.0,0.0,1.0,0.0,0,-17.9364525316671,19.482713733852002,325,8087.106271777,0.054289924521463,-0.017993733245187,-0.020740399075165,4.9689213467728,nan,False,live,nan
03/21/2024-11:22:37.951857 -- 800172,0.3,0.0,0.0,1.0,0.0,0,-18.2703456901725,19.526371546032003,327,6929.6337108014,0.067111513660841,-0.0083551454653297,0.03205462007505,4.9296057039047,nan,False,live,nan
03/21/2024-11:22:37.983642 -- 800185,0.3,0.0,0.0,1.0,0.0,0,-18.644964423732603,19.589568837303,329,6611.9817073171,0.069674122612598,-0.0039801529331217,0.036088485062731,4.8284489756723,nan,False,live,nan
03/21/2024-11:22:38.017448 -- 800184,0.3,0.0,0.0,1.0,0.0,0,-19.112032126338,19.581108667712996,331,5947.3867595819,0.085697581876316,-0.0045844943808291,-0.028717769666454,4.8368709046087,nan,False,live,nan
03/21/2024-11:22:38.051624 -- 800171,0.3,0.0,0.0,1.0,0.0,0,-19.367711736999603,19.656390613719005,333,5746.9285714286,0.025208225615847,0.015084193470926,-0.051102733890014,4.9398758497556,nan,False,live,nan
03/21/2024-11:22:38.083806 -- 800176,0.3,0.0,0.0,1.0,0.0,0,-19.812018618751203,19.637352098237997,335,5995.6772648084,0.082294651601274,-0.028704928229648,0.041171997460968,4.8935304315299,nan,False,live,nan
03/21/2024-11:22:38.119000 -- 800190,0.3,0.0,0.0,1.0,0.0,0,-20.04347998731,19.55373866766,337,5766.6816202091,0.011549095603833,-0.027688938334606,0.048295399968215,4.7902513628224,nan,False,live,nan
03/21/2024-11:22:38.152977 -- 800206,0.3,0.0,0.0,1.0,0.0,0,-20.5675858723683,19.448774460288,339,5544.3053135889,0.083568894498084,-0.023915807604258,0.059178004929144,4.6591103763282,nan,False,live,nan
03/21/2024-11:22:38.185044 -- 800209,0.3,0.0,0.0,1.0,0.0,0,-20.9461590842943,19.395425331935996,341,5708.831445993,0.082048325293176,-0.016604167053192,0.008753656237499,4.633907269048,nan,False,live,nan
03/21/2024-11:22:38.218506 -- 800214,0.3,0.0,0.0,1.0,0.0,0,-21.3092067150942,19.284524901554995,343,5715.1768292683,0.076096198528793,-0.001464354679153,0.021891110959961,4.6009901444739,nan,False,live,nan
03/21/2024-11:22:38.251837 -- 800222,0.3,0.0,0.0,1.0,0.0,0,-21.633221552099698,19.218104460740996,345,6439.4651567944,0.047768530960677,-0.0094688721166208,0.048971303746034,4.5326010607342,nan,False,live,nan
03/21/2024-11:22:38.285676 -- 800226,0.3,0.0,0.0,1.0,0.0,0,-21.9003906058473,19.083431127477006,347,6631.8162020906,0.067575174367224,0.0035038794649731,0.010029868976332,4.5045811198349,nan,False,live,nan
03/21/2024-11:22:38.319025 -- 800227,0.3,0.0,0.0,1.0,0.0,0,-22.2365089022433,18.858631178106002,349,7282.0365853659,0.04089359869442,-0.033839015400356,0.0083781882167526,4.4978164392589,nan,False,live,nan
03/21/2024-11:22:38.353167 -- 800232,0.3,0.0,0.0,1.0,0.0,0,-22.5167622507495,18.707101006452,351,7944.9359756098,0.051412890621733,-0.0018785388361539,0.025592470058662,4.4601955321639,nan,False,live,nan
03/21/2024-11:22:38.383495 -- 800253,0.3,0.0,0.0,1.0,0.0,0,-22.7453516540796,18.396421732973998,353,8816.7709059233,0.038677633865564,-0.027864770392452,0.10271663547717,4.2921733561204,nan,False,live,nan
03/21/2024-11:22:38.416619 -- 800272,0.3,0.0,0.0,1.0,0.0,0,-22.799412038780403,18.022706121753004,355,8950.3601916376,0.028509115879531,-0.031389477026949,0.061980477931388,4.146890661002,nan,False,live,nan
03/21/2024-11:22:38.450418 -- 800267,0.3,0.0,0.0,1.0,0.0,0,-23.2348044114432,18.079815432306,357,8695.4067944251,0.068186214138849,0.023800017708059,-0.030848864006708,4.1822048213153,nan,False,live,nan
03/21/2024-11:22:38.484419 -- 800257,0.3,0.0,0.0,1.0,0.0,0,-23.538060631542002,17.856004697072997,359,8445.5383275261,0.081073312929939,-0.01858106209577,-0.03045474120156,4.262866062287,nan,False,live,nan
03/21/2024-11:22:38.517680 -- 800258,0.3,0.0,0.0,1.0,0.0,0,-23.9218334424231,17.661482809467003,361,7902.7608885017,0.06675988069481,-0.0052555702298922,0.01304698998279,4.2507460533739,nan,False,live,nan
03/21/2024-11:22:38.540844 -- 800269,0.3,0.0,0.0,1.0,0.0,0,-24.0517322254869,17.567510992998002,362,8010.3715156794,0.053048550622426,-0.0065879919785282,0.082151366624649,4.1685946867493,nan,False,live,nan
03/21/2024-11:22:38.565423 -- 800280,0.3,0.0,0.0,1.0,0.0,0,-24.5144738870508,17.263613635176,364,8389.8898083624,0.1004331000473,0.02208221019415,0.050447915401708,4.0831937949398,nan,False,live,nan
03/21/2024-11:22:38.584299 -- 800278,0.3,0.0,0.0,1.0,0.0,0,-24.8169217810191,17.183230199232,365,7030.2068815331,0.097505715867849,0.037075107000535,-0.012143689682934,4.0953374846227,nan,False,live,nan
03/21/2024-11:22:38.618790 -- 800284,0.3,0.0,0.0,1.0,0.0,0,-25.048837078086898,16.874239390542,367,6759.7783101045,0.090295455320806,-0.040328240810605,0.0055688728388585,4.0519989221377,nan,False,live,nan
03/21/2024-11:22:38.653227 -- 800285,0.3,0.0,0.0,1.0,0.0,0,-25.4508953762163,16.4651180709645,369,6245.9804006969,0.042719723646932,-0.017903382756492,0.01917697024159,4.0370351250777,nan,False,live,nan
03/21/2024-11:22:38.684314 -- 800286,0.3,0.0,0.0,1.0,0.0,0,-25.7628831360882,16.310109160269,371,6320.0479094077,0.09669503270854,0.0065323036378606,-0.0014904507242566,4.0298328432535,nan,False,live,nan
03/21/2024-11:22:38.724490 -- 800285,0.3,0.0,0.0,1.0,0.0,0,-26.0534874220764,16.235523387087596,373,6366.5836236934,0.0030138530674365,0.013694549679881,-0.0068473465571112,4.0407416550778,nan,False,live,nan
03/21/2024-11:22:38.751052 -- 800275,0.3,0.0,0.0,1.0,0.0,0,-26.501415623016598,15.935127155736302,375,6460.7543554007,0.1355829745095,0.0035475252617751,-0.051496951192056,4.1194659789855,nan,False,live,nan
03/21/2024-11:22:38.784765 -- 800282,0.3,0.0,0.0,1.0,0.0,0,-26.8410501922194,15.5876525418222,377,6376.6681184669,0.07679946756084,0.0004835032184915,0.028422430041617,4.0639058738949,nan,False,live,nan
03/21/2024-11:22:38.818548 -- 800287,0.3,0.0,0.0,1.0,0.0,0,-27.441992384211602,15.234351305572199,379,6329.7656794425,0.10363612061964,0.015722918555436,0.027159243479429,4.0221044938171,nan,False,live,nan
03/21/2024-11:22:38.852987 -- 800283,0.3,0.0,0.0,1.0,0.0,0,-27.728985155700002,15.025407808694998,381,6499.8445121951,0.078529900936804,0.015415882708975,-0.036534541590069,4.0560991630968,nan,False,live,nan
03/21/2024-11:22:38.885662 -- 800283,0.3,0.0,0.0,1.0,0.0,0,-27.741927427709697,14.8338525179706,383,6678.8719512195,-0.016385445752073,-0.041404547645519,0.03382435643077,4.0603942416725,nan,False,live,nan
03/21/2024-11:22:38.917669 -- 800291,0.3,0.0,0.0,1.0,0.0,0,-28.3150770203937,14.4308939600034,385,7431.4047930283,0.12422391750977,0.034468160575193,0.032033562465106,3.997313445604,nan,False,live,nan
03/21/2024-11:22:38.952662 -- 800300,0.3,0.0,0.0,1.0,0.0,0,-28.1170078024251,14.228169605618097,387,6843.6972996516,-0.010374374329034,-0.06033011864981,0.073407773544049,3.8565926772838,nan,False,live,nan
03/21/2024-11:22:38.984947 -- 800300,0.3,0.0,0.0,1.0,0.0,0,-28.429275963996297,14.2217012855253,389,7568.5039198606,0.023640177486306,0.061806662320489,-0.046801438074244,3.8775354085404,nan,False,live,nan
03/21/2024-11:22:39.019797 -- 800300,0.3,0.0,0.0,1.0,0.0,0,-28.7305520369679,13.689888348403501,391,8760.8680313589,0.1269223810278,-0.02846804083306,0.0027375277569567,3.875537701054,nan,False,live,nan
03/21/2024-11:22:39.051760 -- 800292,0.3,0.0,0.0,1.0,0.0,0,-28.901511151192203,13.740407034379801,393,9119.8027003484,-0.0082641213412469,0.026552081073185,-0.052096575563529,3.9853658539293,nan,False,live,nan
03/21/2024-11:22:39.084872 -- 800300,0.3,0.0,0.0,1.0,0.0,0,-29.0864664623127,13.325947170646197,395,9587.0448606272,0.060971905779353,-0.020584221367475,0.024660003420562,3.8914019854681,nan,False,live,nan
03/21/2024-11:22:39.118018 -- 800300,0.3,0.0,0.0,1.0,0.0,0,-29.073985604677503,13.2752493141888,397,9048.9503484321,0.036233703750973,-0.044367731518581,0.072288368893819,3.8200906751611,nan,False,live,nan
03/21/2024-11:22:39.152795 -- 800300,0.3,0.0,0.0,1.0,0.0,0,-29.2383612618303,13.172433338052299,399,9250.4472996516,-0.014374477475558,0.043230854050812,-0.016008684803117,3.7655575566789,nan,False,live,nan
03/21/2024-11:22:39.186204 -- 800300,0.3,0.0,0.0,1.0,0.0,0,-29.491106899181702,12.892549689657903,401,8725.5618466899,0.10292897743583,-0.0039618931847865,0.0049525164083389,3.7483596062473,nan,False,live,nan
03/21/2024-11:22:39.218500 -- 800300,0.3,0.0,0.0,1.0,0.0,0,-29.6182679398362,12.762033233264999,403,9171.8754355401,-0.00073054433442865,0.032298330666867,-0.036426418009418,3.8602492123908,nan,False,live,nan
03/21/2024-11:22:39.251302 -- 800300,0.3,0.0,0.0,1.0,0.0,0,-30.0128443692519,12.323014470613499,405,9261.4207317073,0.11992793181592,-0.011639963405153,0.0080807807943107,3.8599259717923,nan,False,live,nan
03/21/2024-11:22:39.284748 -- 800300,0.3,0.0,0.0,1.0,0.0,0,-30.147716006594997,12.152104650056698,407,9816.0722996516,0.0062179520743877,0.020946757285448,0.027719394751182,3.7698161413048,nan,False,live,nan
03/21/2024-11:22:39.317409 -- 800300,0.3,0.0,0.0,1.0,0.0,0,-30.407369712406805,11.957038327123803,409,9868.7121080139,0.039697034897261,0.020378472956359,0.02624385135584,3.6932219322228,nan,False,live,nan
03/21/2024-11:22:39.336206 -- 800300,0.3,0.0,0.0,1.0,0.0,0,-30.549907397377503,11.812996521616798,410,10155.459930314,0.066063884801401,0.014100321696519,-0.036481840062621,3.7297037722854,nan,False,live,nan
03/21/2024-11:22:39.369728 -- 800300,0.3,0.0,0.0,1.0,0.0,0,-30.841874352018003,11.376935904492901,412,10948.516114983,0.088852155700315,-0.01333472414915,-0.046899948664267,3.8138821666279,nan,False,live,nan
03/21/2024-11:22:39.402862 -- 800300,0.3,0.0,0.0,1.0,0.0,0,-30.9356626742712,11.325760063883996,414,11270.952961672,0.034641983862602,0.0039811113470787,-0.03146868602539,3.8874109895517,nan,False,live,nan
03/21/2024-11:22:39.435245 -- 800300,0.3,0.0,0.0,1.0,0.0,0,-30.936601947986702,10.904401925502901,416,10797.301829268,0.072988372887006,-0.04714944146044,0.090756039137496,3.7486177791565,nan,False,live,nan
03/21/2024-11:22:39.467771 -- 800300,0.3,0.0,0.0,1.0,0.0,0,-30.8584697504838,10.6383677290455,418,10828.802700348,0.022012003721695,0.0022609620912627,0.11428958356285,3.555045355848,nan,False,live,nan
03/21/2024-11:22:39.503574 -- 800300,0.3,0.0,0.0,1.0,0.0,0,-30.8833144140117,10.324545730817396,420,10865.697299652,0.069893162408084,0.0055645461630113,0.017839542818534,3.4663552121434,nan,False,live,nan
03/21/2024-11:22:39.534810 -- 800300,0.3,0.0,0.0,1.0,0.0,0,-31.1051864335953,9.9791278611663,422,10419.302264808,0.064883520069044,0.02416075561798,-0.053397842986727,3.5879672949869,nan,False,live,nan
03/21/2024-11:22:39.569527 -- 800300,0.3,0.0,0.0,1.0,0.0,0,-31.2372274668825,9.5932929649473,424,9992.5226480836,0.077977480653949,-0.0097087113487878,0.0023736692686458,3.6366482322901,nan,False,live,nan
03/21/2024-11:22:39.602869 -- 800300,0.3,0.0,0.0,1.0,0.0,0,-31.332723636973803,9.394842725554197,426,9602.9690766551,0.02300122225286,-0.0087697032561699,0.05862567246407,3.5475151363682,nan,False,live,nan
03/21/2024-11:22:39.635852 -- 800300,0.3,0.0,0.0,1.0,0.0,0,-31.302093553690803,9.107552497446,428,9774.5195993031,0.072933899992492,-0.0086222681811598,0.034578787594531,3.4645421299717,nan,False,live,nan
03/21/2024-11:22:39.666576 -- 800300,0.3,0.0,0.0,1.0,0.0,0,-31.5711487765965,8.826532795152898,430,8263.756097561,0.045547247353756,0.011678919582353,-0.034840762374723,3.5426834027545,nan,False,live,nan
03/21/2024-11:22:39.685741 -- 800300,0.3,0.0,0.0,1.0,0.0,0,-31.692438255282298,8.7631624230744,431,8134.4346689895,0.035961978404826,0.028070081003199,-0.050949731088472,3.593633133843,nan,False,live,nan
03/21/2024-11:22:39.717912 -- 800300,0.3,0.0,0.0,1.0,0.0,0,-31.9819373237274,8.6323735345677,433,7053.9446864111,0.056599418396745,0.028320162322794,-0.052948114343338,3.7192787386493,nan,False,live,nan
03/21/2024-11:22:39.752229 -- 800300,0.3,0.0,0.0,1.0,0.0,0,-32.141691057334505,8.322402067311598,435,6582.9412020906,0.063574233302146,-0.010098799223274,-0.014367669917868,3.7830318794952,nan,False,live,nan
03/21/2024-11:22:39.785799 -- 800300,0.3,0.0,0.0,1.0,0.0,0,-32.3615236544592,8.066085929048098,437,6197.2791811847,0.046952489781914,0.027431164622646,0.025330138179172,3.7397654117949,nan,False,live,nan
03/21/2024-11:22:39.814836 -- 800300,0.3,0.0,0.0,1.0,0.0,0,-32.545677689025,8.006224895459399,439,6343.2425958188,0.032345759942295,0.0093163215599615,0.0055567699803771,3.7132616621623,nan,False,live,nan
03/21/2024-11:22:39.837961 -- 800300,0.3,0.0,0.0,1.0,0.0,0,-32.7419919052509,7.914879446553,440,5656.9795296167,0.061725577275514,0.037413557867053,-0.037416906573828,3.7506785687361,nan,False,live,nan
03/21/2024-11:22:39.866733 -- 800300,0.3,0.0,0.0,1.0,0.0,0,-32.949262677187804,7.566511985713499,442,5196.2617595819,0.089949078557774,-0.030867897182032,-0.048784010602763,3.8332560310095,nan,False,live,nan
03/21/2024-11:22:39.900894 -- 800300,0.3,0.0,0.0,1.0,0.0,0,-33.1297921711803,7.3956609095309975,444,4898.5008710801,0.039788992157364,0.012880282384101,-0.043470070418712,3.9068358922389,nan,False,live,nan
03/21/2024-11:22:39.919301 -- 800300,0.3,0.0,0.0,1.0,0.0,0,-33.2598724428666,7.209758967139797,445,4884.3915505226,0.074984368180899,-0.0099172965538548,0.046413436739442,3.8604224554994,nan,False,live,nan
03/21/2024-11:22:39.950719 -- 800300,0.3,0.0,0.0,1.0,0.0,0,-33.3922134799884,6.895123646641798,447,4603.2225609756,0.047107267081565,0.010260816387245,0.0013499162671001,3.7910297962571,nan,False,live,nan
03/21/2024-11:22:39.985198 -- 800300,0.3,0.0,0.0,1.0,0.0,0,-33.758374319257804,6.5638236745416005,449,5153.456445993,0.0569321607805,-0.011163619414673,-0.02169653168594,3.8244977782611,nan,False,live,nan
03/21/2024-11:22:40.016801 -- 800294,0.3,0.0,0.0,1.0,0.0,0,-34.0586699267523,6.475981798995901,451,5581.0905923345,0.044191814131606,0.042183235173458,-0.087922197143375,3.9706887212632,nan,False,live,nan
03/21/2024-11:22:40.052784 -- 800291,0.3,0.0,0.0,1.0,0.0,0,-34.4818763206542,6.125858379012,453,5385.293989547,0.068825672049892,-0.019000819768203,0.00022063504549257,3.9959441446174,nan,False,live,nan
03/21/2024-11:22:40.086236 -- 800296,0.3,0.0,0.0,1.0,0.0,0,-34.8134604507879,5.8881070380419995,455,5889.7878919861,0.055266411721377,0.020375408342021,0.011952005429779,3.9542089488456,nan,False,live,nan
03/21/2024-11:22:40.119637 -- 800300,0.3,0.0,0.0,1.0,0.0,0,-35.0818914357654,5.6083914412794,457,6348.7391114983,0.067398635562463,-0.018011547603318,-0.001034500717033,3.9156789315968,nan,False,live,nan
03/21/2024-11:22:40.151577 -- 800290,0.3,0.0,0.0,1.0,0.0,0,-35.407021678053596,5.430462205481698,459,6537.6602787456,0.036581049261973,0.01224177900928,-0.060533118687694,4.003079116032,nan,False,live,nan
03/21/2024-11:22:40.184843 -- 800282,0.3,0.0,0.0,1.0,0.0,0,-35.7332352266418,5.294033904542699,461,7105.4555749129,0.066653918512961,0.0012144925237323,-0.037873851224049,4.0653292442717,nan,False,live,nan
03/21/2024-11:22:40.218821 -- 800287,0.3,0.0,0.0,1.0,0.0,0,-35.9470107858729,4.999844362974299,463,7739.3858885017,0.051254002329045,-0.044437076595976,0.03230230554507,4.0262604300907,nan,False,live,nan
03/21/2024-11:22:40.251846 -- 800289,0.3,0.0,0.0,1.0,0.0,0,-36.3515687647959,4.845378123928798,465,8409.6254355401,0.057241518053836,0.017349358165885,0.005082554208807,4.0114563645617,nan,False,live,nan
03/21/2024-11:22:40.286329 -- 800287,0.3,0.0,0.0,1.0,0.0,0,-36.5350832597406,4.562263984544698,467,8524.0692508711,0.065481008792015,-0.0044035970361844,-0.012012524634102,4.0212968041963,nan,False,live,nan
03/21/2024-11:22:40.319492 -- 800271,0.3,0.0,0.0,1.0,0.0,0,-36.898447828861805,4.2700565737959,469,8375.8784843206,0.077589725429611,-0.0085688728172207,-0.039830029905194,4.1514673515053,nan,False,live,nan
03/21/2024-11:22:40.351876 -- 800274,0.3,0.0,0.0,1.0,0.0,0,-37.1777107107309,3.953166189412199,471,7491.650261324,0.10149763399576,-0.020881361358832,0.0086120427566232,4.1271532748982,nan,False,live,nan
03/21/2024-11:22:40.384964 -- 800278,0.3,0.0,0.0,1.0,0.0,0,-37.3719002982237,3.773515240122899,473,7231.9965156794,0.057967559667025,-0.017904985737725,0.041026484149424,4.0925414094461,nan,False,live,nan
03/21/2024-11:22:40.418241 -- 800280,0.3,0.0,0.0,1.0,0.0,0,-37.597654654995,3.6083975573906972,475,6879.7517421603,0.037716091897642,0.0021368069463985,-0.014343222968797,4.083602141794,nan,False,live,nan
03/21/2024-11:22:40.453077 -- 800276,0.3,0.0,0.0,1.0,0.0,0,-37.9597515025974,3.3134787706364985,477,6408.6489547038,0.096599670994349,-0.019079910609414,-0.020254155173335,4.1153937495874,nan,False,live,nan
03/21/2024-11:22:40.485595 -- 800268,0.3,0.0,0.0,1.0,0.0,0,-38.4608585733732,3.2252533120158002,479,6995.6080139373,0.029509034899736,0.051324588192729,-0.024927515890186,4.1779984031807,nan,False,live,nan
03/21/2024-11:22:40.507549 -- 800268,0.3,0.0,0.0,1.0,0.0,0,-38.5235958639366,3.1253164291142976,480,6774.2103658537,0.035028122193255,-0.017890657621175,0.0072120893858267,4.1707863137948,nan,False,live,nan
03/21/2024-11:22:40.535991 -- 800280,0.3,0.0,0.0,1.0,0.0,0,-38.7934414715751,2.7625328979671995,482,5945.1821350763,0.071718461001928,-0.010590708751614,0.037729080798855,4.0787984716586,nan,False,live,nan
03/21/2024-11:22:40.569766 -- 800281,0.3,0.0,0.0,1.0,0.0,0,-38.9708608087671,2.7448906187139013,484,6262.2513066202,0.039054891635051,-0.0022956150675597,0.019726300697559,4.0754055682159,nan,False,live,nan
03/21/2024-11:22:40.602562 -- 800276,0.3,0.0,0.0,1.0,0.0,0,-39.254136932955,2.6362384296659993,486,5725.8636759582,0.038200978684131,0.022813528880453,-0.044956297445675,4.1080009140525,nan,False,live,nan
03/21/2024-11:22:40.634119 -- 800263,0.3,0.0,0.0,1.0,0.0,0,-39.6424038070125,2.3905966753809,488,5490.137254902,0.096169638185721,-0.020235157909953,-0.043313851235416,4.2102732484402,nan,False,live,nan
03/21/2024-11:22:40.670206 -- 800253,0.3,0.0,0.0,1.0,0.0,0,-39.9662576988663,2.2301502500819996,490,5419.385620915,0.050788274643385,0.012354037286544,-0.044406677836473,4.2899878479382,nan,False,live,nan
03/21/2024-11:22:40.700791 -- 800266,0.3,0.0,0.0,1.0,0.0,0,-40.2032041144548,1.8876680237732995,492,5700.5770905923,0.045705633503803,-0.054928365081505,0.061694153646093,4.1888886572809,nan,False,live,nan
03/21/2024-11:22:40.724223 -- 800266,0.3,0.0,0.0,1.0,0.0,0,-40.339361711552996,1.983708073974297,493,5145.3507853403,0.023278285374379,0.050426709796087,0.0010042182359947,4.1878844390449,nan,False,live,nan
03/21/2024-11:22:40.755653 -- 800266,0.3,0.0,0.0,1.0,0.0,0,-40.5554958399273,1.9468558231521005,495,5561.0753484321,0.0078065443233583,-0.00081582562625865,0.016874662812864,4.1865388738458,nan,False,live,nan
03/21/2024-11:22:40.786096 -- 800252,0.3,0.0,0.0,1.0,0.0,0,-40.7955373031148,2.0604002956551,497,5735.5204882302,0.051987654392969,0.044885569264196,-0.073744937576017,4.2986144292488,nan,False,live,nan
03/21/2024-11:22:40.816462 -- 800242,0.3,0.0,0.0,1.0,0.0,0,-41.040759598475695,1.9519128621626987,499,6268.4483660131,0.036792295587843,0.004673023527309,-0.032638867176245,4.3754254088595,nan,False,live,nan
03/21/2024-11:22:40.835508 -- 800232,0.3,0.0,0.0,1.0,0.0,0,-41.1808841004846,2.069956106321099,500,6364.0226579521,0.033231744631323,0.051259633349703,-0.082846648062735,4.4582720569222,nan,False,live,nan
03/21/2024-11:22:40.868182 -- 800223,0.3,0.0,0.0,1.0,0.0,0,-41.285710941630605,2.139018747692999,502,6846.7527256869,-0.010357302397278,0.00038200761782324,-0.015998958744461,4.5258191889294,nan,False,live,nan
03/21/2024-11:22:40.901354 -- 800210,0.3,0.0,0.0,1.0,0.0,0,-41.4445466639136,2.2506967109510985,504,6936.5294374182,0.03253809227637,0.042671484918345,-0.059651967944755,4.6270833599098,nan,False,live,nan
03/21/2024-11:22:40.934304 -- 800200,0.3,0.0,0.0,1.0,0.0,0,-41.6508936499866,2.4893983011332974,506,7388.722875817,0.032746660450307,0.041548872596441,-0.053871588424024,4.7115170781486,nan,False,live,nan
03/21/2024-11:22:40.968095 -- 800184,0.3,0.0,0.0,1.0,0.0,0,-41.7515537384856,2.8680842579732992,508,8018.7530541012,0.0059756735936257,0.061718284901606,-0.054181004035945,4.8313784923108,nan,False,live,nan
03/21/2024-11:22:41.000755 -- 800172,0.3,0.0,0.0,1.0,0.0,0,-42.0366717889056,3.0237377933411995,510,8878.8115183246,0.066469609741772,-0.00010881951912433,-0.053163108033572,4.9264992307519,nan,False,live,nan
03/21/2024-11:22:41.032387 -- 800169,0.3,0.0,0.0,1.0,0.0,0,-42.4000259839386,3.2713654021769987,512,8657.2301656495,0.072653808112653,0.027188050944751,-0.031264721068011,4.9540239437736,nan,False,live,nan
03/21/2024-11:22:41.051829 -- 800164,0.3,0.0,0.0,1.0,0.0,0,-42.5336712708546,3.476108778769797,513,8434.6657940663,0.060645512448885,0.054453751218634,-0.038407237241607,4.9924311810153,nan,False,live,nan
03/21/2024-11:22:41.083770 -- 800154,0.3,0.0,0.0,1.0,0.0,0,-42.868837995906595,3.6034188162758998,515,8279.0078499782,0.066382522099603,-0.0020346323460118,-0.054741557796251,5.0714615490352,nan,False,live,nan
03/21/2024-11:22:41.112420 -- 800146,0.3,0.0,0.0,1.0,0.0,0,-43.1528630087946,3.876609241259102,517,8678.355303361,0.049136726549331,0.017966189301417,-0.0052217685319784,5.1328195343614,nan,False,live,nan
03/21/2024-11:22:41.152845 -- 800144,0.3,0.0,0.0,1.0,0.0,0,-43.5147830891046,4.0523456605913974,519,8702.1602787456,0.076006460456648,0.0073276615522506,-0.0023022927525085,5.1482242107362,nan,False,live,nan
03/21/2024-11:22:41.184099 -- 800143,0.3,0.0,0.0,1.0,0.0,0,-43.845152292810596,4.354794074165399,521,9773.6097560976,0.084170357096478,0.0082432360224309,-0.013422996379138,5.1587701484065,nan,False,live,nan
03/21/2024-11:22:41.217061 -- 800131,0.3,0.0,0.0,1.0,0.0,0,-44.157754842555605,4.6042429052540985,523,10216.846422339,0.036614663442467,0.021233523155245,-0.073843597819932,5.2522447399164,nan,False,live,nan
03/21/2024-11:22:41.248160 -- 800123,0.3,0.0,0.0,1.0,0.0,0,-44.6260842383916,4.967110992233399,525,10340.51416122,0.082611571284944,0.0040739137560203,-0.015468001680625,5.314105876574,nan,False,live,nan
03/21/2024-11:22:41.267493 -- 800125,0.3,0.0,0.0,1.0,0.0,0,-44.760204055668595,4.989518476221297,526,9758.1010893246,0.041213674259165,-0.018866171797121,0.013765591497442,5.3003402850766,nan,False,live,nan
03/21/2024-11:22:41.302964 -- 800129,0.3,0.0,0.0,1.0,0.0,0,-45.171255569085595,5.326597136344196,528,9526.8244773519,0.10394362863908,0.020202105186692,0.019947406117816,5.2666883394153,nan,False,live,nan
03/21/2024-11:22:41.337647 -- 800123,0.3,0.0,0.0,1.0,0.0,0,-45.5071364312316,5.568723010121998,530,8718.0618466899,0.03489454890907,-0.00016988265403143,-0.051401422523672,5.3167734406627,nan,False,live,nan
03/21/2024-11:22:41.368239 -- 800110,0.3,0.0,0.0,1.0,0.0,0,-45.7029679584156,5.690752024264198,532,8858.5422473868,0.036799767064679,0.0024246305959994,-0.023153923996736,5.4190380702337,nan,False,live,nan
03/21/2024-11:22:41.400713 -- 800116,0.3,0.0,0.0,1.0,0.0,0,-46.2113929017486,5.9810467617627,534,8036.3166376307,0.057825445002172,0.0037511845721413,0.038045131593072,5.3700675797707,nan,False,live,nan
03/21/2024-11:22:41.433732 -- 800129,0.3,0.0,0.0,1.0,0.0,0,-46.574002589433604,6.254697655257898,536,7622.6550522648,0.094302218616894,-0.00053197750008405,0.023877923005285,5.2642083872581,nan,False,live,nan
03/21/2024-11:22:41.467411 -- 800132,0.3,0.0,0.0,1.0,0.0,0,-46.995542458584595,6.5902425275360965,538,7253.9446864111,0.055647709244018,0.02427793825752,-0.03538106392976,5.2454604862972,nan,False,live,nan
03/21/2024-11:22:41.502572 -- 800119,0.3,0.0,0.0,1.0,0.0,0,-47.2389767398206,6.741358279805697,540,7826.9956445993,0.046087355208122,-0.015335361241192,-0.046359221988691,5.3471409340403,nan,False,live,nan
03/21/2024-11:22:41.534896 -- 800120,0.3,0.0,0.0,1.0,0.0,0,-47.6093734209756,6.977057318861098,542,8072.4786585366,0.097037208095082,0.025456088149312,0.017993941686682,5.3396557098206,nan,False,live,nan
03/21/2024-11:22:41.567307 -- 800131,0.3,0.0,0.0,1.0,0.0,0,-48.101965540098604,7.117241036668199,544,8552.5740418118,0.055011433388448,-0.071144262890031,0.053820433630754,5.2520789369626,nan,False,live,nan
03/21/2024-11:22:41.603301 -- 800132,0.3,0.0,0.0,1.0,0.0,0,-48.4390183640946,7.458555476564099,546,8750.2077526132,0.088335725255361,0.059180125543513,-0.0305778907009,5.2395841354537,nan,False,live,nan
03/21/2024-11:22:41.636137 -- 800119,0.3,0.0,0.0,1.0,0.0,0,-48.5900068256556,7.703855851928699,548,9388.4198606272,0.013906173067749,-0.0066924264826158,-0.02640750872125,5.3426183582753,nan,False,live,nan
03/21/2024-11:22:41.669408 -- 800118,0.3,0.0,0.0,1.0,0.0,0,-48.9711681980616,8.100101648772599,550,8143.7717770035,0.100449898715,0.013536325268791,0.0040962832101122,5.3498748465576,nan,False,live,nan
03/21/2024-11:22:41.700934 -- 800130,0.3,0.0,0.0,1.0,0.0,0,-49.2422158065396,8.254932259362898,552,8318.8327526132,0.03851875462858,-0.0045536270333976,0.033721907435265,5.2613840421657,nan,False,live,nan
03/21/2024-11:22:41.735053 -- 800134,0.3,0.0,0.0,1.0,0.0,0,-49.707069286221596,8.5068319582836,554,7924.3945993031,0.093198553516759,0.001264781128988,0.0039734528987244,5.2305635612536,nan,False,live,nan
03/21/2024-11:22:41.768856 -- 800117,0.3,0.0,0.0,1.0,0.0,0,-49.8985272698736,8.801771357691598,556,7153.887630662,0.054046145548658,-0.0073761138480053,-0.045413699181383,5.3584529961494,nan,False,live,nan
03/21/2024-11:22:41.801671 -- 800118,0.3,0.0,0.0,1.0,0.0,0,-50.198661530157594,8.9579639695674,558,7611.8083623693,0.02898711944348,-0.018606248553596,0.024101821870204,5.3532212930483,nan,False,live,nan
03/21/2024-11:22:41.836353 -- 800131,0.3,0.0,0.0,1.0,0.0,0,-50.5162687581006,8.9540941983495,560,7836.7147212544,0.052805444850674,-0.033679265668078,0.060177487334287,5.2506480467095,nan,False,live,nan
03/21/2024-11:22:41.868619 -- 800137,0.3,0.0,0.0,1.0,0.0,0,-50.7221396586546,8.931101589762898,562,7730.8388501742,0.025344047303413,0.0069025364314947,-0.0081126590327402,5.2054763029391,nan,False,live,nan
03/21/2024-11:22:41.900538 -- 800138,0.3,0.0,0.0,1.0,0.0,0,-51.1019855553606,9.0175502968437,564,8034.6261437908,0.079271351591057,-0.018623748502025,0.023084342154364,5.192686617797,nan,False,live,nan
03/21/2024-11:22:41.934694 -- 800137,0.3,0.0,0.0,1.0,0.0,0,-51.5232737638836,9.1591677228321,566,7523.568815331,0.073898891003439,0.0016759269385709,-0.0027613461284714,5.2022141705086,nan,False,live,nan
03/21/2024-11:22:41.968004 -- 800153,0.3,0.0,0.0,1.0,0.0,0,-51.9036146250156,9.2396673041646,568,7598.167539267,0.040822414495364,-0.014315049551118,0.085466712009366,5.0792868720327,nan,False,live,nan
03/21/2024-11:22:42.000765 -- 800158,0.3,0.0,0.0,1.0,0.0,0,-52.190711987811596,9.324657682397698,570,7554.6973397296,0.089486221717008,0.00045914008766401,0.023899902592035,5.0362355030685,nan,False,live,nan
03/21/2024-11:22:42.019554 -- 800155,0.3,0.0,0.0,1.0,0.0,0,-52.4296440875646,9.353191376710798,571,7569.7718150087,0.078329012734625,-0.017277036669143,-0.024212691013433,5.0604481940819,nan,False,live,nan
03/21/2024-11:22:42.052428 -- 800143,0.3,0.0,0.0,1.0,0.0,0,-52.6697139273246,9.563694685353601,573,7800.5789703316,0.061935561045241,0.0091124530415625,-0.046935916869406,5.1541801257924,nan,False,live,nan
03/21/2024-11:22:42.086133 -- 800141,0.3,0.0,0.0,1.0,0.0,0,-53.0920846092066,9.7375402101213,575,7691.6762527233,0.075185321241561,-0.018478326947015,0.021786258900075,5.1748338154262,nan,False,live,nan
03/21/2024-11:22:42.116759 -- 800154,0.3,0.0,0.0,1.0,0.0,0,-53.5012226018646,9.8899725753558,577,7221.7489102005,0.061901762359502,0.0040960943316148,0.036965211924291,5.0709470453579,nan,False,live,nan
03/21/2024-11:22:42.149638 -- 800163,0.3,0.0,0.0,1.0,0.0,0,-53.9847260158656,9.958630012844099,579,6572.8853030964,0.097716020256882,-0.032107660102635,0.0301821745115,5.0013401517766,nan,False,live,nan
03/21/2024-11:22:42.168341 -- 800158,0.3,0.0,0.0,1.0,0.0,0,-54.2146027005396,10.026453436544097,580,6718.0644599303,0.079879157241779,-0.0015976830636194,-0.03589997494322,5.0372401267198,nan,False,live,nan
03/21/2024-11:22:42.202578 -- 800149,0.3,0.0,0.0,1.0,0.0,0,-54.4764792436506,10.275329179276499,582,5811.4891114983,0.068822403426522,-0.022426173080664,-0.014652943510249,5.1124207430908,nan,False,live,nan
03/21/2024-11:22:42.235097 -- 800155,0.3,0.0,0.0,1.0,0.0,0,-54.8627273044236,10.3234037947518,584,5375.368466899,0.034879202797557,-0.010314909711283,0.021908692358788,5.0650932941807,nan,False,live,nan
03/21/2024-11:22:42.268443 -- 800165,0.3,0.0,0.0,1.0,0.0,0,-55.2975596526606,10.498931538266097,586,5427.5773420479,0.111658657126,-0.0026906014372304,0.021272582065568,4.9849249092449,nan,False,live,nan
03/21/2024-11:22:42.302723 -- 800153,0.3,0.0,0.0,1.0,0.0,0,-55.59211903276859,10.7778592640721,588,6496.517211329,0.043048628378338,0.017327107857785,-0.066112759760312,5.0755600179225,nan,False,live,nan
03/21/2024-11:22:42.334581 -- 800143,0.3,0.0,0.0,1.0,0.0,0,-55.8606512279046,10.896950412409199,590,7190.6795989538,0.06829601103577,0.011367310058868,-0.03161642817184,5.1597290535841,nan,False,live,nan
03/21/2024-11:22:42.366517 -- 800152,0.3,0.0,0.0,1.0,0.0,0,-56.2095713081166,11.1106058983569,592,6580.9694989107,0.065552374233389,0.0041893461405557,0.044517533733558,5.0868677391103,nan,False,live,nan
03/21/2024-11:22:42.400941 -- 800160,0.3,0.0,0.0,1.0,0.0,0,-56.3979965659806,11.199256313397298,594,6914.7933740192,0.032991661482067,0.013202911062016,0.021013107578934,5.0250554631614,nan,False,live,nan
03/21/2024-11:22:42.433611 -- 800151,0.3,0.0,0.0,1.0,0.0,0,-56.6896818807906,11.4111986324418,596,7294.1297909408,0.096044401421621,0.011717358042681,-0.059409938255527,5.0897575238242,nan,False,live,nan
03/21/2024-11:22:42.467518 -- 800136,0.3,0.0,0.0,1.0,0.0,0,-56.9944575664506,11.7170124345957,598,8542.0941586748,0.0600600418086,0.0063302468603085,-0.060390930262308,5.209335528825,nan,False,live,nan
03/21/2024-11:22:42.502425 -- 800124,0.3,0.0,0.0,1.0,0.0,0,-57.2485779337656,11.843086979548199,600,8723.3263616558,0.062620966939604,-0.0013875905122408,-0.04149653379461,5.301819535265,nan,False,live,nan
03/21/2024-11:22:42.532494 -- 800136,0.3,0.0,0.0,1.0,0.0,0,-57.656603312856596,11.999477198244,602,9019.7977332171,0.067581050585904,-0.01319400397588,0.049058812793703,5.2102817243897,nan,False,live,nan
03/21/2024-11:22:42.552476 -- 800138,0.3,0.0,0.0,1.0,0.0,0,-57.8176512982656,12.2236621649943,603,9648.3211169284,0.08251817655628,0.040707301924556,0.016659315361939,5.1936224090278,nan,False,live,nan
03/21/2024-11:22:42.583986 -- 800134,0.3,0.0,0.0,1.0,0.0,0,-58.1799808360626,12.6210923500284,605,9749.5427574171,0.082597658362565,0.032310986670669,-0.022825651306277,5.224405283219,nan,False,live,nan
03/21/2024-11:22:42.617243 -- 800114,0.3,0.0,0.0,1.0,0.0,0,-58.2697328277486,12.896262599959199,607,10304.112369338,0.06892270051742,0.052107356332958,-0.077787753400181,5.3800706708204,nan,False,live,nan
03/21/2024-11:22:42.650528 -- 800119,0.3,0.0,0.0,1.0,0.0,0,-58.7382472574136,13.2144902639289,609,9941.2519616391,0.079314443646033,0.0025240026170748,0.061169399573058,5.3484622569201,nan,False,live,nan
03/21/2024-11:22:42.669847 -- 800118,0.3,0.0,0.0,1.0,0.0,0,-58.7824778582586,13.269660236173797,610,10059.973856209,0.022796014765164,0.0059921511820023,-0.0037849299909656,5.3522471869111,nan,False,live,nan
03/21/2024-11:22:42.702065 -- 800126,0.3,0.0,0.0,1.0,0.0,0,-59.1798341663646,13.7805213129525,612,9829.2201394943,0.095632661865353,0.005263876478582,0.018577221235522,5.2917715030476,nan,False,live,nan
03/21/2024-11:22:42.735885 -- 800113,0.3,0.0,0.0,1.0,0.0,0,-59.3253897216426,14.102810025002396,614,8920.5257192677,0.067581974737008,0.030171349049077,-0.068765688424021,5.3913838880517,nan,False,live,nan
03/21/2024-11:22:42.774925 -- 800101,0.3,0.0,0.0,1.0,0.0,0,-59.5742958205026,14.463563489635801,616,9058.08326068,0.048655151099278,0.0040277122537723,-0.046802027930141,5.4834481035518,nan,False,live,nan
03/21/2024-11:22:42.801023 -- 800103,0.3,0.0,0.0,1.0,0.0,0,-59.93309600754961,14.750227206510298,618,8570.9607329843,0.074020465872451,-0.022015476780543,0.038686596825635,5.4729820219619,nan,False,live,nan
03/21/2024-11:22:42.835550 -- 800103,0.3,0.0,0.0,1.0,0.0,0,-60.2674333873896,15.165373183328695,620,8133.9105194238,0.098932836295424,0.023209899260646,-0.023555322815267,5.4676848135716,nan,False,live,nan
03/21/2024-11:22:42.867825 -- 800094,0.3,0.0,0.0,1.0,0.0,0,-60.43543674749459,15.345263083958399,622,7548.9925731761,-0.00042475092609789,0.0001793164302129,-0.065286157700329,5.5423938109676,nan,False,live,nan
03/21/2024-11:22:42.901371 -- 800084,0.3,0.0,0.0,1.0,0.0,0,-60.491820674610594,15.592642987939795,624,7487.7625491052,0.067738887964906,-0.00048359994271161,0.0073594207935179,5.6160830655858,nan,False,live,nan
03/21/2024-11:22:42.933465 -- 800094,0.3,0.0,0.0,1.0,0.0,0,-60.8444327703816,15.810121368123896,626,6774.4709986917,0.062705995829539,0.0029999694382813,0.031640463418739,5.5442345492757,nan,False,live,nan
03/21/2024-11:22:42.966452 -- 800109,0.3,0.0,0.0,1.0,0.0,0,-61.130945363601604,15.905477152484098,628,6763.5921568627,0.03873085581278,-0.038904927161244,0.054668408244137,5.4215294628078,nan,False,live,nan
03/21/2024-11:22:42.986094 -- 800111,0.3,0.0,0.0,1.0,0.0,0,-61.2196820602326,15.990228260839201,629,6435.9178321678,0.040831577549939,0.0024069170859999,0.011181783721602,5.4103476790862,nan,False,live,nan
03/21/2024-11:22:43.017493 -- 800108,0.3,0.0,0.0,1.0,0.0,0,-61.5827420429406,16.1448665671695,631,6298.2181500873,0.059987474656902,-0.031161501227104,-0.013413857648799,5.4298928646194,nan,False,live,nan
03/21/2024-11:22:43.050092 -- 800099,0.3,0.0,0.0,1.0,0.0,0,-61.8343223510406,16.368683992232697,633,6147.0819886611,0.045696335428867,0.0060710753298267,-0.031813400388785,5.5047002110169,nan,False,live,nan
03/21/2024-11:22:43.083633 -- 800098,0.3,0.0,0.0,1.0,0.0,0,-62.022148803864596,16.477067960777397,635,6222.2170880558,0.04821197516626,-0.012026802597895,0.012846180574654,5.5071871873395,nan,False,live,nan
03/21/2024-11:22:43.113605 -- 800105,0.3,0.0,0.0,1.0,0.0,0,-62.34659422329659,16.888731456783,637,6043.3549651568,0.058661007268813,0.01076021504612,0.025704358620207,5.4570054242844,nan,False,live,nan
03/21/2024-11:22:43.149847 -- 800115,0.3,0.0,0.0,1.0,0.0,0,-62.6321079850086,16.883824375061998,639,6243.1586056645,0.084505654046836,-0.041895446417196,0.025267151081159,5.3721570924794,nan,False,live,nan
03/21/2024-11:22:43.185936 -- 800113,0.3,0.0,0.0,1.0,0.0,0,-62.779578669444604,16.989633065237996,641,5899.0871080139,0.0011060063780618,0.017752464969472,-0.0079953562117333,5.3926413180337,nan,False,live,nan
03/21/2024-11:22:43.220140 -- 800114,0.3,0.0,0.0,1.0,0.0,0,-63.25961744206259,17.185003639625997,643,6637.3166376307,0.103707216953,-0.015115357440668,0.012855750512809,5.3829332010904,nan,False,live,nan
03/21/2024-11:22:43.250788 -- 800121,0.3,0.0,0.0,1.0,0.0,0,-63.409556624508596,17.24741871936,645,6290.6647776809,0.030290047476099,-0.0030219747286352,0.037294996670028,5.3271596001117,nan,False,live,nan
03/21/2024-11:22:43.285703 -- 800132,0.3,0.0,0.0,1.0,0.0,0,-63.69443293660859,17.357305872462,647,6397.8261437908,0.022119315788869,-0.013058217089786,0.03405669639984,5.2429655503943,nan,False,live,nan
03/21/2024-11:22:43.319841 -- 800137,0.3,0.0,0.0,1.0,0.0,0,-63.9559950079956,17.305755448452004,649,6304.4793028322,0.061584376045807,-0.018151146665346,0.026100135745614,5.2063545857423,nan,False,live,nan
03/21/2024-11:22:43.352829 -- 800137,0.3,0.0,0.0,1.0,0.0,0,-64.2597083191536,17.398674283854,651,6772.411328976,0.046494266735288,-0.002253025504296,0.0093459728508722,5.2031016131851,nan,False,live,nan
03/21/2024-11:22:43.385966 -- 800145,0.3,0.0,0.0,1.0,0.0,0,-64.61407621664159,17.394008112651,653,7608.2909407666,0.036221450454956,-0.019111741794251,0.03939861388781,5.1416220169402,nan,False,live,nan
03/21/2024-11:22:43.419731 -- 800161,0.3,0.0,0.0,1.0,0.0,0,-64.79616101870161,17.201707399607997,655,7278.1787271142,0.048941482147416,-0.050469596277187,0.094406247409541,5.0150667427486,nan,False,live,nan
03/21/2024-11:22:43.452119 -- 800186,0.3,0.0,0.0,1.0,0.0,0,-64.9736880480246,17.057268449217,657,7137.983435048,-0.02161613403769,-0.020486401806203,0.073268241298535,4.818208893454,nan,False,live,nan
03/21/2024-11:22:43.472737 -- 800198,0.3,0.0,0.0,1.0,0.0,0,-65.0804979899046,16.981008589322997,658,7077.2223190933,0.034065650181163,-0.027470642769303,0.09446404624004,4.723744847214,nan,False,live,nan
03/21/2024-11:22:43.504565 -- 800214,0.3,0.0,0.0,1.0,0.0,0,-65.4456134378616,16.828773730713003,660,7280.9873362445,0.022254384775102,-0.007463418635002,0.031449285039221,4.5994673540003,nan,False,live,nan
03/21/2024-11:22:43.534773 -- 800223,0.3,0.0,0.0,1.0,0.0,0,-65.7789977753256,16.70471742372,662,7591.5519197208,0.10341415715795,-0.016062688971491,0.048281540667875,4.5297840030662,nan,False,live,nan
03/21/2024-11:22:43.567732 -- 800224,0.3,0.0,0.0,1.0,0.0,0,-65.9059765124976,16.633928332940997,664,7739.1905800262,-0.011548317004041,0.0034470543602117,-0.0028333160010427,4.5203236957491,nan,False,live,nan
03/21/2024-11:22:43.601626 -- 800233,0.3,0.0,0.0,1.0,0.0,0,-66.1006271338026,16.461790739681703,666,7820.3419101614,0.025993109264546,-0.0057054427698586,0.034032247388937,4.448925963886,nan,False,live,nan
03/21/2024-11:22:43.633614 -- 800232,0.3,0.0,0.0,1.0,0.0,0,-66.1689022813446,16.4261157686148,668,7651.3516819572,0.047341706793555,0.0095284850698018,-0.0038689118205646,4.4608606689609,nan,False,live,nan
