timestamp -- motor_step_command,mfc1_stpt,mfc2_stpt,mfc3_stpt,led1_stpt,led2_stpt,sig_status,ft_posx,ft_posy,ft_frame,ft_error,ft_roll,ft_pitch,ft_yaw,ft_heading,adapted_center,instrip,mode,strip_thresh
03/20/2024-17:37:17.751320 -- 800019,0.3,0.0,0.0,1.0,0.0,0,-0.132650890194084,1.1916412279420499,123,4140.9298924731,-0.0004252592971975,-0.0010926648012539,0.0020557750927499,6.1267320655784,nan,False,live,nan
03/20/2024-17:37:17.782482 -- 800020,0.3,0.0,0.0,1.0,0.0,0,-0.15435444658522798,1.17732934601352,125,4292.0762602327,-0.0014923450015978,-0.0052222107611857,0.0037849042851786,6.1189798691726,nan,False,live,nan
03/20/2024-17:37:17.815860 -- 800021,0.3,0.0,0.0,1.0,0.0,0,-0.156460930475076,1.19458798164459,127,4325.8331182796,-0.00021365055925258,0.0050094882892143,-0.0005595866052368,6.1174948238958,nan,False,live,nan
03/20/2024-17:37:17.847067 -- 800019,0.3,0.0,0.0,1.0,0.0,0,-0.12185160399087899,1.1895443696283299,129,4587.6736978046,-0.001642376260773,0.0054789733702098,-0.0047716530423091,6.1275370033775,nan,False,live,nan
03/20/2024-17:37:17.880930 -- 800015,0.3,0.0,0.0,1.0,0.0,0,0.026426625164683498,1.33336381766898,131,5104.492139738,0.017848575085822,0.031957080496906,-0.019076873029344,6.1596021902029,nan,False,live,nan
03/20/2024-17:37:17.912019 -- 800006,0.3,0.0,0.0,1.0,0.0,0,0.112973889561372,1.26733303918326,133,5504.4236474695,-0.0078552499051797,0.025569175126448,-0.033511789688731,6.2323351295053,nan,False,live,nan
03/20/2024-17:37:17.949172 -- 800003,0.3,0.0,0.0,1.0,0.0,0,0.19889767540821301,1.23624317723436,135,6012.8236308754,-0.0041427260681339,0.0055315741787489,0.0038534094292418,6.2530480272042,nan,False,live,nan
03/20/2024-17:37:17.977447 -- 800011,0.3,0.0,0.0,1.0,0.0,0,0.119246850762417,1.21189971038226,137,5112.0246220302,0.00042776483298977,-0.013450343049344,0.031679668444688,6.1960830501701,nan,False,live,nan
03/20/2024-17:37:18.008869 -- 800018,0.3,0.0,0.0,1.0,0.0,0,0.11203766296932899,1.20369269463699,139,4533.188630491,-0.0030877691851256,-0.00060725951389004,0.02464328269418,6.1412190634094,nan,False,live,nan
03/20/2024-17:37:18.029260 -- 800019,0.3,0.0,0.0,1.0,0.0,0,0.07329268439145001,1.2081985519026899,140,4320.5448275862,0.0033945522955821,-0.01255117833717,0.012792341938464,6.1284267214709,nan,False,live,nan
03/20/2024-17:37:18.063762 -- 800019,0.3,0.0,0.0,1.0,0.0,0,0.08776396953346201,1.20181776354504,142,4204.6141935484,0.00016900597754754,0.0022790482602416,-0.0025104044721487,6.1266240324678,nan,False,live,nan
03/20/2024-17:37:18.097795 -- 800029,0.3,0.0,0.0,1.0,0.0,0,0.04186806592095,1.19341109218371,144,4456.4590163934,-0.0014698197601548,-0.0077365106589352,0.059328661687637,6.0528851080374,nan,False,live,nan
03/20/2024-17:37:18.130388 -- 800072,0.3,0.0,0.0,1.0,0.0,0,-0.160307893841982,1.04009866865244,146,6509.6801453885,-0.021581823792357,-0.043375778561857,0.20030496806239,5.7146859065083,nan,False,live,nan
03/20/2024-17:37:18.162861 -- 800124,0.3,0.0,0.0,1.0,0.0,0,-0.230004101205057,0.77829413497788,148,10738.209955643,-0.028359724463787,-0.044565544565275,0.18984096488298,5.3038384287022,nan,False,live,nan
03/20/2024-17:37:18.195590 -- 800162,0.3,0.0,0.0,1.0,0.0,0,-0.172749687912801,0.51768441001071,150,11149.903538536,-0.023172528442844,-0.021454597690544,0.1372906021862,5.0038316504555,nan,False,live,nan
03/20/2024-17:37:18.231094 -- 800185,0.3,0.0,0.0,1.0,0.0,0,-0.290598517512483,0.35861473654914,152,11447.579620853,0.02034898879853,-0.033272196738937,0.060655579182361,4.8279644902493,nan,False,live,nan
03/20/2024-17:37:18.262817 -- 800197,0.3,0.0,0.0,1.0,0.0,0,-0.36653675437665,0.23733358560623702,154,11905.124128312,0.014368286049638,-0.012901812231779,0.035198508222959,4.7284020616881,nan,False,live,nan
03/20/2024-17:37:18.296459 -- 800198,0.3,0.0,0.0,1.0,0.0,0,-0.44754510581964,0.34015819904592,156,11522.259786477,0.022548090294573,0.041695326275738,0.0041504672070759,4.7247173024508,nan,False,live,nan
03/20/2024-17:37:18.330118 -- 800204,0.3,0.0,0.0,1.0,0.0,0,-0.55964550732852,0.278544693063006,158,11221.678587196,0.013360679296548,-0.019921063313838,0.023502368832772,4.6783118432294,nan,False,live,nan
03/20/2024-17:37:18.363342 -- 800211,0.3,0.0,0.0,1.0,0.0,0,-0.50465283660687,0.237273190895817,160,10651.79082083,-0.0060306685249778,-0.0017576022521199,0.021113489548711,4.625523082422,nan,False,live,nan
03/20/2024-17:37:18.395702 -- 800224,0.3,0.0,0.0,1.0,0.0,0,-0.45780657840471,0.11865480860139299,162,9833.7476718404,-0.0040009282654259,-0.024831419773769,0.066264239161346,4.5220304330207,nan,False,live,nan
03/20/2024-17:37:18.428904 -- 800250,0.3,0.0,0.0,1.0,0.0,0,-0.43277664081957,-0.050830219550832,164,10188.328460484,-0.003920571837515,-0.031878333303208,0.1067429881872,4.3195072027055,nan,False,live,nan
03/20/2024-17:37:18.463525 -- 800262,0.3,0.0,0.0,1.0,0.0,0,-0.43464936857322,-0.10966990721890199,166,10411.412276683,0.013460718527466,0.0026790680311679,0.037326678747567,4.2231910545298,nan,False,live,nan
03/20/2024-17:37:18.497465 -- 800246,0.3,0.0,0.0,1.0,0.0,0,-0.56070091330011,-0.075878036150565,168,10021.883924661,0.03243291197356,0.020777292446704,-0.081763664586304,4.3458417504027,nan,False,live,nan
03/20/2024-17:37:18.530315 -- 800228,0.3,0.0,0.0,1.0,0.0,0,-0.7903840741988101,0.043809689547093,170,10588.360941587,0.039205463705907,0.029049749403107,-0.071494835641077,4.4893578096748,nan,False,live,nan
03/20/2024-17:37:18.563191 -- 800217,0.3,0.0,0.0,1.0,0.0,0,-0.9299796261189901,0.07622648252672401,172,10479.596851771,0.00037326163885422,0.0094490892560561,-0.036863550627624,4.573362683515,nan,False,live,nan
03/20/2024-17:37:18.596293 -- 800215,0.3,0.0,0.0,1.0,0.0,0,-0.9551538777203701,0.103119038460984,174,10840.229508197,0.0063400422065855,-0.0032945039911336,-0.0056279207403115,4.5874366835694,nan,False,live,nan
03/20/2024-17:37:18.628704 -- 800216,0.3,0.0,0.0,1.0,0.0,0,-1.0773015151002001,-0.0068760968851788,176,10431.281222707,0.011816226988619,-0.024106535589128,-0.003412171016385,4.582192070303,nan,False,live,nan
03/20/2024-17:37:18.659828 -- 800209,0.3,0.0,0.0,1.0,0.0,0,-1.09860367675332,-0.0040018260531105,178,10370.842789086,0.0036473185859059,0.00017653332256066,-0.035074521623971,4.634845580453,nan,False,live,nan
03/20/2024-17:37:18.680818 -- 800204,0.3,0.0,0.0,1.0,0.0,0,-1.1338228684926601,-0.0142901229709851,179,10808.927209705,0.011920042567929,-0.0027408664100148,-0.038677926355622,4.6735235068086,nan,False,live,nan
03/20/2024-17:37:18.715241 -- 800197,0.3,0.0,0.0,1.0,0.0,0,-1.20305516271135,0.093076029992508,181,9895.9818809318,-0.00092094796665401,-0.01145770828663,-0.027447785013413,4.7283062355816,nan,False,live,nan
03/20/2024-17:37:18.748450 -- 800197,0.3,0.0,0.0,1.0,0.0,0,-1.19543767954938,0.104640409614507,183,10263.708817204,0.0020179003463804,-0.0069741997456751,0.0056730650735099,4.7283192739416,nan,False,live,nan
03/20/2024-17:37:18.780541 -- 800197,0.3,0.0,0.0,1.0,0.0,0,-1.0786688444653798,0.07450657290495,185,10223.543496985,-0.017230145552747,0.0099374598207356,-0.0034308432276598,4.7358874668357,nan,False,live,nan
03/20/2024-17:37:18.814997 -- 800191,0.3,0.0,0.0,1.0,0.0,0,-0.98270723163852,0.135016448346867,187,10480.371023216,-0.016847669075277,0.010292350903153,-0.0204645374273,4.7795311738529,nan,False,live,nan
03/20/2024-17:37:18.849304 -- 800187,0.3,0.0,0.0,1.0,0.0,0,-1.00766737637787,0.14649745699241098,189,10205.919174549,0.010168169356573,0.005544165484017,-0.011314187451502,4.8111275494179,nan,False,live,nan
03/20/2024-17:37:18.880602 -- 800191,0.3,0.0,0.0,1.0,0.0,0,-0.95741623551156,0.13244250536238,191,10467.724419604,-0.017056553944549,-0.00075736045021014,0.026824549264373,4.7814938211148,nan,False,live,nan
03/20/2024-17:37:18.913524 -- 800193,0.3,0.0,0.0,1.0,0.0,0,-0.97043723987238,0.102906870442179,193,10199.489892473,0.0061683902618171,-0.0078383589249014,0.0005706766174889,4.7618762706726,nan,False,live,nan
03/20/2024-17:37:18.947469 -- 800196,0.3,0.0,0.0,1.0,0.0,0,-0.95247236161542,0.072024226143528,195,10237.419354839,-0.00086459132688398,0.010093449610039,0.0018849648825378,4.7370857541722,nan,False,live,nan
03/20/2024-17:37:18.980830 -- 800197,0.3,0.0,0.0,1.0,0.0,0,-0.93563970127212,0.058749242359161,197,9757.9075268817,-0.0037306040644855,-0.012546814993383,-0.0010342817549971,4.734904549127,nan,False,live,nan
03/20/2024-17:37:19.013469 -- 800196,0.3,0.0,0.0,1.0,0.0,0,-0.9484709996619001,0.079646089552506,199,9670.3482373173,0.00046993897835351,0.0076779183266764,-0.0023137918250068,4.7368438131447,nan,False,live,nan
03/20/2024-17:37:19.046441 -- 800198,0.3,0.0,0.0,1.0,0.0,0,-0.94926183330804,0.085494943665942,201,9797.176344086,-0.00033114581643623,-0.0041996918571816,0.0062578972921212,4.7273019921281,nan,False,live,nan
03/20/2024-17:37:19.079254 -- 800197,0.3,0.0,0.0,1.0,0.0,0,-0.94933172939739,0.08940504969306,203,9235.2509685751,-0.0034704100655409,-0.003687924298973,0.0022710185489647,4.7308024555594,nan,False,live,nan
03/20/2024-17:37:19.113541 -- 800197,0.3,0.0,0.0,1.0,0.0,0,-0.9501825362229299,0.09070507726160401,205,9373.9875161429,0.0023820102559709,-0.0022764364139268,-0.0029272452879288,4.7318463656359,nan,False,live,nan
03/20/2024-17:37:19.146264 -- 800197,0.3,0.0,0.0,1.0,0.0,0,-0.94443339825063,0.098325185598129,207,9056.583655914,-0.0019487471097677,0.0017636104354303,0.00086601429623397,4.7291378594125,nan,False,live,nan
03/20/2024-17:37:19.183295 -- 800197,0.3,0.0,0.0,1.0,0.0,0,-0.9502020083088301,0.092373679772901,209,8920.9514187446,0.00068315226700881,-0.0051910114587844,-0.0021242379597767,4.7303843833132,nan,False,live,nan
03/20/2024-17:37:19.213240 -- 800197,0.3,0.0,0.0,1.0,0.0,0,-0.9459666813042,0.096060744163308,211,9126.7085665088,0.0003754824677241,-0.00014485075718912,0.00049590085238776,4.7286362951543,nan,False,live,nan
03/20/2024-17:37:19.246521 -- 800197,0.3,0.0,0.0,1.0,0.0,0,-0.94320524968755,0.101559493877715,213,9251.4275268817,-8.5421519198021e-05,0.0019022292379714,-0.0005298000405035,4.7295026141789,nan,False,live,nan
03/20/2024-17:37:19.279344 -- 800199,0.3,0.0,0.0,1.0,0.0,0,-0.9440089737322801,0.08449108375221,215,8985.7570937231,-0.00036789584838927,-0.0039144380591162,0.01513411457926,4.7127541842795,nan,False,live,nan
03/20/2024-17:37:19.313341 -- 800201,0.3,0.0,0.0,1.0,0.0,0,-0.9502418902505699,0.0818224639341,217,9092.1337634409,0.0017745666125454,0.0025572564451017,0.0077701498894186,4.6969642356447,nan,False,live,nan
03/20/2024-17:37:19.348315 -- 800196,0.3,0.0,0.0,1.0,0.0,0,-1.02597544900203,0.30308502513825003,219,8781.8708010336,0.024213071393234,0.039391349158277,-0.028306761710367,4.7400001425988,nan,False,live,nan
03/20/2024-17:37:19.379948 -- 800177,0.3,0.0,0.0,1.0,0.0,0,-1.08479334856725,0.53243087370162,221,8987.213362069,0.01949938328061,0.047824917144529,-0.086480865722338,4.8875187138356,nan,False,live,nan
03/20/2024-17:37:19.414958 -- 800146,0.3,0.0,0.0,1.0,0.0,0,-1.08441612475461,0.8836696839459899,223,8625.1226169844,0.026288855961335,0.063091874497057,-0.13961243118183,5.1327039762492,nan,False,live,nan
03/20/2024-17:37:19.446464 -- 800118,0.3,0.0,0.0,1.0,0.0,0,-1.12059110194512,1.3805020271859298,225,9146.0877963126,0.040437651645112,0.081553654879032,-0.1072378237575,5.3557656421788,nan,False,live,nan
03/20/2024-17:37:19.479400 -- 800099,0.3,0.0,0.0,1.0,0.0,0,-1.25906171427222,1.47355706313039,227,7535.9057430951,0.013907584120925,-0.031031944996711,-0.050598889358284,5.5010323077574,nan,False,live,nan
03/20/2024-17:37:19.511929 -- 800102,0.3,0.0,0.0,1.0,0.0,0,-1.37983996652592,1.6863567093038099,229,7800.6603607567,0.046062819333788,0.0081305106725647,0.038904795242616,5.4760568792723,nan,False,live,nan
03/20/2024-17:37:19.546774 -- 800116,0.3,0.0,0.0,1.0,0.0,0,-1.50029231180529,1.87905607507629,231,8763.1749116608,0.042483843738263,0.0064484594976271,0.073074971075378,5.3665750580791,nan,False,live,nan
03/20/2024-17:37:19.581320 -- 800141,0.3,0.0,0.0,1.0,0.0,0,-1.7912637163665301,1.80821495691642,233,10263.61978022,0.027644205592949,-0.047443606549207,0.11245896632674,5.1730158593019,nan,False,live,nan
03/20/2024-17:37:19.615200 -- 800160,0.3,0.0,0.0,1.0,0.0,0,-1.9628207428371,1.74665315284686,235,8580.7609457093,0.043885221004193,0.0090942248193409,0.052773642340661,5.0244902026839,nan,False,live,nan
03/20/2024-17:37:19.647518 -- 800166,0.3,0.0,0.0,1.0,0.0,0,-2.15831141850129,1.7443061388910799,237,8754.3709748566,0.027352166567671,-0.013492319317649,0.0037143694378831,4.9793884179371,nan,False,live,nan
03/20/2024-17:37:19.680463 -- 800161,0.3,0.0,0.0,1.0,0.0,0,-2.33308595603007,1.8565358410038602,239,9246.7593818985,0.054782070643311,-0.003145913112729,-0.016676297787226,5.0178854376204,nan,False,live,nan
03/20/2024-17:37:19.714009 -- 800163,0.3,0.0,0.0,1.0,0.0,0,-2.5510189655955,1.89954192446355,241,9357.2335958005,0.042723595904102,-0.017145824256266,0.023377031913251,4.9983916704883,nan,False,live,nan
03/20/2024-17:37:19.747302 -- 800177,0.3,0.0,0.0,1.0,0.0,0,-2.53233817485447,1.7172916075969198,243,9312.3163132843,-0.047921072409345,-0.042508331060277,0.091258501273806,4.8878592463424,nan,False,live,nan
03/20/2024-17:37:19.781661 -- 800207,0.3,0.0,0.0,1.0,0.0,0,-2.47269512600262,1.55599658252889,245,9921.3866608544,-0.012556334599668,-0.016211373369799,0.13703357804637,4.656441407401,nan,False,live,nan
03/20/2024-17:37:19.814177 -- 800231,0.3,0.0,0.0,1.0,0.0,0,-2.41806141619347,1.2747355389528,247,9952.2874278099,0.0042859340204761,-0.023660222342043,0.097002394273551,4.4657856382224,nan,False,live,nan
03/20/2024-17:37:19.846198 -- 800245,0.3,0.0,0.0,1.0,0.0,0,-2.55413270937525,1.03072877681139,249,9972.5699458484,0.043257741171961,-0.030411391370964,0.044928242687546,4.3531052692533,nan,False,live,nan
03/20/2024-17:37:19.880222 -- 800247,0.3,0.0,0.0,1.0,0.0,0,-2.76774503344029,1.08897203729931,251,9362.2890276539,0.029293630149766,0.037613621321973,0.0084471812230385,4.3366475758673,nan,False,live,nan
03/20/2024-17:37:19.914201 -- 800235,0.3,0.0,0.0,1.0,0.0,0,-2.93175500650722,1.24404889026444,253,9195.9419014085,0.0060408339735014,0.044301848984701,-0.049814103705754,4.4359058003711,nan,False,live,nan
03/20/2024-17:37:19.947133 -- 800212,0.3,0.0,0.0,1.0,0.0,0,-3.1917930302741997,1.48960463917728,255,9062.0968873301,0.0040203025185812,0.038001573985724,-0.091288577442939,4.6103655731444,nan,False,live,nan
03/20/2024-17:37:19.981521 -- 800195,0.3,0.0,0.0,1.0,0.0,0,-3.3610366275774,1.72341916670418,257,9101.1260393873,0.039723709774001,0.048214842002971,-0.065021932539994,4.7460526883021,nan,False,live,nan
03/20/2024-17:37:20.013484 -- 800192,0.3,0.0,0.0,1.0,0.0,0,-3.6160131256095003,1.9564816269163798,259,9072.3053097345,0.040488509935412,0.018876764694831,-0.003955201935957,4.7719434046101,nan,False,live,nan
03/20/2024-17:37:20.048324 -- 800199,0.3,0.0,0.0,1.0,0.0,0,-3.8519482905446996,1.9646494171909201,261,8981.4192120407,0.038892001692947,0.014195352952531,0.03879141782257,4.7127465832359,nan,False,live,nan
03/20/2024-17:37:20.080309 -- 800202,0.3,0.0,0.0,1.0,0.0,0,-4.0453851106647,2.0411734491024,263,9335.4563279857,0.026954610142372,0.0038417541469559,0.013372419412568,4.6937496533478,nan,False,live,nan
03/20/2024-17:37:20.112880 -- 800203,0.3,0.0,0.0,1.0,0.0,0,-4.1759089172481,2.06300016545682,265,9605.7114537445,0.033213994097375,-0.01181174268578,0.0048707539220277,4.6840715847193,nan,False,live,nan
03/20/2024-17:37:20.146651 -- 800203,0.3,0.0,0.0,1.0,0.0,0,-4.585952831577,2.10610344460722,267,10168.94698686,0.067668308160974,-0.00081000789711884,0.0045359823574722,4.6846994487303,nan,False,live,nan
03/20/2024-17:37:20.165275 -- 800206,0.3,0.0,0.0,1.0,0.0,0,-4.6820000982477,2.1067247411685,268,9963.7292321509,0.031981856212683,0.0015051314633929,0.025738495196559,4.6589609535338,nan,False,live,nan
03/20/2024-17:37:20.190326 -- 800213,0.3,0.0,0.0,1.0,0.0,0,-4.8099123692709,2.12593251645576,270,9757.8734966592,0.031588843453593,0.0059758409671563,0.040710955844901,4.6059335900287,nan,False,live,nan
03/20/2024-17:37:20.213074 -- 800217,0.3,0.0,0.0,1.0,0.0,0,-5.0230925177418,2.09223606005832,271,9924.8197170242,0.071904883028063,-0.0024151257676681,0.033476128294325,4.5724574617344,nan,False,live,nan
03/20/2024-17:37:20.245523 -- 800216,0.3,0.0,0.0,1.0,0.0,0,-5.256883184112301,2.1152236570381797,273,9943.3062583222,0.0065711642518983,0.017710342843057,-0.0088990724252045,4.5798057552048,nan,False,live,nan
03/20/2024-17:37:20.281218 -- 800221,0.3,0.0,0.0,1.0,0.0,0,-5.479225204015799,2.32751576757504,275,10134.00456621,0.047418629479999,0.056224024282639,0.028614076518049,4.5418922983538,nan,False,live,nan
03/20/2024-17:37:20.312056 -- 800225,0.3,0.0,0.0,1.0,0.0,0,-5.6509356712923,2.7394239251120998,277,9302.0539437897,0.05356707532107,0.037270916182552,0.00039895341048008,4.512837598823,nan,False,live,nan
03/20/2024-17:37:20.330490 -- 800224,0.3,0.0,0.0,1.0,0.0,0,-5.7551955462396,2.7376804325922,278,9065.0979865772,0.034202180775976,0.0061923408924552,-0.0074391098396626,4.5202767086626,nan,False,live,nan
03/20/2024-17:37:20.363057 -- 800222,0.3,0.0,0.0,1.0,0.0,0,-5.98256995272,3.0486344390664,280,8674.6927927928,0.058503220518797,0.054313922102066,0.003157972609204,4.5366344728979,nan,False,live,nan
03/20/2024-17:37:20.396327 -- 800210,0.3,0.0,0.0,1.0,0.0,0,-6.233846920188901,3.4626615615695995,282,9246.1426611797,0.087715669104232,0.07745869665328,-0.057680494086938,4.626203301691,nan,False,live,nan
03/20/2024-17:37:20.430404 -- 800191,0.3,0.0,0.0,1.0,0.0,0,-6.5791407118545004,3.6601992147897,284,10073.424758399,0.069462045869606,0.019844208927808,-0.077615202946651,4.7789060744303,nan,False,live,nan
03/20/2024-17:37:20.462161 -- 800174,0.3,0.0,0.0,1.0,0.0,0,-6.6420137588775,4.1401086539955,286,9879.1997276441,0.043020582879688,0.082641625546103,-0.061262762814721,4.9104521338781,nan,False,live,nan
03/20/2024-17:37:20.496179 -- 800162,0.3,0.0,0.0,1.0,0.0,0,-6.651921518532601,4.3364115618237,288,10326.169045495,0.011987519795788,0.038326172760588,-0.046983850474709,5.0098746520604,nan,False,live,nan
03/20/2024-17:37:20.530861 -- 800153,0.3,0.0,0.0,1.0,0.0,0,-6.751674491406,4.618830468927,290,10676.995985727,0.00190916196372,0.045999549043774,-0.044884293658229,5.0762681947785,nan,False,live,nan
03/20/2024-17:37:20.562551 -- 800149,0.3,0.0,0.0,1.0,0.0,0,-6.7718983865454,4.7555715771894,292,10809.111455108,0.010676246849936,0.028571757894829,-0.010924318728891,5.107364066327,nan,False,live,nan
03/20/2024-17:37:20.596869 -- 800140,0.3,0.0,0.0,1.0,0.0,0,-6.6424119962568,4.9363804214004,294,10373.743183817,-0.025884603371458,0.043354860776165,-0.024105032664928,5.1826642343922,nan,False,live,nan
03/20/2024-17:37:20.632136 -- 800133,0.3,0.0,0.0,1.0,0.0,0,-6.6596397912597,5.0761895454702,296,10538.477934687,0.01739325673586,0.027518441068294,-0.026411980282358,5.2358477073783,nan,False,live,nan
03/20/2024-17:37:20.666178 -- 800129,0.3,0.0,0.0,1.0,0.0,0,-6.665262224522101,5.0815621680471,298,10609.850615114,0.00405843416035,-0.021037830785524,-0.0063144480955354,5.2630679053886,nan,False,live,nan
03/20/2024-17:37:20.696498 -- 800129,0.3,0.0,0.0,1.0,0.0,0,-6.657698520408001,5.0772480162321,300,10261.891042205,-0.0011822884135624,-0.00083526299296674,-0.0012860474058992,5.2649130093311,nan,False,live,nan
03/20/2024-17:37:20.731218 -- 800131,0.3,0.0,0.0,1.0,0.0,0,-6.6859924237842,5.035043641752299,302,10146.906481079,-0.0013289842398086,-0.011826526567189,0.011953259686829,5.2500807043094,nan,False,live,nan
03/20/2024-17:37:20.762353 -- 800133,0.3,0.0,0.0,1.0,0.0,0,-6.6888993896829,5.0693000573961,304,9880.5721050366,0.0042652637526619,-0.0056741567880956,-0.0032601227779932,5.2345888140954,nan,False,live,nan
03/20/2024-17:37:20.797794 -- 800132,0.3,0.0,0.0,1.0,0.0,0,-6.6163679337009,5.2638097822521,306,9731.908853031,-0.0030762418668165,0.042962261124705,-0.0062159061120688,5.2430918839457,nan,False,live,nan
03/20/2024-17:37:20.830368 -- 800124,0.3,0.0,0.0,1.0,0.0,0,-6.4772336408186995,5.2961635277556,308,10242.980383609,-0.014373891517136,0.028668706754147,-0.034711235925636,5.3083441502491,nan,False,live,nan
03/20/2024-17:37:20.864518 -- 800107,0.3,0.0,0.0,1.0,0.0,0,-6.373346269494601,5.6161127681541005,310,11090.673068334,0.024853967018005,0.039161469624224,-0.076110662785589,5.439750226406,nan,False,live,nan
03/20/2024-17:37:20.896283 -- 800095,0.3,0.0,0.0,1.0,0.0,0,-6.5560422980127,6.0769756274235,312,10945.979477612,0.070838640039908,0.054119245134373,-0.037871605180025,5.530141323421,nan,False,live,nan
03/20/2024-17:37:20.926254 -- 800086,0.3,0.0,0.0,1.0,0.0,0,-6.5739804241845,6.272604684571199,314,11594.468692449,0.030693626523195,0.01383870210379,-0.028318477156324,5.6023384048426,nan,False,live,nan
03/20/2024-17:37:20.944938 -- 800084,0.3,0.0,0.0,1.0,0.0,0,-6.5841438300354,6.4278594459980996,315,11099.894736842,0.042568945650587,0.029624921752421,-0.014979106613278,5.6173175114559,nan,False,live,nan
03/20/2024-17:37:20.978301 -- 800087,0.3,0.0,0.0,1.0,0.0,0,-6.6384831031971,6.891733131284699,317,10395.423923006,0.078565051198388,0.014130972965679,0.011350879504722,5.5930895757521,nan,False,live,nan
03/20/2024-17:37:21.012287 -- 800092,0.3,0.0,0.0,1.0,0.0,0,-6.7063164284385,7.1240622759816,319,9898.9736253911,0.025985381876221,0.011963254574817,0.018828720941253,5.5579519334291,nan,False,live,nan
03/20/2024-17:37:21.046822 -- 800101,0.3,0.0,0.0,1.0,0.0,0,-6.8827629276063,7.3066533367308,321,8887.1032822757,0.058967558490034,-0.0074739069136395,0.043532427223457,5.4869827831116,nan,False,live,nan
03/20/2024-17:37:21.077245 -- 800106,0.3,0.0,0.0,1.0,0.0,0,-7.0492286285454,7.4316367702824,323,8917.8087336245,0.04338876632704,-0.0028633747687239,0.019091679972803,5.4453037222561,nan,False,live,nan
03/20/2024-17:37:21.095758 -- 800106,0.3,0.0,0.0,1.0,0.0,0,-7.0514533784853,7.6560480798816,324,8115.4636403702,0.050615542156796,0.055083763540632,-0.00064446986434415,5.4459481921205,nan,False,live,nan
03/20/2024-17:37:21.127744 -- 800109,0.3,0.0,0.0,1.0,0.0,0,-7.1854490281248005,7.8786757502604,326,7989.125,0.036124299153547,0.011875321743233,0.0035326162691841,5.4260695118738,nan,False,live,nan
03/20/2024-17:37:21.161417 -- 800115,0.3,0.0,0.0,1.0,0.0,0,-7.3235891760774,7.827804051929999,328,7875.5719861232,-0.010250018627916,-0.038798953357005,0.027529292462355,5.3754315503285,nan,False,live,nan
03/20/2024-17:37:21.192790 -- 800129,0.3,0.0,0.0,1.0,0.0,0,-7.6926584758329,7.752140588187899,330,7988.0744588745,0.054188748980935,-0.050243889395774,0.060407254294115,5.2664669509073,nan,False,live,nan
03/20/2024-17:37:21.212130 -- 800140,0.3,0.0,0.0,1.0,0.0,0,-7.8394307281407,7.6252141824618,331,7629.4055339386,0.022005089128768,-0.060842685784597,0.086663012958068,5.1798039379493,nan,False,live,nan
03/20/2024-17:37:21.245001 -- 800162,0.3,0.0,0.0,1.0,0.0,0,-7.9298235753888004,7.4412871804278,333,7600.2617305209,0.019437445872545,-0.028457744327844,0.11202399089396,5.0042396144335,nan,False,live,nan
03/20/2024-17:37:21.278867 -- 800183,0.3,0.0,0.0,1.0,0.0,0,-8.168312658411299,7.300531729583399,335,7504.9701943844,0.054709950160291,-0.032172451826426,0.085485749406299,4.838622904546,nan,False,live,nan
03/20/2024-17:37:21.311439 -- 800203,0.3,0.0,0.0,1.0,0.0,0,-8.464156537902,7.1157347439555,337,7527.8724048443,0.029472776498841,-0.015055213638585,0.082915727361246,4.6852786655778,nan,False,live,nan
03/20/2024-17:37:21.343344 -- 800215,0.3,0.0,0.0,1.0,0.0,0,-8.7361487204133,7.013198790811501,339,7739.3849154746,0.071595611012569,-0.024527546492218,0.046829031813871,4.5907064958796,nan,False,live,nan
03/20/2024-17:37:21.362074 -- 800219,0.3,0.0,0.0,1.0,0.0,0,-8.818805690244599,7.049616150394801,340,7854.1633275261,0.02562840026937,0.015803331993431,0.031763256635964,4.5589432392437,nan,False,live,nan
03/20/2024-17:37:21.396256 -- 800222,0.3,0.0,0.0,1.0,0.0,0,-9.104993736297299,6.984523568226599,342,7943.1289045315,0.060736696479301,0.0037785851938654,-0.0049298019185596,4.5359625313578,nan,False,live,nan
03/20/2024-17:37:21.427157 -- 800223,0.3,0.0,0.0,1.0,0.0,0,-9.4105824305865,6.8787944994651,344,8012.1278863233,0.027462708220866,-0.02045584168159,0.0020773981657683,4.5250952449014,nan,False,live,nan
03/20/2024-17:37:21.457866 -- 800224,0.3,0.0,0.0,1.0,0.0,0,-9.6501853650318,6.7434564219065996,346,8212.8512064343,0.056045978192493,-0.010535393924789,0.00041644822629352,4.5234859159564,nan,False,live,nan
03/20/2024-17:37:21.492397 -- 800232,0.3,0.0,0.0,1.0,0.0,0,-9.8085772381488,6.6367288297818,348,7744.7525453741,0.035481917960052,-0.005961009162069,0.028068149799757,4.4574220979216,nan,False,live,nan
03/20/2024-17:37:21.523848 -- 800240,0.3,0.0,0.0,1.0,0.0,0,-9.976806546933,6.223609426997701,350,7750.5872513562,0.055434235949398,-0.080870645367082,0.055210052964783,4.3942761341021,nan,False,live,nan
03/20/2024-17:37:21.558213 -- 800257,0.3,0.0,0.0,1.0,0.0,0,-9.893774523747,6.098923510714799,352,7514.1534761697,-0.023855181893929,-0.014410474622508,0.082586428142887,4.2577460420141,nan,False,live,nan
03/20/2024-17:37:21.597796 -- 800275,0.3,0.0,0.0,1.0,0.0,0,-9.77097777768,5.825270311926,354,8150.1806649169,0.010521381145641,-0.042556460084951,0.069169066677725,4.1205817532609,nan,False,live,nan
03/20/2024-17:37:21.627011 -- 800295,0.3,0.0,0.0,1.0,0.0,0,-9.872209044177001,5.4745318220073,356,7979.5694255993,0.054135704541976,-0.035888850951096,0.079920383786242,3.9661712923659,nan,False,live,nan
03/20/2024-17:37:21.662559 -- 800300,0.3,0.0,0.0,1.0,0.0,0,-9.8188185761754,5.1677735107938,358,8197.7728921124,0.002763887407743,-0.029292453795107,0.078744613272084,3.8007380142705,nan,False,live,nan
03/20/2024-17:37:21.698793 -- 800300,0.3,0.0,0.0,1.0,0.0,0,-9.649087722892201,5.0328277741758,360,8356.920071048,0.012949174012587,-0.040882050898767,0.035874904865865,3.6981495301516,nan,False,live,nan
03/20/2024-17:37:21.730103 -- 800300,0.3,0.0,0.0,1.0,0.0,0,-9.666836744342099,4.7416174874973,362,8313.0126410835,0.054993198731499,-0.02252171578319,0.013398952597382,3.6505997645788,nan,False,live,nan
03/20/2024-17:37:21.762560 -- 800300,0.3,0.0,0.0,1.0,0.0,0,-9.6441914016246,4.4327025206235,364,8092.1600181324,0.040015986023194,-0.010582481870358,0.029414748625025,3.6270511799529,nan,False,live,nan
03/20/2024-17:37:21.794293 -- 800300,0.3,0.0,0.0,1.0,0.0,0,-9.608944375597499,4.3459703301483,366,8028.3930150309,-0.0019217958901794,-0.032272641349442,0.0061387040209431,3.6229425583303,nan,False,live,nan
03/20/2024-17:37:21.815841 -- 800300,0.3,0.0,0.0,1.0,0.0,0,-9.3931818741273,4.238253653526,367,7768.0512820513,-0.0015896729494371,-0.080369725426989,-0.002928468307601,3.6258710266379,nan,False,live,nan
03/20/2024-17:37:21.852127 -- 800300,0.3,0.0,0.0,1.0,0.0,0,-9.4178001312135,4.1816480019273,369,8208.3324514991,0.023202556076544,-0.0030005065754378,0.010270176940379,3.6088508042612,nan,False,live,nan
03/20/2024-17:37:21.881335 -- 800300,0.3,0.0,0.0,1.0,0.0,0,-9.129401903925,3.9409756720824,371,8455.7550561798,0.030975160972755,-0.047486648848196,0.085897218459277,3.4887322691806,nan,False,live,nan
03/20/2024-17:37:21.913339 -- 800300,0.3,0.0,0.0,1.0,0.0,0,-8.9279255773506,3.8992965931203,373,8899.6914027149,0.0023102936814689,-0.043668568097686,0.11318478837886,3.2818637487231,nan,False,live,nan
03/20/2024-17:37:21.947457 -- 800500,0.3,0.0,0.0,1.0,0.0,0,-8.7298116224742,3.7233528664341,375,9334.2661439114,0.026818130261706,-0.011638545266721,0.078742046406288,3.0928818840664,nan,False,live,nan
03/20/2024-17:37:21.979095 -- 800500,0.3,0.0,0.0,1.0,0.0,0,-8.5602291867189,3.5824186542384,377,9566.741026806,0.032255303612628,-0.019094282701041,0.01998897517983,3.0167949796467,nan,False,live,nan
03/20/2024-17:37:22.013936 -- 800500,0.3,0.0,0.0,1.0,0.0,0,-8.3233871193741,3.2701132060763998,379,9782.4317140238,0.027970526187916,-0.012389206097453,0.016866416831725,2.9881257093451,nan,False,live,nan
03/20/2024-17:37:22.046431 -- 800500,0.3,0.0,0.0,1.0,0.0,0,-8.3265525193593,3.0964190027295,381,10429.037786775,0.032404852239315,0.0075268845212843,0.0072333521372774,2.973408240054,nan,False,live,nan
03/20/2024-17:37:22.079401 -- 800500,0.3,0.0,0.0,1.0,0.0,0,-8.198399801058,2.88445929955089,383,11287.487599646,0.038224229063687,-0.022416799825422,0.010552809613149,2.9557796202948,nan,False,live,nan
03/20/2024-17:37:22.099694 -- 800500,0.3,0.0,0.0,1.0,0.0,0,-8.1647739108048,2.7559027471404303,384,10867.916037317,0.044253744752784,-0.0019846094786616,0.050408460834537,2.9053711594603,nan,False,live,nan
03/20/2024-17:37:22.130843 -- 800500,0.3,0.0,0.0,1.0,0.0,0,-8.0420031815082,2.4565497675695402,386,12021.143875278,0.05066403942402,-0.0029844622652089,0.025616446498606,2.8443805253595,nan,False,live,nan
03/20/2024-17:37:22.165345 -- 800500,0.3,0.0,0.0,1.0,0.0,0,-7.8517905121257,2.28596062698675,388,13567.60034904,0.040734927383695,-0.031500580419672,0.03422497369076,2.7865411767145,nan,False,live,nan
03/20/2024-17:37:22.196556 -- 800500,0.3,0.0,0.0,1.0,0.0,0,-7.6710018555641994,2.0217696739836,390,13992.348655681,0.047951603924232,7.3076786733336e-05,0.066090293086428,2.6475552940844,nan,False,live,nan
03/20/2024-17:37:22.230492 -- 800500,0.3,0.0,0.0,1.0,0.0,0,-7.321138665479699,1.9592831145579002,392,15049.933189655,0.03305920829722,-0.038278704074041,0.051177631398603,2.5604718563096,nan,False,live,nan
03/20/2024-17:37:22.261206 -- 800500,0.3,0.0,0.0,1.0,0.0,0,-7.0784781150186,1.86017698933446,394,15671.070628768,0.051282486768523,-0.029107865770622,0.088449692380077,2.4076442786519,nan,False,live,nan
03/20/2024-17:37:22.296642 -- 800508,0.3,0.0,0.0,1.0,0.0,0,-6.8000312169153005,1.7720938267149902,396,15872.220645161,0.039269039076939,-0.016942341445485,0.059770369458085,2.2870362481549,nan,False,live,nan
03/20/2024-17:37:22.331453 -- 800528,0.3,0.0,0.0,1.0,0.0,0,-6.258719496972,1.81932109986915,398,17374.14961307,0.075094838459017,-0.070482860786326,0.087509575219443,2.1344164007449,nan,False,live,nan
03/20/2024-17:37:22.362136 -- 800549,0.3,0.0,0.0,1.0,0.0,0,-5.8651527919449,1.62215352196323,400,17687.893809114,0.073162843165337,-0.0094261094942196,0.090254278221289,1.9662069037934,nan,False,live,nan
03/20/2024-17:37:22.381121 -- 800566,0.3,0.0,0.0,1.0,0.0,0,-5.6660766429402,1.6105165697405701,401,17491.410576096,0.064071374918678,-0.017867160680354,0.13013565820832,1.8360712455851,nan,False,live,nan
03/20/2024-17:37:22.411684 -- 800587,0.3,0.0,0.0,1.0,0.0,0,-5.3052582653196,1.81960448791851,403,16094.137575236,0.051280981110433,-0.04199550326018,0.087039238767921,1.6719618790563,nan,False,live,nan
03/20/2024-17:37:22.449186 -- 800603,0.3,0.0,0.0,1.0,0.0,0,-4.8940268607066,1.9626809780796601,405,14817.363284609,0.063916664952514,0.0097195583366741,0.071206792737989,1.5445236103621,nan,False,live,nan
03/20/2024-17:37:22.481502 -- 800617,0.3,0.0,0.0,1.0,0.0,0,-4.5879738571002004,2.04608890350984,407,13389.192605331,0.050071093068008,-0.021334572383886,0.053526231669172,1.4341510181477,nan,False,live,nan
03/20/2024-17:37:22.512928 -- 800630,0.3,0.0,0.0,1.0,0.0,0,-4.3049277289809,2.2822047867294,409,11574.907996561,0.071128853584369,-0.03092744029775,0.038200346011441,1.3293005770769,nan,False,live,nan
03/20/2024-17:37:22.545560 -- 800643,0.3,0.0,0.0,1.0,0.0,0,-4.0588825952784,2.53931437149015,411,9738.7055030095,0.038603222915101,-0.011588840454139,0.051241908674541,1.226124905638,nan,False,live,nan
03/20/2024-17:37:22.580610 -- 800655,0.3,0.0,0.0,1.0,0.0,0,-3.7434696466056003,2.6883478167567603,413,8714.4290627687,0.065127812228838,0.013113493438332,0.051107222943509,1.1319228957438,nan,False,live,nan
03/20/2024-17:37:22.612768 -- 800665,0.3,0.0,0.0,1.0,0.0,0,-3.5046257136369,2.9009118731831998,415,7449.6874462597,0.070927156341963,-0.02544541847862,0.042198088568443,1.0548641152245,nan,False,live,nan
03/20/2024-17:37:22.648755 -- 800677,0.3,0.0,0.0,1.0,0.0,0,-3.1998610403981997,3.1079405798802,417,7278.9793637145,0.056077712734488,0.018198557739424,0.053058769453098,0.95917050182678,nan,False,live,nan
03/20/2024-17:37:22.678970 -- 800690,0.3,0.0,0.0,1.0,0.0,0,-2.94291165131511,3.333825582222,419,6887.8009458298,0.070746108685891,-0.019414034085946,0.04991714195827,0.86310309839065,nan,False,live,nan
03/20/2024-17:37:22.711299 -- 800703,0.3,0.0,0.0,1.0,0.0,0,-2.84376788310135,3.6644937222159,421,7880.5838349097,0.071909699543038,-0.037589096093003,0.059735734637103,0.754211898964,nan,False,live,nan
03/20/2024-17:37:22.745940 -- 800723,0.3,0.0,0.0,1.0,0.0,0,-2.86711904271198,4.0095224470986,423,7951.3759139785,0.020401600812589,-0.043455565547256,0.084349150415219,0.60311903464169,nan,False,live,nan
03/20/2024-17:37:22.779209 -- 800746,0.3,0.0,0.0,1.0,0.0,0,-2.82148454010924,4.3625287822926,425,7996.6006018917,0.043517178285354,-0.01587172687259,0.099647528100905,0.42162165683003,nan,False,live,nan
03/20/2024-17:37:22.811336 -- 800765,0.3,0.0,0.0,1.0,0.0,0,-2.83332468449595,4.7654504584464,427,8094.5639259578,0.06975536440017,-0.028166215311094,0.074514291986447,0.26993556077584,nan,False,live,nan
03/20/2024-17:37:22.831001 -- 800775,0.3,0.0,0.0,1.0,0.0,0,-2.85659042293269,4.9653257777706,428,8054.4443010753,0.063089538706898,-0.022822499837864,0.077426741421678,0.19250881935416,nan,False,live,nan
03/20/2024-17:37:22.863326 -- 800793,0.3,0.0,0.0,1.0,0.0,0,-2.81238205152012,5.3930781181338,430,7352.6276366767,0.095492985140661,-0.014928606804147,0.068051582350611,0.054948518951387,nan,False,live,nan
03/20/2024-17:37:22.896298 -- 800805,0.3,0.0,0.0,1.0,0.0,0,-2.79593557905549,5.5991903267883,432,7487.4378494624,0.071463435402009,-0.0063485919246849,0.050355341047472,6.2362894519119,nan,False,live,nan
03/20/2024-17:37:22.932035 -- 800815,0.3,0.0,0.0,1.0,0.0,0,-2.9889296613381298,6.0228082435215,434,6948.5518725786,0.063104410050062,-0.033490165129074,0.03272650499932,6.1630035822668,nan,False,live,nan
03/20/2024-17:37:22.965324 -- 800821,0.3,0.0,0.0,1.0,0.0,0,-3.0090769011759004,6.3915540624255005,436,7139.1613597246,0.10203852000206,-0.0090478269591721,0.025326301212653,6.1151921540737,nan,False,live,nan
03/20/2024-17:37:22.996530 -- 800825,0.3,0.0,0.0,1.0,0.0,0,-3.0055968374111997,6.588501976566901,438,7454.9444683599,0.031254510665172,0.0019941061066381,0.0053645567058743,6.0858783250052,nan,False,live,nan
03/20/2024-17:37:23.032377 -- 800825,0.3,0.0,0.0,1.0,0.0,0,-3.064466251527,6.9644932594908,440,6746.7907877744,0.043656267652619,0.0075842889122115,0.0076589970882164,6.0837515922434,nan,False,live,nan
03/20/2024-17:37:23.065963 -- 800827,0.3,0.0,0.0,1.0,0.0,0,-3.1156440387591,7.2756488603112,442,6813.5531640121,0.057956603928095,-0.0020254080785379,0.0083966969504105,6.0688873510037,nan,False,live,nan
03/20/2024-17:37:23.096751 -- 800836,0.3,0.0,0.0,1.0,0.0,0,-3.2552176757120996,7.452944793295799,444,6328.6417204301,0.012986777989554,-0.034532055212353,0.058605098079365,5.994455179762,nan,False,live,nan
03/20/2024-17:37:23.132514 -- 800850,0.3,0.0,0.0,1.0,0.0,0,-3.7562498193498,7.743012874944899,446,6483.2547332186,0.088459702986527,-0.067895737159579,0.071913377062823,5.8842159070356,nan,False,live,nan
03/20/2024-17:37:23.165430 -- 800863,0.3,0.0,0.0,1.0,0.0,0,-3.783226500543,7.9682200711085995,448,7085.872688172,0.048707785344501,0.018970110297201,0.052248341104715,5.7820744763649,nan,False,live,nan
03/20/2024-17:37:23.191487 -- 800876,0.3,0.0,0.0,1.0,0.0,0,-3.9496419092807997,8.1782314653069,450,7147.1149375807,-0.0061888587539692,-0.013749494518835,0.042078142800236,5.6801595017193,nan,False,live,nan
03/20/2024-17:37:23.227988 -- 800885,0.3,0.0,0.0,1.0,0.0,0,-4.355230227249,8.400648514059899,452,7044.7505376344,0.10126784860207,-0.040161995047786,0.048296602875392,5.6140786544945,nan,False,live,nan
03/20/2024-17:37:23.262487 -- 800896,0.3,0.0,0.0,1.0,0.0,0,-4.4778548683647,8.3888211608019,454,7635.2033533964,-0.0075182856960652,-0.025772295325054,0.056289787021525,5.5240080911944,nan,False,live,nan
03/20/2024-17:37:23.299449 -- 800916,0.3,0.0,0.0,1.0,0.0,0,-4.8227722014342,8.388805265878501,456,7207.5644883921,0.044672564582969,-0.048525819450751,0.086271055567955,5.3661616434172,nan,False,live,nan
03/20/2024-17:37:23.330294 -- 800936,0.3,0.0,0.0,1.0,0.0,0,-5.147853484458899,8.2986133680492,458,7973.852966466,0.045164930914056,-0.068445966346871,0.069844096809505,5.2148963867943,nan,False,live,nan
03/20/2024-17:37:23.364819 -- 800952,0.3,0.0,0.0,1.0,0.0,0,-5.4585622364562,8.3173498256379,460,8244.7515047291,0.029731299926283,0.0088614271638036,0.056377584497704,5.0835559183523,nan,False,live,nan
03/20/2024-17:37:23.396587 -- 800971,0.3,0.0,0.0,1.0,0.0,0,-5.830015441011,8.2713729200331,462,8847.8644578313,0.056795113070716,-0.017338982264802,0.069302065990978,4.9368238564081,nan,False,live,nan
03/20/2024-17:37:23.432615 -- 800985,0.3,0.0,0.0,1.0,0.0,0,-6.2181010445822995,8.100317239857599,464,9176.6577815993,0.066934110168791,-0.053806573392889,0.050617867241344,4.8229350963896,nan,False,live,nan
03/20/2024-17:37:23.462409 -- 800999,0.3,0.0,0.0,1.0,0.0,0,-6.467923044357299,8.1145611900963,466,9915.043422184,0.036606064685073,0.012651456545486,0.050926867996652,4.7184975171785,nan,False,live,nan
03/20/2024-17:37:23.494099 -- 801012,0.3,0.0,0.0,1.0,0.0,0,-6.834311405024101,8.0814237182229,468,10521.374032674,0.049691422679639,-0.015270102517954,0.059028866812058,4.6142941328794,nan,False,live,nan
03/20/2024-17:37:23.529440 -- 801021,0.3,0.0,0.0,1.0,0.0,0,-7.067006277414,8.0272662987726,470,12414.214961307,0.04037299991322,-0.0044100423778566,0.035581734601051,4.5404719950233,nan,False,live,nan
03/20/2024-17:37:23.560340 -- 801035,0.3,0.0,0.0,1.0,0.0,0,-7.4484760515231,7.8429635952744,472,12707.871883061,0.049564596859919,-0.0074127403118769,0.038396304691252,4.4364331031603,nan,False,live,nan
03/20/2024-17:37:23.595104 -- 801052,0.3,0.0,0.0,1.0,0.0,0,-7.832017416596099,7.7557196105274,474,13924.03783319,0.060701926131931,0.0045599476493056,0.087584699080772,4.2983517972344,nan,False,live,nan
03/20/2024-17:37:23.627295 -- 801065,0.3,0.0,0.0,1.0,0.0,0,-7.995928809898199,7.528679661849301,476,14333.297076526,0.06923798169102,-0.031545361074487,0.048694035998967,4.1943610400533,nan,False,live,nan
03/20/2024-17:37:23.659876 -- 801079,0.3,0.0,0.0,1.0,0.0,0,-8.2898780754795,7.2637728136026,478,15174.755803955,0.065359166804553,0.00694556919997,0.057139594585076,4.0871401506041,nan,False,live,nan
03/20/2024-17:37:23.693030 -- 801092,0.3,0.0,0.0,1.0,0.0,0,-8.4684532500792,7.0147709543799,480,16249.794926913,0.039233519038524,-0.014233174591089,0.06604225059795,3.98778361805,nan,False,live,nan
03/20/2024-17:37:23.728094 -- 801100,0.3,0.0,0.0,1.0,0.0,0,-8.5318335869877,6.6173664340935,482,16959.762682717,0.077392215425545,-0.026351719920244,0.07256932800241,3.8521985917947,nan,False,live,nan
03/20/2024-17:37:23.762351 -- 801100,0.3,0.0,0.0,1.0,0.0,0,-8.6175532147146,6.1795410020649,484,16421.427773001,0.050906615172377,-0.030149952988143,0.10907820805621,3.6639970280474,nan,False,live,nan
03/20/2024-17:37:23.793716 -- 801100,0.3,0.0,0.0,1.0,0.0,0,-8.678688055275899,5.7028064881455,486,14226.229148753,0.055852723616319,-0.024765134980682,0.099376295364242,3.4523992395532,nan,False,live,nan
03/20/2024-17:37:23.828752 -- 801100,0.3,0.0,0.0,1.0,0.0,0,-8.5070927965149,5.4358303915718995,488,12243.35855546,0.047648750786399,-0.037226482646324,0.064624255184363,3.2894814139016,nan,False,live,nan
03/20/2024-17:37:23.861187 -- 801100,0.3,0.0,0.0,1.0,0.0,0,-8.563077956916901,5.041481381454,490,10743.104041273,0.037021928479972,0.0080493144592027,0.039459135000488,3.2009077666656,nan,False,live,nan
03/20/2024-17:37:23.896333 -- 801300,0.3,0.0,0.0,1.0,0.0,0,-8.6868554738571,4.7208120039012,492,9230.4711951849,0.071344021530891,0.011488960476072,0.044675458981339,3.1229064623109,nan,False,live,nan
03/20/2024-17:37:23.929080 -- 801300,0.3,0.0,0.0,1.0,0.0,0,-8.6663692561479,4.4292390274917,494,8453.1543422184,0.065594195359265,-0.024427862105181,0.029409861387793,3.0599330022739,nan,False,live,nan
03/20/2024-17:37:23.962071 -- 801300,0.3,0.0,0.0,1.0,0.0,0,-8.5533754521477,4.091744873910599,496,6981.352966466,0.041380349297108,0.0057047578209286,0.046235482919412,2.987850013479,nan,False,live,nan
03/20/2024-17:37:23.995283 -- 801300,0.3,0.0,0.0,1.0,0.0,0,-8.4507121284219,3.7121904714882,498,6658.4670967742,0.063152780973737,-0.012058655819693,0.049825170437337,2.8956339596884,nan,False,live,nan
03/20/2024-17:37:24.026350 -- 801300,0.3,0.0,0.0,1.0,0.0,0,-8.1904099126092,3.4496325832316996,500,6603.0576592083,0.070936301417275,-0.040317284063919,0.037524562636912,2.8139933486987,nan,False,live,nan
03/20/2024-17:37:24.045994 -- 801300,0.3,0.0,0.0,1.0,0.0,0,-8.1014656564734,3.3088848527063996,501,6671.9995698925,0.05432049428217,-0.011410564870747,0.057852017553197,2.7561413311455,nan,False,live,nan
03/20/2024-17:37:24.078517 -- 801300,0.3,0.0,0.0,1.0,0.0,0,-7.877747283077401,3.0820138486181996,503,7651.9664082687,0.071330584045509,-0.023809015213643,0.085792145221016,2.6169094468696,nan,False,live,nan
03/20/2024-17:37:24.113145 -- 801300,0.3,0.0,0.0,1.0,0.0,0,-7.5457830386766,2.98291512454308,505,7897.7255913978,0.049571031593954,-0.036125576423356,0.079712071232429,2.4717002905745,nan,False,live,nan
03/20/2024-17:37:24.148719 -- 801308,0.3,0.0,0.0,1.0,0.0,0,-7.191304497894901,2.81125960254327,507,7852.3875,0.046537967178451,-0.018462520900501,0.090072968964693,2.2931623471718,nan,False,live,nan
03/20/2024-17:37:24.179522 -- 801327,0.3,0.0,0.0,1.0,0.0,0,-6.8897754558015,2.58676972703562,509,7224.6729776248,0.075779134509708,0.004323447823553,0.076791912368441,2.1394945056202,nan,False,live,nan
03/20/2024-17:37:24.215935 -- 801344,0.3,0.0,0.0,1.0,0.0,0,-6.7001904287814,2.5214386326798,511,7253.9141871496,0.04144242343072,-0.026480456217105,0.065392610652418,2.0052661985659,nan,False,live,nan
03/20/2024-17:37:24.247349 -- 801361,0.3,0.0,0.0,1.0,0.0,0,-6.2984738329782,2.43292347836649,513,7329.0232758621,0.036028931299411,-0.016065588508882,0.072657026235301,1.8744152652158,nan,False,live,nan
03/20/2024-17:37:24.281326 -- 801376,0.3,0.0,0.0,1.0,0.0,0,-5.9481869220990005,2.20128468161574,515,7356.3341935484,0.080968827879836,0.010764341162312,0.066133523555024,1.7521207915847,nan,False,live,nan
03/20/2024-17:37:24.315279 -- 801389,0.3,0.0,0.0,1.0,0.0,0,-5.6289579309738,2.32607803504938,517,7244.03783319,0.075829025797711,-0.036868261142065,0.052017508870004,1.6544550943881,nan,False,live,nan
03/20/2024-17:37:24.347020 -- 801402,0.3,0.0,0.0,1.0,0.0,0,-5.248072600512,2.40940358124837,519,6453.1427956989,0.032176424217151,-0.010030988178936,0.044322727611018,1.5534762426039,nan,False,live,nan
03/20/2024-17:37:24.380601 -- 801412,0.3,0.0,0.0,1.0,0.0,0,-4.7611085756976,2.45458146773619,521,5816.6199484093,0.11706100583962,0.0028212049325297,0.045091001707248,1.4738532377367,nan,False,live,nan
03/20/2024-17:37:24.413761 -- 801422,0.3,0.0,0.0,1.0,0.0,0,-4.563840168055201,2.62280153199156,523,5638.493545611,0.029042817390983,-0.035411017430754,0.032600872384463,1.3922742833078,nan,False,live,nan
03/20/2024-17:37:24.448346 -- 801433,0.3,0.0,0.0,1.0,0.0,0,-4.1034824702886,3.0086325657258,525,6381.3775290573,0.10205604029458,-0.036871791854969,0.053095032875058,1.3063548845433,nan,False,live,nan
03/20/2024-17:37:24.480535 -- 801445,0.3,0.0,0.0,1.0,0.0,0,-3.8258049446319005,2.86943443789383,527,6729.128116939,0.059778527043074,0.022626888413425,0.045524421497297,1.2128806489102,nan,False,live,nan
03/20/2024-17:37:24.514033 -- 801454,0.3,0.0,0.0,1.0,0.0,0,-3.6191078880975,3.0432277790175,529,6577.5406451613,0.011403825794946,-0.013755934224399,0.034701125162187,1.1416620341696,nan,False,live,nan
03/20/2024-17:37:24.549645 -- 801465,0.3,0.0,0.0,1.0,0.0,0,-3.1971043508943,3.3871806756327003,531,6875.0012908778,0.092161744175597,-0.024290664356309,0.039791921634761,1.0555895865886,nan,False,live,nan
03/20/2024-17:37:24.581252 -- 801480,0.3,0.0,0.0,1.0,0.0,0,-3.1198730270739,3.6022668022502997,533,6478.4288172043,0.051316496210682,-0.026301506113808,0.054657693908362,0.94239223012412,nan,False,live,nan
03/20/2024-17:37:24.615636 -- 801497,0.3,0.0,0.0,1.0,0.0,0,-3.0483717034719,3.850603499199,535,7159.3082545142,0.0071177118043423,-0.023556456224738,0.075562167476441,0.80482698281208,nan,False,live,nan
03/20/2024-17:37:24.647729 -- 801518,0.3,0.0,0.0,1.0,0.0,0,-3.0082898006892,4.2952695480264,537,7538.9367741935,0.073197426700483,-0.036955696843556,0.090925942880796,0.64128143812986,nan,False,live,nan
03/20/2024-17:37:24.679265 -- 801541,0.3,0.0,0.0,1.0,0.0,0,-3.0064327920320997,4.5819681139581,539,8246.1685296647,0.037978852907903,-0.0082972886824404,0.094144056613587,0.46155992145734,nan,False,live,nan
03/20/2024-17:37:24.701837 -- 801550,0.3,0.0,0.0,1.0,0.0,0,-2.93825331697017,4.7613939937284,540,8783.2953568358,0.063872035330336,-0.0039548667851522,0.073169506859221,0.38839041459812,nan,False,live,nan
03/20/2024-17:37:24.730839 -- 801559,0.3,0.0,0.0,1.0,0.0,0,-2.8995844336750203,4.9449154441287,542,8417.622527945,0.051449649434572,-0.0086077484196207,0.023939996840548,0.31852800136342,nan,False,live,nan
03/20/2024-17:37:24.762946 -- 801563,0.3,0.0,0.0,1.0,0.0,0,-2.7591286757296203,5.4253394746053,544,9280.8456577816,0.065324187060768,-0.0075583366354057,0.013271155462368,0.28488850349879,nan,False,live,nan
03/20/2024-17:37:24.799123 -- 801571,0.3,0.0,0.0,1.0,0.0,0,-2.68821284968674,5.6866559501634,546,9769.5313843508,0.075540845445768,-0.016796578411225,0.035617832441686,0.22772796569103,nan,False,live,nan
03/20/2024-17:37:24.831024 -- 801582,0.3,0.0,0.0,1.0,0.0,0,-2.7465014928522002,5.8547257054206,548,10495.465606191,-0.015221078697879,-0.00080235523277491,0.064442255619887,0.13942591741311,nan,False,live,nan
03/20/2024-17:37:24.865296 -- 801588,0.3,0.0,0.0,1.0,0.0,0,-2.9663370567772502,6.103096115529899,550,11259.540842648,0.057632527043106,-0.045698731036397,0.019698089088277,0.08805506748337,nan,False,live,nan
03/20/2024-17:37:24.898853 -- 801594,0.3,0.0,0.0,1.0,0.0,0,-3.2660158010183995,6.2357201579601,552,12548.55311828,0.016622556656614,-0.046768694585013,0.024873341063545,0.045661653618425,nan,False,live,nan
03/20/2024-17:37:24.932957 -- 801606,0.3,0.0,0.0,1.0,0.0,0,-3.376694749374,6.2943770956107,554,12014.002579536,0.0021840680588934,-0.035304291984384,0.045052466065488,6.2354151706657,nan,False,live,nan
03/20/2024-17:37:24.964464 -- 801617,0.3,0.0,0.0,1.0,0.0,0,-3.5045744814948003,6.2155575259302,556,12847.596732588,-0.013111398428076,0.0021855551468977,0.042221441118364,6.1440152865923,nan,False,live,nan
03/20/2024-17:37:24.999002 -- 801627,0.3,0.0,0.0,1.0,0.0,0,-3.6275092879932,6.218565687582901,558,14078.380481513,0.018196141228961,-0.033153530359083,0.030422226695747,6.0668730245993,nan,False,live,nan
03/20/2024-17:37:25.031063 -- 801637,0.3,0.0,0.0,1.0,0.0,0,-3.8703125045025004,6.227766756991199,560,13963.159071367,0.011643611162438,-0.035026714617895,0.040653439610281,5.9883851228793,nan,False,live,nan
03/20/2024-17:37:25.049647 -- 801636,0.3,0.0,0.0,1.0,0.0,0,-3.9979864548036,6.305441320401,561,14208.604901118,0.037050400765222,-0.03329904243169,-0.0053759345431083,5.9937610574224,nan,False,live,nan
03/20/2024-17:37:25.081100 -- 801643,0.3,0.0,0.0,1.0,0.0,0,-4.1889012770796,6.404134779734401,563,15041.766552021,0.023813135162683,0.027601591783994,-0.0011079788196188,5.9446454402956,nan,False,live,nan
03/20/2024-17:37:25.113468 -- 801650,0.3,0.0,0.0,1.0,0.0,0,-4.3557274188363,6.6733372155831,565,15182.897248495,0.072877072943468,-0.038855024499839,0.031219817111997,5.8890908048297,nan,False,live,nan
03/20/2024-17:37:25.147879 -- 801660,0.3,0.0,0.0,1.0,0.0,0,-4.6560866466009,6.8169427014678,567,15898.535253654,0.01602574066433,-0.030413058966111,0.055917811975599,5.8115632471399,nan,False,live,nan
03/20/2024-17:37:25.177872 -- 801673,0.3,0.0,0.0,1.0,0.0,0,-5.0775034953687,7.059253078859101,569,16821.264402408,0.09191522613608,-0.059277242603846,0.041617920903231,5.7044522809233,nan,False,live,nan
03/20/2024-17:37:25.211367 -- 801701,0.3,0.0,0.0,1.0,0.0,0,-5.429634262490399,7.1722846477941,571,15542.079965606,0.047647615567594,-0.025600576419709,0.096775121785674,5.4831499406346,nan,False,live,nan
03/20/2024-17:37:25.230737 -- 801710,0.3,0.0,0.0,1.0,0.0,0,-5.6359757479089,7.176395661910201,572,15496.276440241,0.051884217698006,-0.04519290540126,0.068522056342871,5.4146278842917,nan,False,live,nan
03/20/2024-17:37:25.265514 -- 801721,0.3,0.0,0.0,1.0,0.0,0,-5.9237622932211,7.3645202355873,574,14307.815993121,0.068006538790495,0.0079481782245442,0.045452625275256,5.3265292737254,nan,False,live,nan
03/20/2024-17:37:25.298635 -- 801734,0.3,0.0,0.0,1.0,0.0,0,-6.273963087251699,7.3198283923508995,576,13014.018916595,0.0078609447934008,-0.029251006969406,0.055997582383094,5.2243717241719,nan,False,live,nan
03/20/2024-17:37:25.331601 -- 801755,0.3,0.0,0.0,1.0,0.0,0,-6.507042474239101,7.1927368762305,578,11222.908817204,0.033745742228097,-0.040360570026001,0.090220469684057,5.058818986776,nan,False,live,nan
03/20/2024-17:37:25.364336 -- 801776,0.3,0.0,0.0,1.0,0.0,0,-6.792371631139799,6.9954061244631,580,9523.3736027515,0.051837190758762,-0.055343682639978,0.076527801415956,4.8954898826673,nan,False,live,nan
03/20/2024-17:37:25.398572 -- 801797,0.3,0.0,0.0,1.0,0.0,0,-7.1157870763146,6.886329357534899,582,7326.6828743546,0.032325197146183,-0.0089222378671659,0.087919546361616,4.732233549929,nan,False,live,nan
03/20/2024-17:37:25.429010 -- 801815,0.3,0.0,0.0,1.0,0.0,0,-7.4202649581315,6.9462340105955995,584,6679.1311263972,0.076451068205577,-0.0011220861834071,0.073625976004445,4.593258281952,nan,False,live,nan
03/20/2024-17:37:25.460266 -- 801827,0.3,0.0,0.0,1.0,0.0,0,-7.6292411065917,6.8756494999617,586,6281.6507321275,0.033603997118245,-0.0093958729600815,0.05018488352656,4.4991475056145,nan,False,live,nan
03/20/2024-17:37:25.494222 -- 801841,0.3,0.0,0.0,1.0,0.0,0,-8.0189119839198,6.7286496297678005,588,6293.2084409991,0.068958576066073,-0.0080244354843196,0.058259476863421,4.3846397558889,nan,False,live,nan
03/20/2024-17:37:25.528277 -- 801856,0.3,0.0,0.0,1.0,0.0,0,-8.451444346750801,6.7198865643431995,590,6468.5479569892,0.089130453973967,0.020451973371628,0.067780606150997,4.2654502367759,nan,False,live,nan
03/20/2024-17:37:25.561550 -- 801868,0.3,0.0,0.0,1.0,0.0,0,-8.6185960369335,6.570338950334699,592,6193.7517211704,0.029767712020465,-0.0076937501868793,0.041753851558006,4.1734597892126,nan,False,live,nan
03/20/2024-17:37:25.581635 -- 801876,0.3,0.0,0.0,1.0,0.0,0,-8.756199085026601,6.3185753266902,593,6073.5548387097,0.083839808747888,-0.046043246646384,0.05891433118355,4.1145454580291,nan,False,live,nan
03/20/2024-17:37:25.613046 -- 801891,0.3,0.0,0.0,1.0,0.0,0,-9.0449820450699,6.2340362639301,595,6776.5968158348,0.026800897229014,0.033442675191086,0.055427187596377,3.9913167726517,nan,False,live,nan
03/20/2024-17:37:25.645188 -- 801900,0.3,0.0,0.0,1.0,0.0,0,-9.3536813073609,6.0128810659188,597,7028.4104991394,0.068865770303718,0.0013337266621813,0.039525623831441,3.8934902112496,nan,False,live,nan
03/20/2024-17:37:25.677192 -- 801900,0.3,0.0,0.0,1.0,0.0,0,-9.4723834151358,5.6382982384419,599,7577.6782945736,0.070289262800966,-0.059708052203985,0.042065249559136,3.8211051326228,nan,False,live,nan
03/20/2024-17:37:25.710863 -- 801900,0.3,0.0,0.0,1.0,0.0,0,-9.6685514075304,5.2447844390046,601,7404.4372312984,0.064278369816065,0.010554430150376,0.064567442271951,3.6943647262594,nan,False,live,nan
03/20/2024-17:37:25.734364 -- 801900,0.3,0.0,0.0,1.0,0.0,0,-9.7774587388245,5.0716880412048,602,7463.7536543422,0.068101567814059,0.0034167298197349,0.08261532058382,3.6117494056756,nan,False,live,nan
03/20/2024-17:37:25.764960 -- 801900,0.3,0.0,0.0,1.0,0.0,0,-9.821975768714399,4.7725541504241,604,7846.6498924731,0.04518430696542,-0.034063245045465,0.071680172441846,3.4692946221281,nan,False,live,nan
03/20/2024-17:37:25.799551 -- 801900,0.3,0.0,0.0,1.0,0.0,0,-9.761672305961099,4.3237339868835,606,7414.3258813414,0.045258674798101,-0.0015240677098055,0.07821468504981,3.3329953642855,nan,False,live,nan
03/20/2024-17:37:25.832425 -- 801900,0.3,0.0,0.0,1.0,0.0,0,-9.9532281647094,3.8920169785973995,608,6869.4337349398,0.094323047711368,0.036009404547092,0.074771406858275,3.1941203246472,nan,False,live,nan
03/20/2024-17:37:25.862216 -- 802100,0.3,0.0,0.0,1.0,0.0,0,-9.9158415959226,3.7104429885048003,610,7456.4402407567,0.031106278594826,-0.019730526241631,0.055340845653185,3.0844995566694,nan,False,live,nan
03/20/2024-17:37:25.896258 -- 802100,0.3,0.0,0.0,1.0,0.0,0,-9.6794660332068,3.2760095819048995,612,7741.5922580645,0.043454384703008,-0.0084160141210038,0.06558396367929,2.9543036404633,nan,False,live,nan
03/20/2024-17:37:25.929192 -- 802100,0.3,0.0,0.0,1.0,0.0,0,-9.6162730858407,2.93043347780322,614,7729.930292599,0.087660109924416,0.0053272779075549,0.063444875949876,2.830508162733,nan,False,live,nan
03/20/2024-17:37:25.965342 -- 802100,0.3,0.0,0.0,1.0,0.0,0,-9.5164375246695,2.57364333369597,616,7750.5647311828,0.053763895752341,0.0081732689231486,0.04872424387341,2.7154872556653,nan,False,live,nan
03/20/2024-17:37:25.999899 -- 802100,0.3,0.0,0.0,1.0,0.0,0,-9.2323254007062,2.24843339678115,618,8374.3630107527,0.04687936590297,-0.0072287438605684,0.059633944205729,2.6120770532752,nan,False,live,nan
03/20/2024-17:37:26.031671 -- 802100,0.3,0.0,0.0,1.0,0.0,0,-9.048152191814701,1.93637475289872,620,8967.8938091144,0.07059468148621,0.0064394645013843,0.057881150652231,2.4989644092227,nan,False,live,nan
03/20/2024-17:37:26.062124 -- 802100,0.3,0.0,0.0,1.0,0.0,0,-8.7249473391246,1.86109400886588,622,8063.2545141874,0.072350355267661,-0.052115183818017,0.071456200682996,2.376949782744,nan,False,live,nan
03/20/2024-17:37:26.081438 -- 802104,0.3,0.0,0.0,1.0,0.0,0,-8.4765033508542,1.76321570047626,623,8757.5655913978,0.081923425260316,-0.034833048832247,0.057656720859885,2.3192930618841,nan,False,live,nan
03/20/2024-17:37:26.114178 -- 802121,0.3,0.0,0.0,1.0,0.0,0,-8.2283784216096,1.52311004260824,625,9009.3938091144,0.0724913677735,0.016314678387401,0.054374421774958,2.1877765188517,nan,False,live,nan
03/20/2024-17:37:26.148511 -- 802134,0.3,0.0,0.0,1.0,0.0,0,-8.0204392091763,1.41057997203852,627,9995.303655914,0.0098159664756944,-0.020700100110056,0.049993076824135,2.08131532374,nan,False,live,nan
03/20/2024-17:37:26.175502 -- 802143,0.3,0.0,0.0,1.0,0.0,0,-7.479066197706899,1.31574679443801,629,9737.3092473118,0.082555062223352,-0.048373032676317,0.020806491948978,2.0133136188904,nan,False,live,nan
03/20/2024-17:37:26.200401 -- 802153,0.3,0.0,0.0,1.0,0.0,0,-7.3609604479878,1.25039954244513,630,10119.242476354,0.044777554945567,0.0044950229547679,0.074397488668893,1.9389161302216,nan,False,live,nan
03/20/2024-17:37:26.230919 -- 802168,0.3,0.0,0.0,1.0,0.0,0,-7.0451970950169,1.12656999223554,632,10564.733333333,0.053580082552215,0.00062534735928405,0.065139211168591,1.8162945505089,nan,False,live,nan
03/20/2024-17:37:26.264325 -- 802188,0.3,0.0,0.0,1.0,0.0,0,-6.8288858828295,1.28186978260233,634,11339.753548387,0.066093716452003,-0.064272318757667,0.067145355644223,1.6640487290859,nan,False,live,nan
03/20/2024-17:37:26.298500 -- 802213,0.3,0.0,0.0,1.0,0.0,0,-6.4972229266257004,1.5386950267698,636,12286.992261393,0.031170467560294,-0.024224395512912,0.1035000904347,1.4676140111385,nan,False,live,nan
03/20/2024-17:37:26.329446 -- 802236,0.3,0.0,0.0,1.0,0.0,0,-6.0810131319048,1.67344442692872,638,12856.075698925,0.081682417625943,-0.0045094649081399,0.083250693150915,1.2850369993751,nan,False,live,nan
03/20/2024-17:37:26.362363 -- 802257,0.3,0.0,0.0,1.0,0.0,0,-5.9216146513389,1.84050321001131,640,13778.951827957,0.063848471686281,-0.022133496843713,0.080817776818122,1.1187682877888,nan,False,live,nan
03/20/2024-17:37:26.381840 -- 802272,0.3,0.0,0.0,1.0,0.0,0,-5.7283546010568,2.16759243799161,641,14897.694193548,0.10962628633151,-0.063540864855411,0.11962167571408,0.99914661207469,nan,False,live,nan
03/20/2024-17:37:26.414161 -- 802304,0.3,0.0,0.0,1.0,0.0,0,-5.4627217484274,2.53976968133178,643,14090.305806452,0.082969574984982,-0.00889859369227,0.10177477976494,0.74802454605413,nan,False,live,nan
03/20/2024-17:37:26.447782 -- 802327,0.3,0.0,0.0,1.0,0.0,0,-5.3201200521761995,2.9019250936706698,645,12814.212994836,0.057211988513139,-0.032008294995048,0.08533052151729,0.57004959146447,nan,False,live,nan
03/20/2024-17:37:26.480802 -- 802351,0.3,0.0,0.0,1.0,0.0,0,-5.2051421647662,3.3045193865424,647,10720.442432083,0.055119183118225,-0.011868077085213,0.087739042254568,0.37845005851126,nan,False,live,nan
03/20/2024-17:37:26.514804 -- 802372,0.3,0.0,0.0,1.0,0.0,0,-4.9506803578299,3.5792704024133997,649,9860.7292294447,0.073001915817797,0.027894767358797,0.079842691890891,0.21317697903637,nan,False,live,nan
03/20/2024-17:37:26.547899 -- 802385,0.3,0.0,0.0,1.0,0.0,0,-4.8942916384227,3.8290292355105,651,8386.0572782084,0.050238020663248,-0.022749344000294,0.045563179331753,0.11563634163867,nan,False,live,nan
03/20/2024-17:37:26.580298 -- 802392,0.3,0.0,0.0,1.0,0.0,0,-4.8768001717209,4.1981682647505005,653,7850.9715884632,0.05810058301144,-0.0036652801317878,0.036019603064775,0.05620756717623,nan,False,live,nan
03/20/2024-17:37:26.615353 -- 802399,0.3,0.0,0.0,1.0,0.0,0,-4.855586216928,4.5315833950092,655,8101.9418604651,0.053313366700709,0.013390320181161,0.031074420350232,0.0053638086657779,nan,False,live,nan
03/20/2024-17:37:26.647656 -- 802410,0.3,0.0,0.0,1.0,0.0,0,-4.8761163786786,4.803825405534,657,7854.7831325301,0.058856042102856,-0.00076619882085956,0.05176939183566,6.2015354253458,nan,False,live,nan
03/20/2024-17:37:26.681394 -- 802421,0.3,0.0,0.0,1.0,0.0,0,-5.0581308062175,5.282785610022,659,7617.7053763441,0.086021503001545,-0.022944705453609,0.040282315341317,6.1179083608788,nan,False,live,nan
03/20/2024-17:37:26.714936 -- 802433,0.3,0.0,0.0,1.0,0.0,0,-5.0769038350554005,5.6660088676035,661,7891.8411536806,0.062464135556466,0.010925371441783,0.051008781772983,6.0232935735339,nan,False,live,nan
03/20/2024-17:37:26.748023 -- 802445,0.3,0.0,0.0,1.0,0.0,0,-5.1483494754468,5.9816892629796,663,8060.3205679862,0.051121172147498,-0.0057817374119313,0.042931978910051,5.9232812595888,nan,False,live,nan
03/20/2024-17:37:26.779349 -- 802456,0.3,0.0,0.0,1.0,0.0,0,-5.375765302102501,6.3178048452759,665,8240.8929492691,0.056921552303526,-0.0088694984300326,0.040193908690439,5.842945508004,nan,False,live,nan
03/20/2024-17:37:26.815321 -- 802469,0.3,0.0,0.0,1.0,0.0,0,-5.464895705286899,6.7331200948004994,667,8547.3587096774,0.084986104896673,0.027585256035545,0.069043936211595,5.7370648989446,nan,False,live,nan
03/20/2024-17:37:26.847926 -- 802480,0.3,0.0,0.0,1.0,0.0,0,-5.655592144503,6.985084718434201,669,7968.6999140155,0.062199126557781,-0.00095489781424991,0.056226601506419,5.6525173406486,nan,False,live,nan
03/20/2024-17:37:26.883383 -- 802492,0.3,0.0,0.0,1.0,0.0,0,-6.064447236308101,7.290691908761099,671,8102.7862365591,0.062411990710246,0.023937785742937,0.053721631184139,5.5527702421757,nan,False,live,nan
03/20/2024-17:37:26.914731 -- 802509,0.3,0.0,0.0,1.0,0.0,0,-6.373726040871,7.7552130415893,673,7663.3417884781,0.1049156113453,0.025311571204788,0.072027947282424,5.4212866591538,nan,False,live,nan
03/20/2024-17:37:26.945870 -- 802521,0.3,0.0,0.0,1.0,0.0,0,-6.6459715928208,7.9338185678055,675,6857.8945783133,0.093987631067996,-0.025547937896967,0.048583419083927,5.3300100656041,nan,False,live,nan
03/20/2024-17:37:26.981888 -- 802531,0.3,0.0,0.0,1.0,0.0,0,-6.9654774317772,8.089255595772599,677,7043.1745485813,0.074104215136535,0.0093280177834962,0.041147590652009,5.2540392778481,nan,False,live,nan
03/20/2024-17:37:27.016344 -- 802540,0.3,0.0,0.0,1.0,0.0,0,-7.3023002012553,8.431540332215999,679,6544.6325301205,0.12219351792143,0.024608741889025,0.028758132372884,5.1780829049344,nan,False,live,nan
03/20/2024-17:37:27.049243 -- 802547,0.3,0.0,0.0,1.0,0.0,0,-7.5668544503439,8.5321757956104,681,6893.1403357727,0.074749057008821,-0.016453919383565,0.018802263529321,5.1224463650737,nan,False,live,nan
03/20/2024-17:37:27.081065 -- 802552,0.3,0.0,0.0,1.0,0.0,0,-7.860475508667001,8.528792083626,683,7058.3977615153,0.028867191041881,-0.021141642344661,0.019320358916912,5.0860722859276,nan,False,live,nan
