timestamp -- motor_step_command,mfc1_stpt,mfc2_stpt,mfc3_stpt,led1_stpt,led2_stpt,sig_status,ft_posx,ft_posy,ft_frame,ft_error,ft_roll,ft_pitch,ft_yaw,ft_heading,adapted_center,instrip,mode,strip_thresh
03/21/2024-15:05:39.773146 -- 800300,0.02,0.0,0.0,1.0,0.0,0,-11.2583858250468,1.7344436874372,124,8853.3302832244,0.0015177044686998,-0.012280102768552,-0.018591206947088,3.6211873168117,nan,False,live,nan
03/21/2024-15:05:39.804520 -- 800300,0.02,0.0,0.0,1.0,0.0,0,-11.3090686198194,1.7385215810581198,126,8935.3414634146,-0.00069101757238984,-0.0010709350167161,0.025984993930108,3.600718851849,nan,False,live,nan
03/21/2024-15:05:39.840809 -- 800300,0.02,0.0,0.0,1.0,0.0,0,-11.2717055077431,1.6863487613155501,128,8657.011328976,-0.00056934162402948,0.0051824872904989,-0.0086884725460838,3.5765799896459,nan,False,live,nan
03/21/2024-15:05:39.873303 -- 800300,0.02,0.0,0.0,1.0,0.0,0,-11.1693369861696,1.75488154343256,130,8885.1271777003,-0.031749076650702,-0.0046061466487156,-0.0022019167359636,3.585904546632,nan,False,live,nan
03/21/2024-15:05:39.908386 -- 800300,0.02,0.0,0.0,1.0,0.0,0,-11.1350817373173,1.9299941773741502,132,9100.4259581882,-0.03094116925397,0.0032163924685628,0.0026323384684508,3.5968782046538,nan,False,live,nan
03/21/2024-15:05:39.939946 -- 800300,0.02,0.0,0.0,1.0,0.0,0,-11.1030843125409,2.23742127301653,134,9942.9886759582,-0.055582695472371,0.03435743200178,-0.0486313781198,3.663472777575,nan,False,live,nan
03/21/2024-15:05:39.974367 -- 800300,0.02,0.0,0.0,1.0,0.0,0,-11.302461756924,2.70658682326392,136,11244.537254902,-0.054525532802841,0.11442458455571,-0.17611826629523,3.9100156035438,nan,False,live,nan
03/21/2024-15:05:40.006373 -- 800249,0.02,0.0,0.0,1.0,0.0,0,-11.5271607738483,3.3971108299547996,138,11336.907189542,-0.037309285540372,0.10155599143118,-0.17861424263701,4.3207848871616,nan,False,live,nan
03/21/2024-15:05:40.040199 -- 800189,0.02,0.0,0.0,1.0,0.0,0,-11.813361399834601,4.1081033487501,140,10052.613943355,0.067160128743806,0.10607653042561,-0.27617776287104,4.7923303510446,nan,False,live,nan
03/21/2024-15:05:40.073303 -- 800151,0.02,0.0,0.0,1.0,0.0,0,-11.5117713476652,4.2875117604408,142,9294.7534843206,-0.035550131152141,0.016929577168555,-0.1558227789716,5.0919165017341,nan,False,live,nan
03/21/2024-15:05:40.105857 -- 800136,0.02,0.0,0.0,1.0,0.0,0,-11.4289966943478,4.5830510567238,144,9201.2761324042,0.020520022543383,0.045917881214733,0.016339932033411,5.2131929222264,nan,False,live,nan
03/21/2024-15:05:40.140871 -- 800137,0.02,0.0,0.0,1.0,0.0,0,-11.3757361795194,4.5472502811123,146,9389.1742160279,-0.0043857762893769,0.010292056153279,0.012654997500623,5.2064861136969,nan,False,live,nan
03/21/2024-15:05:40.173291 -- 800148,0.02,0.0,0.0,1.0,0.0,0,-11.2407428925915,4.5004827817854,148,9797.7168989547,-0.031333766801267,0.0089001634609685,0.040429750852868,5.1200591157693,nan,False,live,nan
03/21/2024-15:05:40.207068 -- 800147,0.02,0.0,0.0,1.0,0.0,0,-11.0282670218262,4.7275682756742,150,10604.082752613,-0.0045339646674587,0.052906397342316,-0.026440858366933,5.1223520722107,nan,False,live,nan
03/21/2024-15:05:40.241099 -- 800145,0.02,0.0,0.0,1.0,0.0,0,-11.0506614179313,4.7302060874886,152,10401.450783972,0.0072457501012236,-0.022674424227529,-0.0065713469802965,5.1412654113622,nan,False,live,nan
03/21/2024-15:05:40.275274 -- 800143,0.02,0.0,0.0,1.0,0.0,0,-10.9901908401471,4.7106193235778,154,10085.639372822,0.0017597449974618,-0.011901297780188,0.0033397565199135,5.1540863709588,nan,False,live,nan
03/21/2024-15:05:40.307127 -- 800143,0.02,0.0,0.0,1.0,0.0,0,-10.9952343722688,4.6845919106469,156,9996.0644599303,0.00029718091058137,-0.0040909131091434,0.00076629580507699,5.1524968899203,nan,False,live,nan
03/21/2024-15:05:40.343236 -- 800144,0.02,0.0,0.0,1.0,0.0,0,-11.0094550504752,4.6916105099508,158,9599.6994773519,-0.0089190735013421,0.0033758700587482,-0.0018693525555112,5.1516773420924,nan,False,live,nan
03/21/2024-15:05:40.373389 -- 800143,0.02,0.0,0.0,1.0,0.0,0,-11.0071912838253,4.7095565672319,160,9624.9764808362,0.0092084550305813,0.0010511590691101,-0.0014619895017044,5.1549980552606,nan,False,live,nan
03/21/2024-15:05:40.406758 -- 800142,0.02,0.0,0.0,1.0,0.0,0,-11.022211606027799,4.7253886313379,162,9426.7918118467,0.013037078093269,-0.00080697848284739,-0.0027635099472319,5.1602928466235,nan,False,live,nan
03/21/2024-15:05:40.441754 -- 800128,0.02,0.0,0.0,1.0,0.0,0,-10.9688323945698,5.2463327867409,164,9268.6977351916,0.061140076297637,0.097108495265923,-0.08025808097543,5.2770857540471,nan,False,live,nan
03/21/2024-15:05:40.472824 -- 800097,0.02,0.0,0.0,1.0,0.0,0,-11.121697556029801,6.1325537889792,166,7698.625,0.099676080162245,0.085061925187755,-0.10089114967474,5.5137434837092,nan,False,live,nan
03/21/2024-15:05:40.506328 -- 800083,0.02,0.0,0.0,1.0,0.0,0,-11.0715108815844,6.4930857118242,168,7070.9904181185,0.079665636252472,0.022290036838277,-0.041980353379642,5.6273255249724,nan,False,live,nan
03/21/2024-15:05:40.539828 -- 800095,0.02,0.0,0.0,1.0,0.0,0,-11.488137595820099,6.721857783467399,170,6819.0827526132,0.089147800035169,-0.03022809152365,0.058669679284132,5.5317445383626,nan,False,live,nan
03/21/2024-15:05:40.572951 -- 800100,0.02,0.0,0.0,1.0,0.0,0,-11.7408371377122,6.8495372246394,172,6325.4089721254,0.034344957547944,-0.033117894770175,0.041195687024615,5.4945940364951,nan,False,live,nan
03/21/2024-15:05:40.607169 -- 800123,0.02,0.0,0.0,1.0,0.0,0,-12.457488065442,7.0237309054185,174,8262.868902439,0.14229689528515,-0.038342827860483,0.089641899997426,5.3142973608763,nan,False,live,nan
03/21/2024-15:05:40.637277 -- 800160,0.02,0.0,0.0,1.0,0.0,0,-12.694922234914198,7.081076270807699,176,10670.978222997,0.053248674607565,-0.0030963152798441,0.14467749383713,5.0220738798714,nan,False,live,nan
03/21/2024-15:05:40.658822 -- 800164,0.02,0.0,0.0,1.0,0.0,0,-13.1018666307735,7.2919278169941,177,10907.610191638,0.15016595110416,0.028151718423959,0.033911140135005,4.9881627397364,nan,False,live,nan
03/21/2024-15:05:40.689029 -- 800160,0.02,0.0,0.0,1.0,0.0,0,-13.2821560773075,7.1990361184569,179,11298.209930314,0.0209961222204,0.012156215193148,-0.071214154802422,5.0253979493524,nan,False,live,nan
03/21/2024-15:05:40.722743 -- 800155,0.02,0.0,0.0,1.0,0.0,0,-13.3745744305869,7.1279634288147,181,10643.371515679,-0.0083871856419751,-0.032687214385049,0.030975648671856,5.0634216068182,nan,False,live,nan
03/21/2024-15:05:40.758830 -- 800154,0.02,0.0,0.0,1.0,0.0,0,-13.3816986265314,7.1214837467172,183,10112.033101045,0.013215389978984,0.015640459801029,-0.012895443974142,5.0696584955958,nan,False,live,nan
03/21/2024-15:05:40.790313 -- 800166,0.02,0.0,0.0,1.0,0.0,0,-13.373855388888899,7.0239274649769,185,10307.56445993,-0.0026386335975431,-0.012951930741149,0.031544000254982,4.9757310935035,nan,False,live,nan
03/21/2024-15:05:40.824293 -- 800168,0.02,0.0,0.0,1.0,0.0,0,-13.356097695018299,7.0200221593359,187,10579.832752613,-0.019541518018659,0.018948660436375,0.0091712138681205,4.9564632882426,nan,False,live,nan
03/21/2024-15:05:40.857656 -- 800162,0.02,0.0,0.0,1.0,0.0,0,-13.380479794895699,7.0252164526929,189,10161.690766551,0.0034845347080991,0.0068974956475468,-0.027369857865509,5.0091858022485,nan,False,live,nan
03/21/2024-15:05:40.888272 -- 800162,0.02,0.0,0.0,1.0,0.0,0,-13.3988903712216,6.9696664596984,191,10044.831010453,0.02184285809616,0.0044432763963186,-0.001651642950694,5.0047111420767,nan,False,live,nan
03/21/2024-15:05:40.907019 -- 800165,0.02,0.0,0.0,1.0,0.0,0,-13.375220120727,7.0072341009009005,192,9872.9594947735,-0.0041030500498908,0.014221140200243,0.021949420477844,4.9827617215989,nan,False,live,nan
03/21/2024-15:05:40.940340 -- 800165,0.02,0.0,0.0,1.0,0.0,0,-13.3772003395875,7.0035781968567,194,9569.2979094077,0.015464607283674,-0.013884715181814,-0.021676101594506,4.9812096401449,nan,False,live,nan
03/21/2024-15:05:40.973053 -- 800165,0.02,0.0,0.0,1.0,0.0,0,-13.2996232241616,6.9592866349137,196,9670.3162020906,-0.022720436755458,-0.0082960334371959,0.0019883717928098,4.9829773805931,nan,False,live,nan
03/21/2024-15:05:41.007401 -- 800165,0.02,0.0,0.0,1.0,0.0,0,-13.301260315380599,6.9583609772481,198,9673.5243902439,-0.011882167701449,-0.0023912820088022,0.0051044458765023,4.9828024984957,nan,False,live,nan
03/21/2024-15:05:41.039581 -- 800165,0.02,0.0,0.0,1.0,0.0,0,-13.325077851760499,6.949247891058599,200,9761.4507839721,0.0085694194612043,0.0064008917519696,-0.0012090293894154,4.9801610627047,nan,False,live,nan
03/21/2024-15:05:41.074228 -- 800166,0.02,0.0,0.0,1.0,0.0,0,-13.311885034992299,6.9751681299251995,202,9523.1768292683,0.0073315032620777,0.0069732341669943,0.00030504671801916,4.9766171981783,nan,False,live,nan
03/21/2024-15:05:41.106545 -- 800166,0.02,0.0,0.0,1.0,0.0,0,-13.311635428290302,6.973331952036,204,9344.7094947735,0.00011075002503667,0.0089371844414083,0.0030087971528361,4.9766820936053,nan,False,live,nan
03/21/2024-15:05:41.140611 -- 800166,0.02,0.0,0.0,1.0,0.0,0,-13.299854286613801,6.958816944254401,206,9018.5831881533,-0.0024888195148563,0.00012461353515896,-0.0020859815783587,4.978843468384,nan,False,live,nan
03/21/2024-15:05:41.173916 -- 800165,0.02,0.0,0.0,1.0,0.0,0,-13.3044897928884,6.961859750533501,208,8562.7360627178,-0.0019624556972788,0.0014698314967761,-0.00068625430159413,4.9807707371679,nan,False,live,nan
03/21/2024-15:05:41.206155 -- 800166,0.02,0.0,0.0,1.0,0.0,0,-13.3005856618884,6.9522672209961005,210,8696.5514385353,-0.00060112254979758,-0.0033627838493212,0.0027734487391531,4.9789427435968,nan,False,live,nan
03/21/2024-15:05:41.240060 -- 800166,0.02,0.0,0.0,1.0,0.0,0,-13.298154311610901,6.9470484291045,212,8775.1319686411,0.00010151776535357,-0.0012464618592894,-0.00038215716829701,4.9771422817592,nan,False,live,nan
03/21/2024-15:05:41.272799 -- 800160,0.02,0.0,0.0,1.0,0.0,0,-13.349956785108901,7.3249924567191,214,9223.9215686275,0.029799625496485,0.10852805748794,-0.042504055325278,5.0229376032094,nan,False,live,nan
03/21/2024-15:05:41.305200 -- 800132,0.02,0.0,0.0,1.0,0.0,0,-13.3303423392957,8.2051395343824,216,9104.5520697168,0.041316644165106,0.12882681273529,-0.10618860424472,5.2443359385991,nan,False,live,nan
03/21/2024-15:05:41.324284 -- 800116,0.02,0.0,0.0,1.0,0.0,0,-13.4223114993066,8.379275936787,217,8642.2025261324,0.057924737506337,0.030967604089692,-0.12396734712383,5.3683032857229,nan,False,live,nan
03/21/2024-15:05:41.356819 -- 800097,0.02,0.0,0.0,1.0,0.0,0,-13.5073144289025,8.9738671870914,219,8815.4005235602,0.086789899249056,0.070527643071893,-0.056747043553684,5.5135182761051,nan,False,live,nan
03/21/2024-15:05:41.389751 -- 800093,0.02,0.0,0.0,1.0,0.0,0,-13.9177954074285,9.320980590999302,221,8983.9213286713,0.08986527874869,-0.030311812541678,-0.0072787615999633,5.5501444421194,nan,False,live,nan
03/21/2024-15:05:41.424222 -- 800107,0.02,0.0,0.0,1.0,0.0,0,-14.020513033980002,9.2563430546364,223,8634.7124125874,0.022773040570552,-0.022764559475361,0.088445164137427,5.4425738394346,nan,False,live,nan
03/21/2024-15:05:41.456673 -- 800144,0.02,0.0,0.0,1.0,0.0,0,-14.6535495505047,9.301173239484,225,9781.0274629468,0.13188433291478,-0.046148971147931,0.19077511469178,5.1504187337213,nan,False,live,nan
03/21/2024-15:05:41.488497 -- 800177,0.02,0.0,0.0,1.0,0.0,0,-15.010505753070001,9.2366190753573,227,8661.4646904969,0.028968355055771,-0.0043117122340779,0.094854865167411,4.8864547640549,nan,False,live,nan
03/21/2024-15:05:41.523180 -- 800191,0.02,0.0,0.0,1.0,0.0,0,-15.3692171217741,9.2927677979799,229,7880.0966331439,0.047297279010284,0.0043759718578284,0.024920310673084,4.7806480178188,nan,False,live,nan
03/21/2024-15:05:41.557287 -- 800188,0.02,0.0,0.0,1.0,0.0,0,-15.468053764245601,9.2055145840656,231,7757.7981651376,-0.0078942154385336,-0.024605303598867,-0.0075970748642836,4.8065838337424,nan,False,live,nan
03/21/2024-15:05:41.592063 -- 800176,0.02,0.0,0.0,1.0,0.0,0,-15.3739634950398,9.2943908156481,233,8147.5732345248,-0.016126952258408,0.032861826237743,-0.070156301303348,4.8976839905772,nan,False,live,nan
03/21/2024-15:05:41.624717 -- 800163,0.02,0.0,0.0,1.0,0.0,0,-15.306482755954502,9.39225190602,235,8153.7741935484,0.003102529212973,0.016546540349964,-0.037977076592492,4.9989358545396,nan,False,live,nan
03/21/2024-15:05:41.658228 -- 800158,0.02,0.0,0.0,1.0,0.0,0,-15.2408837106903,9.5014184382342,237,8062.0488017429,-0.0024331967108726,0.0090758192081505,-0.0039152461015103,5.0353360208446,nan,False,live,nan
03/21/2024-15:05:41.689174 -- 800160,0.02,0.0,0.0,1.0,0.0,0,-15.2041467117756,9.4698218975673,239,8294.7283035325,-0.014676473802294,0.010654053683543,-0.0035938208586993,5.0206932464641,nan,False,live,nan
03/21/2024-15:05:41.723024 -- 800168,0.02,0.0,0.0,1.0,0.0,0,-15.209171255011201,9.4555126165194,241,8039.2691637631,0.0015162693776739,-0.011725002869765,0.037884032282995,4.9624440122803,nan,False,live,nan
03/21/2024-15:05:41.757180 -- 800168,0.02,0.0,0.0,1.0,0.0,0,-15.2031964580601,9.424110939252,243,7814.2351916376,-0.0017185307576296,0.0044907044756741,0.001765735443599,4.9562444346608,nan,False,live,nan
03/21/2024-15:05:41.789643 -- 800167,0.02,0.0,0.0,1.0,0.0,0,-15.166438102964701,9.4287076738713,245,7557.0453159041,-6.9001529545177e-05,0.0033386168155937,-0.010859146420753,4.9640584580275,nan,False,live,nan
03/21/2024-15:05:41.824320 -- 800161,0.02,0.0,0.0,1.0,0.0,0,-15.1064029433985,9.4959155277459,247,8036.1708061002,-0.0096808156514784,0.019102055697119,-0.026153714871758,5.0182871340692,nan,False,live,nan
03/21/2024-15:05:41.857083 -- 800154,0.02,0.0,0.0,1.0,0.0,0,-15.177082448809802,9.597388752418201,249,8097.9442022668,0.016523923588277,0.014022424479691,-0.020275978670372,5.0664873912791,nan,False,live,nan
03/21/2024-15:05:41.889861 -- 800163,0.02,0.0,0.0,1.0,0.0,0,-15.170806008373802,9.4811985220062,251,7400.1498910675,-0.0046278507028046,-0.01128489347814,0.048438830470323,4.9965653829013,nan,False,live,nan
03/21/2024-15:05:41.924223 -- 800179,0.02,0.0,0.0,1.0,0.0,0,-15.1008420363465,9.334108080053701,253,7271.4248366013,-0.032486682629483,-0.031740988384542,0.085953377998823,4.8721870584156,nan,False,live,nan
03/21/2024-15:05:41.956655 -- 800200,0.02,0.0,0.0,1.0,0.0,0,-15.0476861483193,9.0800548219356,255,7896.1381263617,-0.013351612747691,-0.039702180650741,0.07884154092452,4.7122833929368,nan,False,live,nan
03/21/2024-15:05:41.990851 -- 800221,0.02,0.0,0.0,1.0,0.0,0,-14.976207540407401,8.840552823059701,257,7375.0871080139,-0.0013536434045912,-0.067700853816331,0.089293665681674,4.5462441601532,nan,False,live,nan
03/21/2024-15:05:42.022075 -- 800234,0.02,0.0,0.0,1.0,0.0,0,-14.936457385101,8.596900302533701,259,7764.3620915033,0.0032419107796268,-0.041724271331873,0.050441325579088,4.4383745406633,nan,False,live,nan
03/21/2024-15:05:42.056530 -- 800244,0.02,0.0,0.0,1.0,0.0,0,-14.9060382998811,8.3650723791711,261,7502.7169646751,0.0085707007421931,-0.031866396160513,0.021422821483549,4.3652135918685,nan,False,live,nan
03/21/2024-15:05:42.090154 -- 800260,0.02,0.0,0.0,1.0,0.0,0,-14.9237926238562,8.0880198070977,263,8078.6650696864,0.022748930259154,-0.069367539291917,0.10067184269365,4.2369567868,nan,False,live,nan
03/21/2024-15:05:42.123290 -- 800279,0.02,0.0,0.0,1.0,0.0,0,-14.908619761977,7.6833169431318,265,8335.7012647187,0.03936943259602,-0.061210286290649,0.071958709198272,4.088784264393,nan,False,live,nan
03/21/2024-15:05:42.158258 -- 800293,0.02,0.0,0.0,1.0,0.0,0,-14.9720778860481,7.32084755436,267,9036.1332748794,0.039526375435196,-0.045819313292687,0.033647087185294,3.9759082566407,nan,False,live,nan
03/21/2024-15:05:42.190844 -- 800286,0.02,0.0,0.0,1.0,0.0,0,-14.9629574521332,7.2869876453508,269,8545.9245283019,0.011846183328479,0.0068374017433906,-0.030113374157463,4.0305181412028,nan,False,live,nan
03/21/2024-15:05:42.223393 -- 800273,0.02,0.0,0.0,1.0,0.0,0,-15.0831154480419,7.287766143588,271,8187.9484716157,0.01210367349109,0.014022853525375,-0.052413840044242,4.1368346852223,nan,False,live,nan
03/21/2024-15:05:42.257768 -- 800265,0.02,0.0,0.0,1.0,0.0,0,-15.196331759037598,7.285356681885,273,8116.5501094092,0.024131118643877,0.011041056983375,-0.013658636843761,4.1990153126271,nan,False,live,nan
03/21/2024-15:05:42.289580 -- 800267,0.02,0.0,0.0,1.0,0.0,0,-15.310052364938102,7.1610355782489,275,8103.1896400351,0.038134614060543,0.0045761938196324,0.013476172093619,4.1855543284994,nan,False,live,nan
03/21/2024-15:05:42.322698 -- 800277,0.02,0.0,0.0,1.0,0.0,0,-15.340677591511202,6.9107844168264005,277,8138.7265934066,-0.0093899082180669,-0.062400792425782,0.058173632277082,4.1064168221065,nan,False,live,nan
03/21/2024-15:05:42.356278 -- 800300,0.02,0.0,0.0,1.0,0.0,0,-15.0804974335329,6.4253928683541,279,8825.5695246557,0.034642294186391,-0.12632508117654,0.11392104909773,3.8576925806462,nan,False,live,nan
03/21/2024-15:05:42.390304 -- 800300,0.02,0.0,0.0,1.0,0.0,0,-14.774471643063599,6.0013209454104,281,10028.402833112,0.0027941893451311,-0.051429462160893,0.12054723760417,3.6041443503718,nan,False,live,nan
03/21/2024-15:05:42.422776 -- 800300,0.02,0.0,0.0,1.0,0.0,0,-14.7694155962247,5.7916028741433,283,10532.068101933,0.042501675322142,0.012220071601448,0.07834198593419,3.4372347759993,nan,False,live,nan
03/21/2024-15:05:42.456945 -- 800300,0.02,0.0,0.0,1.0,0.0,0,-14.841652223717702,5.6333746746333,285,9849.4197802198,0.045426917756686,-7.0995967740875e-05,-0.054426492629902,3.4862920538084,nan,False,live,nan
03/21/2024-15:05:42.485838 -- 800300,0.02,0.0,0.0,1.0,0.0,0,-15.1071011235099,5.275919192380799,287,9779.4295713036,0.063032817924662,0.0014085486421175,-0.060307902800532,3.6058116454023,nan,False,live,nan
03/21/2024-15:05:42.506426 -- 800300,0.02,0.0,0.0,1.0,0.0,0,-15.2515925863278,5.1805806463236,288,9684.096464426,0.05042077130553,0.028065711425026,-0.030819360476138,3.6366310058784,nan,False,live,nan
03/21/2024-15:05:42.534401 -- 800300,0.02,0.0,0.0,1.0,0.0,0,-15.315667137187198,5.0485132540857,290,9805.5246402093,-0.0050115969172055,-0.011959388865058,-0.0062080376859456,3.6917901105857,nan,False,live,nan
03/21/2024-15:05:42.553301 -- 800300,0.02,0.0,0.0,1.0,0.0,0,-15.371990491936801,4.9984676052549,291,10000.059694989,0.023989171372057,0.0074359298282158,0.012856055436928,3.6789340551487,nan,False,live,nan
03/21/2024-15:05:42.574171 -- 800300,0.02,0.0,0.0,1.0,0.0,0,-15.4449996863838,4.9017282969656994,292,9850.4679738562,0.040153891655514,0.0044450542272835,0.0021807552666178,3.6767532998821,nan,False,live,nan
03/21/2024-15:05:42.603654 -- 800300,0.02,0.0,0.0,1.0,0.0,0,-15.897171413671199,4.8960816820884006,294,8807.4793028322,0.07061977741728,0.061957325765304,-0.083506132296468,3.8152437078042,nan,False,live,nan
03/21/2024-15:05:42.640085 -- 800282,0.02,0.0,0.0,1.0,0.0,0,-16.6124451440706,4.8159585418083,296,8883.0849303136,0.067425675271457,0.11301150794169,-0.13984431805785,4.0667123088942,nan,False,live,nan
03/21/2024-15:05:42.672340 -- 800264,0.02,0.0,0.0,1.0,0.0,0,-16.6785014864004,4.7707579078767,298,9021.1511324042,0.027040849270676,-0.040419212540089,-0.038571378291556,4.2052468448865,nan,False,live,nan
03/21/2024-15:05:42.707884 -- 800259,0.02,0.0,0.0,1.0,0.0,0,-17.133947535577498,4.7854892779941,300,8347.9259259259,0.073055702143741,0.055170640292881,-0.015667939110726,4.2486685655223,nan,False,live,nan
03/21/2024-15:05:42.739844 -- 800266,0.02,0.0,0.0,1.0,0.0,0,-17.3917925207493,4.5206914174614,302,9570.9307491289,0.078360259010043,-0.032181831282395,0.038342379221741,4.1895229580584,nan,False,live,nan
03/21/2024-15:05:42.773510 -- 800266,0.02,0.0,0.0,1.0,0.0,0,-17.8620476903166,4.2762798190995,304,9008.6306620209,0.056742291089221,0.019676695234589,0.0048869972672156,4.1882850025654,nan,False,live,nan
03/21/2024-15:05:42.806787 -- 800238,0.02,0.0,0.0,1.0,0.0,0,-18.2002608527295,4.591058293113299,306,7675.8475609756,0.01681106499311,0.075507160506202,-0.14873427243102,4.4135323494209,nan,False,live,nan
03/21/2024-15:05:42.841050 -- 800200,0.02,0.0,0.0,1.0,0.0,0,-18.1394028355854,4.8717267454503,308,6722.1663763066,-0.030838392155537,0.027116523742068,-0.10816781207613,4.7118820055751,nan,False,live,nan
03/21/2024-15:05:42.874314 -- 800190,0.02,0.0,0.0,1.0,0.0,0,-18.4767978430263,4.8408741757317,310,7170.5609756098,0.033370905960726,-0.025335860525258,-0.018114750003513,4.7851550863709,nan,False,live,nan
03/21/2024-15:05:42.905947 -- 800223,0.02,0.0,0.0,1.0,0.0,0,-18.546031203852,4.359519581280599,312,7331.8963414634,0.045249243758943,-0.058627602982899,0.12860523791619,4.5268394962098,nan,False,live,nan
03/21/2024-15:05:42.939890 -- 800229,0.02,0.0,0.0,1.0,0.0,0,-18.638788492773898,4.3220725426551,314,7554.3954703833,-0.01029832386411,-0.01343690957138,-0.0041662368262097,4.480632754052,nan,False,live,nan
03/21/2024-15:05:42.974163 -- 800196,0.02,0.0,0.0,1.0,0.0,0,-18.4462523461056,4.661689028565901,316,6715.0174216028,-0.0063554836996241,0.071439979868256,-0.19011873343561,4.7411475153965,nan,False,live,nan
03/21/2024-15:05:43.005660 -- 800149,0.02,0.0,0.0,1.0,0.0,0,-18.466628830586398,5.106540922167,318,5316.1585365854,0.004805171622019,0.074253660557639,-0.14839855495145,5.1101583280542,nan,False,live,nan
03/21/2024-15:05:43.041229 -- 800137,0.02,0.0,0.0,1.0,0.0,0,-18.8250423275337,5.2429725590952,320,5010.9547038328,0.089358953379868,-0.011957960483138,-0.0062251445121794,5.200176388463,nan,False,live,nan
03/21/2024-15:05:43.073103 -- 800155,0.02,0.0,0.0,1.0,0.0,0,-19.066671737657103,5.4607479064341,322,6083.7055749129,0.061991661430073,0.041380935022201,0.077156605756601,5.0643171286031,nan,False,live,nan
03/21/2024-15:05:43.108300 -- 800176,0.02,0.0,0.0,1.0,0.0,0,-19.1820566747112,5.226674783380201,324,6411.3993902439,0.0089262319446454,-0.073838678438331,0.11495908224457,4.8965693170425,nan,False,live,nan
03/21/2024-15:05:43.141944 -- 800208,0.02,0.0,0.0,1.0,0.0,0,-19.113039659316,4.8404642172495,326,7474.1920731707,-0.030997862544272,-0.044992085475498,0.10857104408394,4.6418705974694,nan,False,live,nan
03/21/2024-15:05:43.173070 -- 800228,0.02,0.0,0.0,1.0,0.0,0,-19.01139505077,4.5391223335227,328,7471.9041811847,-0.019356814065155,-0.035138400610992,0.092231519621105,4.4850246423593,nan,False,live,nan
03/21/2024-15:05:43.206982 -- 800231,0.02,0.0,0.0,1.0,0.0,0,-18.9387872256435,4.5299134820586,330,7123.9516550523,-0.0094095391065729,0.027453606497419,-0.020792974217242,4.4631651579774,nan,False,live,nan
03/21/2024-15:05:43.239266 -- 800226,0.02,0.0,0.0,1.0,0.0,0,-19.096557226578298,4.5152291476047,332,7197.3449477352,0.029908874565755,0.0035893083546946,-0.033873849528293,4.5058492647552,nan,False,live,nan
03/21/2024-15:05:43.273211 -- 800213,0.02,0.0,0.0,1.0,0.0,0,-19.086140934851098,4.6338772580019,334,6892.0378919861,-0.016414617272036,0.0099768215341431,-0.0096023579094833,4.6066494678529,nan,False,live,nan
03/21/2024-15:05:43.306421 -- 800215,0.02,0.0,0.0,1.0,0.0,0,-19.0711993899039,4.5908880513315005,336,6986.3292682927,-0.0040699814575398,0.01784894770394,-0.0017570386333362,4.589192507631,nan,False,live,nan
03/21/2024-15:05:43.339554 -- 800222,0.02,0.0,0.0,1.0,0.0,0,-19.0213944366552,4.5471481998495,338,6956.0148083624,-0.0046943233020886,-0.013745139504782,0.025420222442254,4.5346961991471,nan,False,live,nan
03/21/2024-15:05:43.373766 -- 800219,0.02,0.0,0.0,1.0,0.0,0,-19.027978609982398,4.5858649631703,340,6713.6623093682,-0.0080089768886509,0.0070756569066914,-0.00017044587570174,4.5588221626158,nan,False,live,nan
03/21/2024-15:05:43.408049 -- 800218,0.02,0.0,0.0,1.0,0.0,0,-19.0241478798891,4.5820077290151,342,6666.9516550523,0.003909124024874,0.014769929475185,-0.012286415923687,4.5672151532535,nan,False,live,nan
03/21/2024-15:05:43.439236 -- 800222,0.02,0.0,0.0,1.0,0.0,0,-19.01010198666,4.5563503646898,344,6833.5272331155,0.0019278544567437,-0.00879099598146,0.024578269510155,4.5359214111051,nan,False,live,nan
03/21/2024-15:05:43.472741 -- 800221,0.02,0.0,0.0,1.0,0.0,0,-18.9827105596068,4.515955275818101,346,6765.5991285403,-0.0035604311582826,-0.0027633728392302,-0.0045815912391656,4.5469420784008,nan,False,live,nan
03/21/2024-15:05:43.506712 -- 800220,0.02,0.0,0.0,1.0,0.0,0,-18.987619614859803,4.5271068413796,348,6354.9298780488,-0.0042361678236192,0.003903029802983,-0.010968496623512,4.5483534975139,nan,False,live,nan
03/21/2024-15:05:43.541305 -- 800222,0.02,0.0,0.0,1.0,0.0,0,-19.0040111482167,4.522630093096501,350,6235.2513066202,0.0091243876575468,-0.013870130491019,0.014265139399857,4.5391537113473,nan,False,live,nan
03/21/2024-15:05:43.573255 -- 800210,0.02,0.0,0.0,1.0,0.0,0,-19.024668449925002,4.8951543885078,352,6754.728540305,-0.0029299476760329,0.11018551991709,-0.072755709760476,4.6271682689646,nan,False,live,nan
03/21/2024-15:05:43.606034 -- 800156,0.02,0.0,0.0,1.0,0.0,0,-19.041803567778,5.5827288937557,354,5230.1794425087,0.024148128223872,0.13747949876293,-0.22448330378298,5.0535592263698,nan,False,live,nan
03/21/2024-15:05:43.641202 -- 800094,0.02,0.0,0.0,1.0,0.0,0,-18.904869858766503,6.2555446129128,356,5868.1245644599,0.013488186118505,0.068108335741013,-0.19268556458796,5.5438120877501,nan,False,live,nan
03/21/2024-15:05:43.673526 -- 800090,0.02,0.0,0.0,1.0,0.0,0,-18.872897007890998,6.3501382225041,358,5236.2483660131,0.033724859159768,0.010601271147933,0.01734643865104,5.57592011037,nan,False,live,nan
03/21/2024-15:05:43.707558 -- 800103,0.02,0.0,0.0,1.0,0.0,0,-19.1257504938156,6.81830686134,360,5494.2440087146,0.08278694753463,0.00033172019043934,0.076326930780876,5.4664239174946,nan,False,live,nan
03/21/2024-15:05:43.740853 -- 800102,0.02,0.0,0.0,1.0,0.0,0,-19.2266589069654,6.9250145512401,362,5873.0152439024,0.00094240063545617,0.044800745085969,-0.074181690113519,5.4781230085674,nan,False,live,nan
03/21/2024-15:05:43.773853 -- 800078,0.02,0.0,0.0,1.0,0.0,0,-19.072443962682,7.3918124205021005,364,5793.2164634146,0.039924275400832,0.023963746207464,-0.12532360620544,5.6690890483351,nan,False,live,nan
03/21/2024-15:05:43.806245 -- 800037,0.02,0.0,0.0,1.0,0.0,0,-18.7308478989873,7.9035934906562995,366,6275.6672473868,0.078129878888722,0.10031136152097,-0.18102755023144,5.9858752955644,nan,False,live,nan
03/21/2024-15:05:43.841426 -- 800015,0.02,0.0,0.0,1.0,0.0,0,-18.6335554690971,8.291929187310298,368,6992.4507839721,0.0343387007658,-0.0090106626511196,-0.013520426065277,6.1613970512781,nan,False,live,nan
03/21/2024-15:05:43.875194 -- 800008,0.02,0.0,0.0,1.0,0.0,0,-18.7104124695534,8.620890608514,370,7263.4115853659,0.084171162258328,-0.0076523387121513,-0.065745183475681,6.2183820329078,nan,False,live,nan
03/21/2024-15:05:43.908928 -- 800018,0.02,0.0,0.0,1.0,0.0,0,-18.919725624384597,8.7621154366716,372,7158.06271777,-0.0025295246081741,-0.07718555931828,0.059581265462208,6.1400883871659,nan,False,live,nan
03/21/2024-15:05:43.940603 -- 800026,0.02,0.0,0.0,1.0,0.0,0,-19.242219255698398,8.862034905854099,374,7453.6837979094,0.047830253956164,-0.041038650552445,0.024174041589294,6.0787397297369,nan,False,live,nan
03/21/2024-15:05:43.972429 -- 800036,0.02,0.0,0.0,1.0,0.0,0,-19.1974444580553,9.0210598475001,376,7179.6959930314,0.0035433112386883,0.0056416189125595,0.035343283914603,5.9991998341631,nan,False,live,nan
03/21/2024-15:05:44.006312 -- 800031,0.02,0.0,0.0,1.0,0.0,0,-19.1561808599505,9.2445180058281,378,7498.4342334495,0.022246528581572,0.033471195688393,-0.018768275053266,6.0376694383667,nan,False,live,nan
03/21/2024-15:05:44.040806 -- 800028,0.02,0.0,0.0,1.0,0.0,0,-19.1201037428469,9.4071688953192,380,7668.0366013072,0.044031126251163,0.0027508796083761,-0.0096600793916072,6.0629687737305,nan,False,live,nan
03/21/2024-15:05:44.075053 -- 800025,0.02,0.0,0.0,1.0,0.0,0,-19.0143044697876,9.576624356487901,382,7836.1912020906,0.0066652439037511,0.015888439633539,-0.0021334518422212,6.0816039157897,nan,False,live,nan
03/21/2024-15:05:44.102767 -- 800017,0.02,0.0,0.0,1.0,0.0,0,-19.2643706222319,10.233264059194799,384,8946.4392156863,0.093129149283507,0.027637766457063,-0.020674300813071,6.1421468409148,nan,False,live,nan
03/21/2024-15:05:44.125235 -- 800009,0.02,0.0,0.0,1.0,0.0,0,-19.0870868979921,10.2539734574526,385,8210.5546840959,0.00056924732254685,0.059504629634795,-0.068633292168495,6.2107801330833,nan,False,live,nan
03/21/2024-15:05:44.157551 -- 800003,0.02,0.0,0.0,1.0,0.0,0,-19.0553572076847,10.9670617960356,387,9090.0980392157,0.14211672253671,-0.022347351724186,0.039977549434645,6.2554833950954,nan,False,live,nan
03/21/2024-15:05:44.189227 -- 799990,0.02,0.0,0.0,1.0,0.0,0,-18.9021520895043,10.9251908309091,389,9371.5888501742,0.0072861167462674,0.053665799486935,-0.08143007706115,0.076191574149512,nan,False,live,nan
03/21/2024-15:05:44.224618 -- 800002,0.02,0.0,0.0,1.0,0.0,0,-19.1484905433228,10.9919642044422,391,9218.1341463415,-0.0072981571929931,-0.060443009231247,0.062745631138119,6.2615839181969,nan,False,live,nan
03/21/2024-15:05:44.257378 -- 800010,0.02,0.0,0.0,1.0,0.0,0,-19.2124511651649,11.3491437797325,393,8836.7848432056,0.13232926214126,-0.0011965110888178,0.041085309666691,6.2018965714505,nan,False,live,nan
03/21/2024-15:05:44.290078 -- 800021,0.02,0.0,0.0,1.0,0.0,0,-19.1804161255545,11.3164072272168,395,8887.706445993,-0.029276365909865,0.0270350984108,-0.0066249059165093,6.1117188280596,nan,False,live,nan
03/21/2024-15:05:44.323084 -- 799998,0.02,0.0,0.0,1.0,0.0,0,-18.6719804139381,11.6019791785116,397,8649.7347560976,0.046626992664809,0.0594728385658,-0.10366604561644,0.011659480378896,nan,False,live,nan
03/21/2024-15:05:44.358168 -- 799959,0.02,0.0,0.0,1.0,0.0,0,-18.0274378315905,11.7695649110739,399,8754.2134146341,0.054564756180461,0.14750594838848,-0.17876432438763,0.31655843751904,nan,False,live,nan
03/21/2024-15:05:44.392128 -- 799942,0.02,0.0,0.0,1.0,0.0,0,-17.7804881339292,11.7418885700967,401,8888.0648954704,-0.026062980782824,-0.01223353300433,-0.00021292427764531,0.45019771692036,nan,False,live,nan
03/21/2024-15:05:44.423649 -- 799944,0.02,0.0,0.0,1.0,0.0,0,-17.8322272692606,11.8031033834466,403,9293.487804878,0.01965098077308,0.0077127341948929,0.015612385086632,0.4334851100464,nan,False,live,nan
03/21/2024-15:05:44.456775 -- 799986,0.02,0.0,0.0,1.0,0.0,0,-18.3626963972805,11.8861470634395,405,8677.9817073171,-0.018011200485171,-0.11382009162856,0.19229379590377,0.10578718368924,nan,False,live,nan
03/21/2024-15:05:44.490175 -- 800040,0.02,0.0,0.0,1.0,0.0,0,-18.921349211994,11.8297647733101,407,8289.0091463415,-0.01168132864206,-0.10797204046217,0.23223237681913,5.9652122599282,nan,False,live,nan
03/21/2024-15:05:44.523947 -- 800067,0.02,0.0,0.0,1.0,0.0,0,-19.2288259488726,11.9708706418575,409,8110.1455337691,0.024186730968599,0.018223183277923,0.024092841324562,5.7496958085471,nan,False,live,nan
03/21/2024-15:05:44.556216 -- 800040,0.02,0.0,0.0,1.0,0.0,0,-18.9426251837211,12.1306045853655,411,8253.9978222997,0.044542107674598,0.040120050921852,-0.11380113813642,5.9688455054867,nan,False,live,nan
03/21/2024-15:05:44.590999 -- 800013,0.02,0.0,0.0,1.0,0.0,0,-18.7254612551895,12.414167561779202,413,8763.6130718954,0.0090883058265647,0.038507347971226,-0.086902209001667,6.1764023419066,nan,False,live,nan
03/21/2024-15:05:44.622702 -- 800008,0.02,0.0,0.0,1.0,0.0,0,-18.677935561915803,12.671832820185898,415,8672.4255226481,0.047375831157028,0.0063955671414888,0.0089357872069791,6.2185289033634,nan,False,live,nan
03/21/2024-15:05:44.641474 -- 800007,0.02,0.0,0.0,1.0,0.0,0,-18.6684884135076,12.700365305251498,416,8703.7848432056,0.0092938619556672,0.0037412015406357,-0.0033963685881896,6.2219252719516,nan,False,live,nan
03/21/2024-15:05:44.674413 -- 800016,0.02,0.0,0.0,1.0,0.0,0,-18.8208011442918,12.7607944779786,418,8440.0226480836,-0.020675380461279,-0.035844854381937,0.051685506290583,6.1506334441246,nan,False,live,nan
03/21/2024-15:05:44.706841 -- 800017,0.02,0.0,0.0,1.0,0.0,0,-18.846011512733398,12.7675336750011,420,8315.9015679443,0.027176409747494,-0.0243237593493,0.018404446790664,6.1437993555351,nan,False,live,nan
03/21/2024-15:05:44.740950 -- 800023,0.02,0.0,0.0,1.0,0.0,0,-18.979487114784,12.6809522066754,422,8524.2582752613,0.0012136243759515,-0.01385070054591,0.019310122502733,6.1000796573682,nan,False,live,nan
03/21/2024-15:05:44.774006 -- 800042,0.02,0.0,0.0,1.0,0.0,0,-19.206607471323302,12.5624836079925,424,8383.6154181185,-0.037713849224016,-0.063112046135573,0.077722555088343,5.9519960516347,nan,False,live,nan
03/21/2024-15:05:44.807273 -- 800064,0.02,0.0,0.0,1.0,0.0,0,-19.4638475775573,12.3699643289232,426,8263.2055749129,0.0068799809031151,-0.052419959840124,0.11434258131338,5.7738399651227,nan,False,live,nan
03/21/2024-15:05:44.841981 -- 800078,0.02,0.0,0.0,1.0,0.0,0,-19.7108090886507,12.4079781792462,428,8472.5272331155,0.0016796702278444,-0.0042477976560602,0.0023181928221342,5.6659871114512,nan,False,live,nan
03/21/2024-15:05:44.873188 -- 800071,0.02,0.0,0.0,1.0,0.0,0,-19.8386678132943,12.494817635197501,430,8572.734204793,0.031259883394458,-0.027373346265183,-0.034393630001255,5.7243031287237,nan,False,live,nan
03/21/2024-15:05:44.891849 -- 800071,0.02,0.0,0.0,1.0,0.0,0,-19.9383887423895,12.412740811720798,431,8631.4886759582,-0.0054573871835645,-0.042704225456218,0.0053189180199986,5.7189842107037,nan,False,live,nan
03/21/2024-15:05:44.923824 -- 800095,0.02,0.0,0.0,1.0,0.0,0,-20.1692972688171,12.330364591903798,433,8849.8204793028,0.028717305650449,-0.033904540861031,0.093827536573727,5.5356528362502,nan,False,live,nan
03/21/2024-15:05:44.956967 -- 800116,0.02,0.0,0.0,1.0,0.0,0,-20.5989576411684,12.241587468711899,435,8049.9268292683,0.048972942843343,-0.044914429649507,0.083561148413356,5.3697616960811,nan,False,live,nan
03/21/2024-15:05:44.989164 -- 800115,0.02,0.0,0.0,1.0,0.0,0,-20.6895282981519,12.2416789500828,437,8154.5931094636,0.024334241556915,-0.011201775351418,-0.019708200792981,5.3764837295771,nan,False,live,nan
03/21/2024-15:05:45.024014 -- 800117,0.02,0.0,0.0,1.0,0.0,0,-20.9178439348128,12.196536322026299,439,8045.6269633508,0.013990642744041,-0.038104655362921,0.02229292667585,5.3590182748196,nan,False,live,nan
03/21/2024-15:05:45.054879 -- 800128,0.02,0.0,0.0,1.0,0.0,0,-21.2187089275398,12.109925466839698,441,8032.9071085914,0.036344918287921,-0.058667924641727,0.038586844901577,5.2751696690162,nan,False,live,nan
03/21/2024-15:05:45.073707 -- 800131,0.02,0.0,0.0,1.0,0.0,0,-21.302656387003502,11.9141260538148,442,8536.1603485839,-0.010239861248393,-0.070271937670116,0.026090944249147,5.249078724767,nan,False,live,nan
03/21/2024-15:05:45.106505 -- 800148,0.02,0.0,0.0,1.0,0.0,0,-21.689990948464498,11.9441467535079,444,7646.3005226481,0.096459492409434,-0.020997440957827,0.067253889274582,5.1206655602604,nan,False,live,nan
03/21/2024-15:05:45.141320 -- 800151,0.02,0.0,0.0,1.0,0.0,0,-21.7223873531493,11.924885200629,446,7821.4331154684,0.0019418882231541,-0.010329026351077,-0.0067537686556565,5.0957462553747,nan,False,live,nan
03/21/2024-15:05:45.174620 -- 800146,0.02,0.0,0.0,1.0,0.0,0,-22.0508803802529,11.9173739211348,448,8023.9969485615,0.061521014261895,-0.01757415637051,-0.022743493977106,5.1354679717846,nan,False,live,nan
03/21/2024-15:05:45.206893 -- 800161,0.02,0.0,0.0,1.0,0.0,0,-22.2945077163837,11.7876175660179,450,7646.5819529207,0.016546837567593,-0.0669122547276,0.085999154431606,5.0185168627522,nan,False,live,nan
03/21/2024-15:05:45.240490 -- 800178,0.02,0.0,0.0,1.0,0.0,0,-22.5752937067914,11.636652353988,452,7904.191285403,0.038485189996275,-0.041253694633894,0.04558470677787,4.8794472140704,nan,False,live,nan
03/21/2024-15:05:45.270336 -- 800166,0.02,0.0,0.0,1.0,0.0,0,-22.673143829067,11.860093068588,454,7817.491503268,0.029407815148032,0.030402428981763,-0.10794776978284,4.9722544638464,nan,False,live,nan
03/21/2024-15:05:45.290027 -- 800154,0.02,0.0,0.0,1.0,0.0,0,-22.8072083173701,11.944616316831,455,8614.102832244,0.051152553961886,0.013278305417704,-0.097357316043187,5.0696117798896,nan,False,live,nan
03/21/2024-15:05:45.324078 -- 800147,0.02,0.0,0.0,1.0,0.0,0,-22.936065095641503,11.945649269487,457,8431.0927700348,0.016791261644476,-0.0056146463339859,-0.016865670850314,5.1284372910046,nan,False,live,nan
03/21/2024-15:05:45.358922 -- 800167,0.02,0.0,0.0,1.0,0.0,0,-23.1709807677897,11.761496537854502,459,7980.6078431373,0.007563151485842,-0.073557227828347,0.13297350639053,4.9689119224007,nan,False,live,nan
03/21/2024-15:05:45.390570 -- 800190,0.02,0.0,0.0,1.0,0.0,0,-22.777461459978902,11.5682851426605,461,7663.2976034858,-0.036125964066573,0.00010606507823043,0.066560025683126,4.7836610365085,nan,False,live,nan
03/21/2024-15:05:45.424321 -- 800192,0.02,0.0,0.0,1.0,0.0,0,-22.9077528865881,11.592316750530001,463,6946.2482578397,0.011987691759414,0.0019341365220108,-0.01368809515754,4.7707107108301,nan,False,live,nan
03/21/2024-15:05:45.456928 -- 800168,0.02,0.0,0.0,1.0,0.0,0,-22.8048925122687,12.023395012786501,465,7709.1385017422,0.01602595208033,0.086488411715835,-0.093441962333127,4.9621405381435,nan,False,live,nan
03/21/2024-15:05:45.490230 -- 800124,0.02,0.0,0.0,1.0,0.0,0,-22.8426961958667,12.5532795492786,467,8643.6445704317,0.024011848300662,0.099520726903436,-0.19856125528394,5.3045735011149,nan,False,live,nan
03/21/2024-15:05:45.525035 -- 800075,0.02,0.0,0.0,1.0,0.0,0,-22.747181630799,13.082747258658,469,8366.2693984307,0.057253747160068,0.04309264803834,-0.16053563044129,5.6886946091976,nan,False,live,nan
03/21/2024-15:05:45.556906 -- 800080,0.02,0.0,0.0,1.0,0.0,0,-22.7834460673953,13.1853666707418,471,8250.087543554,0.011459546714865,0.0027636020020341,0.013926300901191,5.6488052658599,nan,False,live,nan
03/21/2024-15:05:45.591232 -- 800105,0.02,0.0,0.0,1.0,0.0,0,-23.1567704839863,13.453506670082401,473,8526.6302264808,0.085757247723438,-0.026632298784066,0.099723905450116,5.4538853494601,nan,False,live,nan
03/21/2024-15:05:45.624394 -- 800093,0.02,0.0,0.0,1.0,0.0,0,-23.3950052604321,13.6790323878741,475,8780.5954664342,0.036725500851784,0.0082748017094769,-0.062877067793383,5.5513289413046,nan,False,live,nan
03/21/2024-15:05:45.658122 -- 800080,0.02,0.0,0.0,1.0,0.0,0,-23.491011495149102,13.8466582986054,477,8536.5196163906,0.025479260945029,0.0053061440132901,-0.042402345233741,5.6490264421479,nan,False,live,nan
03/21/2024-15:05:45.691095 -- 800095,0.02,0.0,0.0,1.0,0.0,0,-23.6725663098186,13.694851004234401,479,8646.8636165577,-0.0011668520062196,-0.056776929841783,0.094502749329202,5.5306055011194,nan,False,live,nan
03/21/2024-15:05:45.724544 -- 800137,0.02,0.0,0.0,1.0,0.0,0,-23.780873505760198,13.1992736881713,481,8398.176983435,-0.057334351720183,-0.10151005972415,0.20209573027417,5.2038112201297,nan,False,live,nan
03/21/2024-15:05:45.757219 -- 800193,0.02,0.0,0.0,1.0,0.0,0,-24.0634116341283,12.5476771850346,483,8092.0598253275,0.030947000597586,-0.12069628488826,0.22486312656729,4.7640948148979,nan,False,live,nan
03/21/2024-15:05:45.789729 -- 800226,0.02,0.0,0.0,1.0,0.0,0,-24.176022561434998,12.1371130794225,485,6805.5769063181,0.050887403516893,-0.090867798862206,0.085489510875311,4.5022932788762,nan,False,live,nan
03/21/2024-15:05:45.823034 -- 800214,0.02,0.0,0.0,1.0,0.0,0,-24.1063164410151,12.2934482113881,487,7586.9119058003,-0.029480281336847,0.075084086565303,-0.084668726431414,4.5962920230442,nan,False,live,nan
03/21/2024-15:05:45.857918 -- 800192,0.02,0.0,0.0,1.0,0.0,0,-24.0817577215029,12.532026790593001,489,7557.544938918,0.0078523782664776,0.035591146186273,-0.091807692514671,4.7725624422589,nan,False,live,nan
03/21/2024-15:05:45.888087 -- 800180,0.02,0.0,0.0,1.0,0.0,0,-24.097576757625298,12.680578509132001,491,7527.0641361257,0.030926982938889,0.029038958828899,-0.043985681847512,4.86515813742,nan,False,live,nan
03/21/2024-15:05:45.906824 -- 800181,0.02,0.0,0.0,1.0,0.0,0,-24.1255428245775,12.6668186715195,492,7519.5786492375,0.0085441429480054,-0.005910627870695,0.0096538036302314,4.8555043337897,nan,False,live,nan
03/21/2024-15:05:45.939233 -- 800178,0.02,0.0,0.0,1.0,0.0,0,-24.1724017288305,12.8794236909456,494,7489.1511324042,0.014987765822054,0.047372911916133,-0.034200017348636,4.8774885101743,nan,False,live,nan
03/21/2024-15:05:45.974415 -- 800153,0.02,0.0,0.0,1.0,0.0,0,-24.4112570543616,13.227607878647998,496,8748.7528334786,0.037754961156364,0.049149106233806,-0.11959701304015,5.075001496382,nan,False,live,nan
03/21/2024-15:05:46.007331 -- 800130,0.02,0.0,0.0,1.0,0.0,0,-24.4905987723495,13.3250691129966,498,8591.1333333333,0.0057090449791838,-0.0027541384769612,-0.055984942631089,5.2600807902292,nan,False,live,nan
03/21/2024-15:05:46.040846 -- 800131,0.02,0.0,0.0,1.0,0.0,0,-24.8200925856435,13.579010352540301,500,8416.8086312119,0.090039732473933,0.0073195193903163,0.021630329327598,5.254132910672,nan,False,live,nan
03/21/2024-15:05:46.074078 -- 800137,0.02,0.0,0.0,1.0,0.0,0,-24.980911863772498,13.7168530579203,502,8852.6881533101,0.0074222911913458,0.0061484316766289,0.0030670048635434,5.2022177289853,nan,False,live,nan
03/21/2024-15:05:46.105533 -- 800136,0.02,0.0,0.0,1.0,0.0,0,-25.4118355331115,13.7483445390441,504,7867.8885017422,0.058397931575549,-0.024191883903756,0.0036166845018382,5.211847300064,nan,False,live,nan
03/21/2024-15:05:46.124566 -- 800140,0.02,0.0,0.0,1.0,0.0,0,-25.3578924933177,13.822682905465502,505,8508.3952069717,-0.0044017858771452,0.030299133691664,0.03199552702167,5.1798517730423,nan,False,live,nan
03/21/2024-15:05:46.157779 -- 800149,0.02,0.0,0.0,1.0,0.0,0,-25.6469103595161,13.969273261488,507,7946.3333333333,0.077149828302716,-0.022315782985416,0.068433408161883,5.1093509055304,nan,False,live,nan
03/21/2024-15:05:46.189905 -- 800160,0.02,0.0,0.0,1.0,0.0,0,-25.8201342606567,14.0312799981804,509,8280.2887630662,0.01277307454556,0.016079318988194,0.046948995372795,5.0253631444472,nan,False,live,nan
03/21/2024-15:05:46.224108 -- 800165,0.02,0.0,0.0,1.0,0.0,0,-26.046418311755097,13.816691077712399,511,7500.3458188153,0.047535982434172,-0.04634874675792,0.0080702616263132,4.9847708131358,nan,False,live,nan
03/21/2024-15:05:46.256110 -- 800170,0.02,0.0,0.0,1.0,0.0,0,-26.4312396599451,13.6389173679,513,7707.2806100218,0.039486094773939,-0.074787112442227,0.056227017295457,4.9461423829503,nan,False,live,nan
03/21/2024-15:05:46.292157 -- 800200,0.02,0.0,0.0,1.0,0.0,0,-26.702088773860204,13.2165911201082,515,8831.1725490196,0.033161629057653,-0.059309223124676,0.12849415425233,4.708501603736,nan,False,live,nan
03/21/2024-15:05:46.325309 -- 800237,0.02,0.0,0.0,1.0,0.0,0,-26.6194112934786,12.917373336291298,517,10443.673780488,-0.0001108660106346,-0.056480126297211,0.1196449760183,4.4168011607919,nan,False,live,nan
03/21/2024-15:05:46.358059 -- 800254,0.02,0.0,0.0,1.0,0.0,0,-26.878050181775098,12.480483763233298,519,10207.532665505,0.075132932770541,-0.049544771967195,0.045529825904142,4.2817990772868,nan,False,live,nan
03/21/2024-15:05:46.392358 -- 800252,0.02,0.0,0.0,1.0,0.0,0,-27.0744650186478,12.568772022229501,521,10312.970818815,0.0024393156970492,0.021529597449949,-0.040992489297129,4.2966562551719,nan,False,live,nan
03/21/2024-15:05:46.422792 -- 800246,0.02,0.0,0.0,1.0,0.0,0,-27.2986945067037,12.3105564499194,523,8867.2758169935,0.059371815686247,-0.013364826111451,-0.01509510616319,4.3462683665836,nan,False,live,nan
03/21/2024-15:05:46.455173 -- 800258,0.02,0.0,0.0,1.0,0.0,0,-27.5648225472246,12.2026990023036,525,9078.3079268293,0.057905772910703,0.012665481027644,0.050972826945843,4.2556713949253,nan,False,live,nan
03/21/2024-15:05:46.488173 -- 800252,0.02,0.0,0.0,1.0,0.0,0,-27.643054207421997,11.8994286554778,527,8690.0135017422,0.024834952282218,-0.020191406174172,-0.040107428085922,4.3013303581248,nan,False,live,nan
03/21/2024-15:05:46.506970 -- 800253,0.02,0.0,0.0,1.0,0.0,0,-27.835084837081503,12.001386047265601,528,8536.3035714286,0.044803189194776,0.05696542656822,0.010378691947763,4.290951666177,nan,False,live,nan
03/21/2024-15:05:46.541232 -- 800248,0.02,0.0,0.0,1.0,0.0,0,-28.3994959384611,11.9672018689986,530,8511.4908536585,0.097224854096336,0.0040962292125454,-0.020670822395106,4.3328469254254,nan,False,live,nan
03/21/2024-15:05:46.573230 -- 800256,0.02,0.0,0.0,1.0,0.0,0,-28.750151914035598,11.623136523709201,532,8066.5962543554,0.053229680522093,-0.010173362167461,0.034585127888884,4.2709642998716,nan,False,live,nan
03/21/2024-15:05:46.606788 -- 800261,0.02,0.0,0.0,1.0,0.0,0,-28.9730130775692,11.4290583997716,534,8625.2600174216,0.078992506854494,-0.013173306075572,0.061115381696498,4.2300325831925,nan,False,live,nan
03/21/2024-15:05:46.641064 -- 800261,0.02,0.0,0.0,1.0,0.0,0,-29.294481205584603,11.1544646479707,536,8060.4120209059,0.036440299757149,0.018033239096261,-0.015838228534071,4.2285816341789,nan,False,live,nan
03/21/2024-15:05:46.672947 -- 800271,0.02,0.0,0.0,1.0,0.0,0,-29.233764601115098,10.8801593315394,538,8403.8140243902,0.034761194640851,-0.073042004375993,0.062440210227255,4.1486915874076,nan,False,live,nan
03/21/2024-15:05:46.707356 -- 800285,0.02,0.0,0.0,1.0,0.0,0,-29.312072999033997,10.5436472069457,540,8313.9799651568,0.049004080615864,-0.022404035985729,0.074801008213008,4.0422411205648,nan,False,live,nan
03/21/2024-15:05:46.740216 -- 800300,0.02,0.0,0.0,1.0,0.0,0,-29.112936084536102,10.2942185718441,542,8475.2395470383,-0.006305309909369,-0.029345144977211,0.10000491850424,3.7997930742193,nan,False,live,nan
03/21/2024-15:05:46.774050 -- 800300,0.02,0.0,0.0,1.0,0.0,0,-29.2811810380827,10.1222808072198,544,8287.2817944251,0.085327202850764,-0.0022487448512778,-0.00034975395461529,3.7685185159928,nan,False,live,nan
03/21/2024-15:05:46.807177 -- 800300,0.02,0.0,0.0,1.0,0.0,0,-29.143171909535397,10.0013484074844,546,8783.2674216028,-0.013329904951009,-0.0072020117633115,0.025452796523166,3.7773790613164,nan,False,live,nan
03/21/2024-15:05:46.840395 -- 800300,0.02,0.0,0.0,1.0,0.0,0,-28.848925892938798,9.5493999162051,548,9113.043554007,0.044326198776726,-0.092696916010251,0.14761494564189,3.6136210493111,nan,False,live,nan
03/21/2024-15:05:46.873136 -- 800300,0.02,0.0,0.0,1.0,0.0,0,-28.687674673315502,9.2551908670446,550,8300.4782229965,0.079361767099358,-0.031802260157293,0.072347483945871,3.3992889589715,nan,False,live,nan
03/21/2024-15:05:46.908323 -- 800300,0.02,0.0,0.0,1.0,0.0,0,-28.455163732948797,8.5630199883588,552,7159.9468641115,0.04007091070726,-0.072635341216249,0.063807242772539,3.2623847813915,nan,False,live,nan
03/21/2024-15:05:46.940231 -- 800300,0.02,0.0,0.0,1.0,0.0,0,-28.732419564002697,8.363367269766,554,7864.8275261324,0.092244187303006,0.049356570258127,-0.094603024121234,3.4406072240669,nan,False,live,nan
03/21/2024-15:05:46.973341 -- 800300,0.02,0.0,0.0,1.0,0.0,0,-28.654213491919798,7.9975636100211,556,7402.68728223,0.01798785840745,-0.050727471303005,0.043645865149133,3.3905854729989,nan,False,live,nan
03/21/2024-15:05:47.008804 -- 800300,0.02,0.0,0.0,1.0,0.0,0,-29.019149972048403,7.5328352035971005,558,6681.6964285714,0.11095320599454,0.024847448660605,-0.0028182194880182,3.3887041967886,nan,False,live,nan
03/21/2024-15:05:47.041793 -- 800300,0.02,0.0,0.0,1.0,0.0,0,-28.9493704990062,7.1294853698328,560,6650.9041811847,0.02875353119769,-0.032938884799669,-0.0022789339408524,3.3714300245981,nan,False,live,nan
03/21/2024-15:05:47.074993 -- 800300,0.02,0.0,0.0,1.0,0.0,0,-28.895565174398698,6.7239342568391995,562,6935.3991285403,0.085196215785859,-0.038915360436941,0.0516824759462,3.2990659012956,nan,False,live,nan
03/21/2024-15:05:47.108103 -- 800500,0.02,0.0,0.0,1.0,0.0,0,-28.8132210634017,6.536350839522001,564,6955.3301393728,0.02821725480736,-0.014154371411421,0.091655971052926,3.1153222903142,nan,False,live,nan
03/21/2024-15:05:47.139231 -- 800500,0.02,0.0,0.0,1.0,0.0,0,-28.8956581778499,5.8728617977503,566,8142.0444444444,0.11169369802451,0.04971671657702,-0.0042467179570402,3.0998432714583,nan,False,live,nan
03/21/2024-15:05:47.171786 -- 800300,0.02,0.0,0.0,1.0,0.0,0,-28.9152048299688,5.7115155309717,568,7779.8165577342,0.021200323802484,-0.012538677378982,-0.0067413186273745,3.190599693613,nan,False,live,nan
03/21/2024-15:05:47.206286 -- 800300,0.02,0.0,0.0,1.0,0.0,0,-28.9957165032825,5.4432794846298,570,18564.272449869,0.033435507717157,0.01479586452296,0.017734531597912,3.1412629610297,nan,False,live,nan
03/21/2024-15:05:47.240941 -- 800500,0.02,0.0,0.0,1.0,0.0,0,-28.866923364498,5.0290099011246,572,8261.5668845316,0.13980569407778,-0.037115537374398,0.083191990688707,3.058070970341,nan,False,live,nan
03/21/2024-15:05:47.273512 -- 800500,0.02,0.0,0.0,1.0,0.0,0,-28.9682992474269,4.5876658361130005,574,7627.7541484716,0.030689662697736,0.03958891737364,-0.03484408238221,3.0643659206063,nan,False,live,nan
03/21/2024-15:05:47.308230 -- 800500,0.02,0.0,0.0,1.0,0.0,0,-29.1045966687018,4.307792224314,576,14048.845482322,0.028866603073967,0.029038681083747,-0.0049026981901187,3.1049521999959,nan,False,live,nan
03/21/2024-15:05:47.340927 -- 800300,0.02,0.0,0.0,1.0,0.0,0,-29.3039378765244,4.1814243304788,578,7207.3164556962,0.047079990652599,0.044905094903756,-0.025779596097432,3.1821965657016,nan,False,live,nan
03/21/2024-15:05:47.371789 -- 800300,0.02,0.0,0.0,1.0,0.0,0,-29.299163203038002,3.6366581170415997,580,8375.2074235808,0.080379011854067,0.012327023781032,0.0045078879050468,3.1790110542082,nan,False,live,nan
03/21/2024-15:05:47.407131 -- 800300,0.02,0.0,0.0,1.0,0.0,0,-29.369438648923797,3.3333864093383996,582,11028.295246402,0.082739088040473,0.0050117332810369,-0.0077611278646137,3.2091290955622,nan,False,live,nan
03/21/2024-15:05:47.442456 -- 800300,0.02,0.0,0.0,1.0,0.0,0,-29.2248101315799,2.8162890564666,584,7173.4648931531,0.15201961860156,-0.049114134688177,0.038791918936208,3.1804277787715,nan,False,live,nan
03/21/2024-15:05:47.474000 -- 800500,0.02,0.0,0.0,1.0,0.0,0,-29.1737937432504,2.47966060901499,586,8719.4908216783,0.057558087286177,-0.013819805067199,0.078701268117547,3.0706455711929,nan,False,live,nan
03/21/2024-15:05:47.508302 -- 800500,0.02,0.0,0.0,1.0,0.0,0,-29.175654693801604,2.15870115265965,588,8593.9738219895,0.070700294067692,0.049573724994354,-0.053114083591092,3.084048627139,nan,False,live,nan
03/21/2024-15:05:47.543175 -- 800300,0.02,0.0,0.0,1.0,0.0,0,-29.509582728102302,1.8516203233829702,590,7127.7777292576,0.041624142693026,0.065985912567066,-0.12215258921883,3.290012206137,nan,False,live,nan
03/21/2024-15:05:47.574280 -- 800300,0.02,0.0,0.0,1.0,0.0,0,-29.5764046202433,1.7139786858316501,592,10893.590829694,0.049316493082379,0.013063495025745,-0.089197350358241,3.3792095564953,nan,False,live,nan
03/21/2024-15:05:47.607701 -- 800300,0.02,0.0,0.0,1.0,0.0,0,-29.2636113973959,1.4954930614153499,594,17003.177932839,-0.0092830159177503,-0.15508526659524,0.071522427882587,3.3636131460628,nan,False,live,nan
03/21/2024-15:05:47.640356 -- 800500,0.02,0.0,0.0,1.0,0.0,0,-29.049721933940702,1.66653206812419,596,6841.356737898,0.010105731469154,-0.082053197378132,0.20007357977325,3.0388030471631,nan,False,live,nan
03/21/2024-15:05:47.674286 -- 800500,0.02,0.0,0.0,1.0,0.0,0,-28.595111562315,1.87075977959316,598,6584.7988656195,-0.035315906589579,-0.057333975305067,0.15488625830785,2.6763376291833,nan,False,live,nan
03/21/2024-15:05:47.706617 -- 800500,0.02,0.0,0.0,1.0,0.0,0,-28.6057063307049,2.05772225891265,600,18295.944129201,-0.030283803672123,-0.025187377627173,0.028984526864077,2.604687740112,nan,False,live,nan
03/21/2024-15:05:47.741222 -- 800500,0.02,0.0,0.0,1.0,0.0,0,-28.7102131855548,1.9357350310420802,602,6819.4664634146,0.026579793851364,0.035218756259384,-0.10892446682483,2.7082459016524,nan,False,live,nan
03/21/2024-15:05:47.774234 -- 800500,0.02,0.0,0.0,1.0,0.0,0,-28.8848081781222,1.9672584465546599,604,7259.0401571366,0.0013991383106596,-0.0034336729265895,-0.076280601444956,2.8609534679817,nan,False,live,nan
03/21/2024-15:05:47.807405 -- 800500,0.02,0.0,0.0,1.0,0.0,0,-29.332492709954998,1.88722558663029,606,6527.11416122,-0.0096369617298499,0.073514184752673,-0.13309286675037,3.109078655676,nan,False,live,nan
03/21/2024-15:05:47.843031 -- 800300,0.02,0.0,0.0,1.0,0.0,0,-29.851718426459698,1.88248259769447,608,6455.7651680489,0.019976163978105,0.098208042470786,-0.17242817229421,3.4226428066674,nan,False,live,nan
03/21/2024-15:05:47.874239 -- 800300,0.02,0.0,0.0,1.0,0.0,0,-30.577379703606,1.88141996089428,610,7811.5102575295,0.070803929246964,0.10421247413811,-0.18186958380531,3.795238428754,nan,False,live,nan
03/21/2024-15:05:47.908467 -- 800284,0.02,0.0,0.0,1.0,0.0,0,-30.970757326136997,1.99713652452885,612,7037.4705625818,0.022680975955197,0.037916543547445,-0.11498226572361,4.04862509496,nan,False,live,nan
03/21/2024-15:05:47.942358 -- 800273,0.02,0.0,0.0,1.0,0.0,0,-31.249545247983,2.0514525270393,614,15669.340017437,0.062231573453227,0.025909130745635,-0.05764360540019,4.1315628093144,nan,False,live,nan
03/21/2024-15:05:47.973077 -- 800293,0.02,0.0,0.0,1.0,0.0,0,-31.085628111869998,1.8040648756854898,616,6596.4006968641,-0.025429118108002,-0.029522293948613,0.073038590835566,3.9781535202701,nan,False,live,nan
03/21/2024-15:05:48.008347 -- 800300,0.02,0.0,0.0,1.0,0.0,0,-31.055424310491,1.7732711567141402,618,8829.3843137255,-0.0030374789216978,0.0020908615713909,0.015568529912449,3.8933840314756,nan,False,live,nan
03/21/2024-15:05:48.042361 -- 800300,0.02,0.0,0.0,1.0,0.0,0,-31.025678860400998,1.78688450811237,620,6568.7034934498,0.0059321098525583,-0.0041841291256482,0.014444170342748,3.8581439667379,nan,False,live,nan
03/21/2024-15:05:48.074031 -- 800300,0.02,0.0,0.0,1.0,0.0,0,-31.027627144070998,1.8219223356965402,622,6945.9755778456,-0.0038288649486133,0.0048594016479409,-0.012064420853003,3.9152687210798,nan,False,live,nan
03/21/2024-15:05:48.107339 -- 800300,0.02,0.0,0.0,1.0,0.0,0,-31.048929380127,1.8135118865028002,624,7055.4906236372,0.0024356789930344,0.0039643997783447,-0.019321025033364,3.9261514640232,nan,False,live,nan
03/21/2024-15:05:48.140406 -- 800300,0.02,0.0,0.0,1.0,0.0,0,-31.013813613087002,1.81531620717243,626,6847.5013089005,-0.0053343864709624,0.0017793213591658,0.027524011530094,3.891380826801,nan,False,live,nan
03/21/2024-15:05:48.174680 -- 800300,0.02,0.0,0.0,1.0,0.0,0,-31.000232681853,1.81049134133841,628,6762.306416412,-4.5848442129276e-05,-0.004628096011497,0.005415382454828,3.912804792941,nan,False,live,nan
03/21/2024-15:05:48.207627 -- 800300,0.02,0.0,0.0,1.0,0.0,0,-30.999683610312,1.8187698514767598,630,7076.1190580026,-0.00050281006305814,0.0090522485221249,-0.017874580729191,3.909931110956,nan,False,live,nan
03/21/2024-15:05:48.240963 -- 800300,0.02,0.0,0.0,1.0,0.0,0,-30.994535371425002,1.83566716896846,632,7039.0636165577,-0.0054671993152738,0.0073827707145271,0.014986340679227,3.8956112460731,nan,False,live,nan
03/21/2024-15:05:48.275039 -- 800300,0.02,0.0,0.0,1.0,0.0,0,-30.924154756443,1.888237201605,634,6829.0387968614,-0.017228037941041,-0.016504584687925,0.023764898445103,3.8726520580723,nan,False,live,nan
03/21/2024-15:05:48.308528 -- 800300,0.02,0.0,0.0,1.0,0.0,0,-30.824730369104998,1.88964208182156,636,7260.0021815009,-0.0025512819649811,-0.013978605679828,0.03372495725572,3.8000364121883,nan,False,live,nan
03/21/2024-15:05:48.341869 -- 800300,0.02,0.0,0.0,1.0,0.0,0,-30.636874906121996,1.77391372523583,638,6468.0283347864,-0.0010583542408043,-0.06221225221876,0.1008553747114,3.6305155674439,nan,False,live,nan
03/21/2024-15:05:48.374105 -- 800300,0.02,0.0,0.0,1.0,0.0,0,-30.473267335286998,1.7292066077330102,640,5982.9241168775,-0.0011938010630718,-0.021608777183703,0.075941892147676,3.4992496673357,nan,False,live,nan
03/21/2024-15:05:48.407200 -- 800300,0.02,0.0,0.0,1.0,0.0,0,-30.308808209364003,1.62445064665695,642,6322.7102966841,0.0093190794605793,-0.020304000230263,0.058994653030288,3.3623994093985,nan,False,live,nan
03/21/2024-15:05:48.440966 -- 800300,0.02,0.0,0.0,1.0,0.0,0,-30.114775442610004,1.3641799783999802,644,6502.520069808,0.049870598285484,-0.031534798260104,0.037908779862216,3.2641563477342,nan,False,live,nan
03/21/2024-15:05:48.474302 -- 800300,0.02,0.0,0.0,1.0,0.0,0,-30.027006063755998,1.33085221157133,646,6181.7794245859,4.5489600772552e-05,-0.0058494468752795,0.025365913156716,3.208694918755,nan,False,live,nan
03/21/2024-15:05:48.507094 -- 800300,0.02,0.0,0.0,1.0,0.0,0,-29.9073625852455,1.04729698525338,648,6003.0627724499,0.043269482165512,-0.022208993622426,0.0013321458429909,3.194950042916,nan,False,live,nan
03/21/2024-15:05:48.525691 -- 800300,0.02,0.0,0.0,1.0,0.0,0,-29.906455025583,1.01302542520635,649,5909.2757417103,0.011398119950196,-0.00082530750188326,0.01510286248564,3.1798471804304,nan,False,live,nan
03/21/2024-15:05:48.556999 -- 800500,0.02,0.0,0.0,1.0,0.0,0,-29.802626990486097,0.83145467490018,651,6176.4590235397,0.020113991461023,-0.034672863575181,0.074081044355139,3.1019726264312,nan,False,live,nan
03/21/2024-15:05:48.590135 -- 800500,0.02,0.0,0.0,1.0,0.0,0,-29.6577240918837,0.5537970414009601,653,7965.0470383275,0.052749514626422,-0.0044204014092102,0.033229068626808,3.0132083279913,nan,False,live,nan
03/21/2024-15:05:48.624513 -- 800500,0.02,0.0,0.0,1.0,0.0,0,-29.534257510285798,0.275703570080364,655,6617.5721761884,0.062282783631454,-0.0035186592840233,-0.026356575600102,3.0215842606273,nan,False,live,nan
03/21/2024-15:05:48.673447 -- 800500,0.02,0.0,0.0,1.0,0.0,0,-29.2807341235386,0.0205665962505621,658,5810.668700959,0.034436821080484,-0.11027222400394,-0.0047845509481786,3.0790355990453,nan,False,live,nan
03/21/2024-15:05:48.705822 -- 800500,0.02,0.0,0.0,1.0,0.0,0,-29.1730252206243,-0.12369996629767799,660,6849.0980819529,0.0027050500121412,-0.021162911225257,0.036810015673413,2.9746766965848,nan,False,live,nan
03/21/2024-15:05:48.740035 -- 800500,0.02,0.0,0.0,1.0,0.0,0,-29.137916245929603,-0.29825150459141403,662,7187.8326797386,0.038417364662203,0.0039629667055458,0.050945700253851,2.8517953111507,nan,False,live,nan
03/21/2024-15:05:48.773394 -- 800500,0.02,0.0,0.0,1.0,0.0,0,-29.072463267002703,-0.36337196974704,664,7723.1460331299,0.032338177636181,-0.0079919988186559,0.065909580443663,2.7326701451167,nan,False,live,nan
03/21/2024-15:05:48.807881 -- 800500,0.02,0.0,0.0,1.0,0.0,0,-29.002010217966898,-0.63099269447232,666,8008.29163034,0.059064321991969,-0.0057366767193329,0.0005595828850755,2.6812936781016,nan,False,live,nan
03/21/2024-15:05:48.842161 -- 800500,0.02,0.0,0.0,1.0,0.0,0,-29.078704522266,-0.75835667147454,668,8379.845751634,-0.011915656764698,0.037204299671374,-0.075160950148767,2.7636276469394,nan,False,live,nan
03/21/2024-15:05:48.873952 -- 800500,0.02,0.0,0.0,1.0,0.0,0,-29.5541982035802,-1.23718036012326,670,7071.2579520697,0.073760674058686,0.077315936843624,-0.14019879127425,3.0278890652521,nan,False,live,nan
03/21/2024-15:05:48.907303 -- 800300,0.02,0.0,0.0,1.0,0.0,0,-29.9533676874213,-1.3974868079451,672,6558.3859572612,0.049102114250239,0.047038180816129,-0.12285561814126,3.2875210797254,nan,False,live,nan
03/21/2024-15:05:48.941352 -- 800300,0.02,0.0,0.0,1.0,0.0,0,-29.963449834065003,-1.72763362222638,674,7834.1673202614,0.039378286172323,-0.020004686341273,0.024023878481584,3.3252132617618,nan,False,live,nan
03/21/2024-15:05:48.974025 -- 800300,0.02,0.0,0.0,1.0,0.0,0,-29.6857753710897,-1.9787421625101,676,9435.3670444638,0.054996053538046,-0.070315608004448,0.14941774130325,3.1394150367471,nan,False,live,nan
03/21/2024-15:05:49.009995 -- 800500,0.02,0.0,0.0,1.0,0.0,0,-29.2870835026485,-2.18739345388158,678,12078.866666667,-0.017526115115297,-0.070033216395235,0.11610730039621,2.8486232982775,nan,False,live,nan
03/21/2024-15:05:49.041614 -- 800500,0.02,0.0,0.0,1.0,0.0,0,-29.256450781482602,-2.36720516954031,680,12142.973397296,0.055208175937367,0.010727132664536,-0.016938605920139,2.7759530370502,nan,False,live,nan
03/21/2024-15:05:49.075202 -- 800500,0.02,0.0,0.0,1.0,0.0,0,-29.137097839039797,-2.91408787630173,682,10121.503270824,0.077701090034166,-0.0032894053866407,-0.039170368547009,2.8433919036971,nan,False,live,nan
03/21/2024-15:05:49.107439 -- 800500,0.02,0.0,0.0,1.0,0.0,0,-28.839371245528802,-3.0234109829052,684,13101.435729847,0.040367087851299,0.027296095587936,0.12455134657062,2.784748151968,nan,False,live,nan
03/21/2024-15:05:49.141029 -- 800500,0.02,0.0,0.0,1.0,0.0,0,-28.559911620265503,-3.2662463740182,686,9195.0566448802,0.074823153016668,-0.036179033371875,0.094471009019642,2.6703554136975,nan,False,live,nan
03/21/2024-15:05:49.174515 -- 800500,0.02,0.0,0.0,1.0,0.0,0,-27.993392504277303,-3.4170319982982,688,8586.9904097646,0.076806267167481,-0.086182712000858,0.16751999075171,2.3907621781558,nan,False,live,nan
