timestamp -- motor_step_command,mfc1_stpt,mfc2_stpt,mfc3_stpt,led1_stpt,led2_stpt,sig_status,ft_posx,ft_posy,ft_frame,ft_error,ft_roll,ft_pitch,ft_yaw,ft_heading,adapted_center,instrip,mode,strip_thresh
03/21/2024-15:16:02.268714 -- 800158,0.02,0.0,0.0,1.0,0.0,0,-13.795037161743299,5.7679181817234,124,9781.0901717557,0.049515735410684,-0.027122605636127,0.011262398490113,5.0347559164734,nan,False,live,nan
03/21/2024-15:16:02.303240 -- 800187,0.02,0.0,0.0,1.0,0.0,0,-14.1594982442334,5.575325301891899,126,9268.2636407533,0.046293695234968,-0.058584345232642,0.090135496999759,4.8087754680736,nan,False,live,nan
03/21/2024-15:16:02.334156 -- 800209,0.02,0.0,0.0,1.0,0.0,0,-14.000024695266001,5.2282479495858,128,9181.2386523163,-0.031517186235589,-0.050173354142663,0.07118178380787,4.636657784585,nan,False,live,nan
03/21/2024-15:16:02.368544 -- 800225,0.02,0.0,0.0,1.0,0.0,0,-14.0857378258524,4.7436835846335,130,8818.8453271028,0.021315097435085,-0.084139059998921,0.043484426929741,4.5147769185743,nan,False,live,nan
03/21/2024-15:16:02.401069 -- 800226,0.02,0.0,0.0,1.0,0.0,0,-13.938378679576502,4.713519993374399,132,9229.9499776686,0.0056605605244034,-0.018572699574714,-0.024458805195947,4.5033507407814,nan,False,live,nan
03/21/2024-15:16:02.434971 -- 800215,0.02,0.0,0.0,1.0,0.0,0,-13.2798005321964,4.6446166003283995,134,9389.751419834,-0.091542119205558,-0.033104326248839,-0.050173189314358,4.5886837536967,nan,False,live,nan
03/21/2024-15:16:02.465895 -- 800216,0.02,0.0,0.0,1.0,0.0,0,-12.908422425830999,4.9324383149838,136,9751.9729847495,-0.06550230602322,0.037751503366089,0.027226556938464,4.5808647236296,nan,False,live,nan
03/21/2024-15:16:02.486284 -- 800217,0.02,0.0,0.0,1.0,0.0,0,-12.7172975920389,4.6712108663745,137,9687.404273877,-0.051419355476963,-0.094852694188824,0.0067362511035177,4.5741284725261,nan,False,live,nan
03/21/2024-15:16:02.518137 -- 800217,0.02,0.0,0.0,1.0,0.0,0,-12.582037873309801,4.762348355223001,139,9452.7287396424,-0.0079284395949387,-0.013353680196962,-0.041624521421278,4.5777537334891,nan,False,live,nan
03/21/2024-15:16:02.556288 -- 800214,0.02,0.0,0.0,1.0,0.0,0,-12.5878174268403,4.7853479259945,141,9310.6535947712,0.0079641178119633,0.0089953842760474,-0.015018285164237,4.6007337159518,nan,False,live,nan
03/21/2024-15:16:02.586457 -- 800212,0.02,0.0,0.0,1.0,0.0,0,-12.514906521113101,4.8704229424209,143,9347.134204793,-0.034188960851892,0.020847744745697,0.00031113958294623,4.6163768562903,nan,False,live,nan
03/21/2024-15:16:02.619888 -- 800211,0.02,0.0,0.0,1.0,0.0,0,-12.514596685051501,4.883132096262299,145,9324.379956427,0.016668182543797,-0.0035132738724195,-0.0049588923945111,4.6208940254255,nan,False,live,nan
03/21/2024-15:16:02.653587 -- 800212,0.02,0.0,0.0,1.0,0.0,0,-12.499160520130498,4.8577495283181005,147,8883.6406794425,-0.0012578131104457,-0.0032894448663568,0.0042906548659849,4.6111957896671,nan,False,live,nan
03/21/2024-15:16:02.687585 -- 800213,0.02,0.0,0.0,1.0,0.0,0,-12.498065205420001,4.83882253203,149,8698.4734320557,-0.010954642392354,0.0041905510697484,0.0090439850207724,4.6080876896453,nan,False,live,nan
03/21/2024-15:16:02.719680 -- 800213,0.02,0.0,0.0,1.0,0.0,0,-12.478844378279401,4.8122291880666,151,9051.7722125436,-0.0029721652415138,0.0026851540056383,-0.0079646704446559,4.6095529582124,nan,False,live,nan
03/21/2024-15:16:02.753804 -- 800212,0.02,0.0,0.0,1.0,0.0,0,-12.4995746988435,4.820744033199301,153,8581.5387630662,0.00085272991282302,-0.00070353781438311,-0.0011001458702794,4.6110142207982,nan,False,live,nan
03/21/2024-15:16:02.786010 -- 800212,0.02,0.0,0.0,1.0,0.0,0,-12.4901670452847,4.7984419473438,155,8500.5117595819,0.0042701685075931,-0.0057518064722594,0.0024086628282588,4.6143260463123,nan,False,live,nan
03/21/2024-15:16:02.819214 -- 800211,0.02,0.0,0.0,1.0,0.0,0,-12.474934858293299,4.8205531341015,157,8668.8305749129,-0.0029778829858708,0.00028618684163526,-0.010724055620447,4.6206596179891,nan,False,live,nan
03/21/2024-15:16:02.852523 -- 800212,0.02,0.0,0.0,1.0,0.0,0,-12.4689890247456,4.8192337633425,159,8099.8767421603,-0.0046512622291024,0.004044079518969,-0.0012816392047158,4.6159176833964,nan,False,live,nan
03/21/2024-15:16:02.885137 -- 800212,0.02,0.0,0.0,1.0,0.0,0,-12.479878783506898,4.8186029265282,161,7897.3802264808,-0.003403439812433,-0.0026137724895532,0.0027410817008547,4.6180660154454,nan,False,live,nan
03/21/2024-15:16:02.921013 -- 800212,0.02,0.0,0.0,1.0,0.0,0,-12.478692683277,4.8190016970897,163,8130.6088850174,-0.00022949832907833,0.00062568224145659,0.00061551882181867,4.6169586362277,nan,False,live,nan
03/21/2024-15:16:02.953557 -- 800211,0.02,0.0,0.0,1.0,0.0,0,-12.4794313316841,4.8184560735603,165,7816.3196864111,0.00054607814254998,1.2697629645148e-05,-0.002008931691883,4.6186315194379,nan,False,live,nan
03/21/2024-15:16:02.986532 -- 800211,0.02,0.0,0.0,1.0,0.0,0,-12.482281062541201,4.8218072648004,167,7281.6206445993,0.00042319023340171,0.00056873453141424,-0.00072587198220203,4.6199670703085,nan,False,live,nan
03/21/2024-15:16:03.018669 -- 800212,0.02,0.0,0.0,1.0,0.0,0,-12.472807668275701,4.8186320828667,169,7329.68771777,-0.0019319182191283,-0.00078365954973441,0.00031700203536064,4.6172566566887,nan,False,live,nan
03/21/2024-15:16:03.054059 -- 800212,0.02,0.0,0.0,1.0,0.0,0,-12.4712454484716,4.8173497846587,171,7311.6149825784,0.00012540068800245,-8.2610937350147e-06,-5.4821305608776e-06,4.6171076599347,nan,False,live,nan
03/21/2024-15:16:03.086926 -- 800212,0.02,0.0,0.0,1.0,0.0,0,-12.480675699558901,4.8212806100832,173,7640.1040940767,0.0029646718060108,0.0016596220700433,-0.0005095721624944,4.6176033284135,nan,False,live,nan
03/21/2024-15:16:03.119061 -- 800225,0.02,0.0,0.0,1.0,0.0,0,-12.325461073337099,4.2981380256707995,175,8595.7558849172,-0.0032411732492462,-0.053346080076984,0.084412433700511,4.5126339745185,nan,False,live,nan
03/21/2024-15:16:03.152797 -- 800264,0.02,0.0,0.0,1.0,0.0,0,-12.3670946700438,3.9511438388922,177,9039.7174205105,-0.011291726320434,-0.047449911768144,0.15618919580913,4.2027788042637,nan,False,live,nan
03/21/2024-15:16:03.184266 -- 800300,0.02,0.0,0.0,1.0,0.0,0,-11.902455171523501,3.4094353791255,179,8925.1918063315,-0.0037237411261793,-0.1175019405491,0.17000375027786,3.8850593355233,nan,False,live,nan
03/21/2024-15:16:03.216772 -- 800300,0.02,0.0,0.0,1.0,0.0,0,-11.7788899508871,3.5168684475161998,181,9967.2651550208,-0.022934165220659,-0.00032102926299856,0.029083678208983,3.7702410698931,nan,False,live,nan
03/21/2024-15:16:03.251751 -- 800300,0.02,0.0,0.0,1.0,0.0,0,-11.5878322517658,3.3211936644869997,183,9127.4759786477,0.0087772387105009,-0.032885101085506,-0.0269859312135,3.7509047622489,nan,False,live,nan
03/21/2024-15:16:03.284638 -- 800300,0.02,0.0,0.0,1.0,0.0,0,-11.201496886105499,3.0980022386097,185,9747.8885953325,0.0099601909324599,-0.096816269956783,0.077924361447817,3.6501838390546,nan,False,live,nan
03/21/2024-15:16:03.319073 -- 800300,0.02,0.0,0.0,1.0,0.0,0,-10.992679749790799,3.2563025793108,187,10313.96327066,-0.04037976239637,-0.03236763092141,0.12082801216471,3.4840151051243,nan,False,live,nan
03/21/2024-15:16:03.352009 -- 800300,0.02,0.0,0.0,1.0,0.0,0,-10.74128655567,3.3446225567976,189,10756.130910683,-0.039286059444832,-0.025440337439503,0.056153389008432,3.4030249386559,nan,False,live,nan
03/21/2024-15:16:03.385854 -- 800300,0.02,0.0,0.0,1.0,0.0,0,-10.221991303549501,3.3700633800453,191,11566.512685914,0.027455354825717,-0.076869410275658,0.073856717621338,3.2024388203855,nan,False,live,nan
03/21/2024-15:16:03.418112 -- 800500,0.02,0.0,0.0,1.0,0.0,0,-9.8124983936175,3.3104883499104,193,12622.055410122,0.01562072363906,-0.075812626906029,0.11312533440859,2.9586923253737,nan,False,live,nan
03/21/2024-15:16:03.451641 -- 800500,0.02,0.0,0.0,1.0,0.0,0,-9.4125363867135,3.4506496543764005,195,12783.246402093,-0.016550034737433,-0.064076620183984,0.090754336354829,2.8041992343702,nan,False,live,nan
03/21/2024-15:16:03.486073 -- 800500,0.02,0.0,0.0,1.0,0.0,0,-9.1951568208054,3.6507800559675,197,15018.535340314,-0.0039969375657425,-0.035545745347257,0.082802161692922,2.6416092974556,nan,False,live,nan
03/21/2024-15:16:03.517874 -- 800500,0.02,0.0,0.0,1.0,0.0,0,-8.519366494563899,3.6338434128447,199,10687.475152572,0.1216464678606,-0.072437096615411,0.10217462363948,2.4475402128526,nan,False,live,nan
03/21/2024-15:16:03.552561 -- 800522,0.02,0.0,0.0,1.0,0.0,0,-7.7759804884671,3.6901326112490995,201,10215.919790759,0.080945021530125,-0.079746111038654,0.13651995584689,2.1825604686639,nan,False,live,nan
03/21/2024-15:16:03.584251 -- 800538,0.02,0.0,0.0,1.0,0.0,0,-7.298425747085401,3.6010210950504002,203,9352.1080139373,0.074410816662019,-0.026209489044894,0.092915566905086,2.0568148129424,nan,False,live,nan
03/21/2024-15:16:03.604305 -- 800543,0.02,0.0,0.0,1.0,0.0,0,-7.1185034454566996,3.6860193808566,204,9298.8222996516,0.040847129881197,-0.052265635505226,0.039874084867395,2.016940728075,nan,False,live,nan
03/21/2024-15:16:03.634030 -- 800546,0.02,0.0,0.0,1.0,0.0,0,-6.935097424566301,3.6115497458013,206,8717.4668989547,0.039785413864643,-0.0066387783137116,0.027446991968865,1.9937960481265,nan,False,live,nan
03/21/2024-15:16:03.654283 -- 800547,0.02,0.0,0.0,1.0,0.0,0,-6.943566214307101,3.6930904635114,207,8520.9207317073,-0.013648788639209,-0.023673778028189,0.0070007170022271,1.9867953311243,nan,False,live,nan
03/21/2024-15:16:03.687226 -- 800543,0.02,0.0,0.0,1.0,0.0,0,-6.438219577520099,3.6390595995492,209,7505.8959059233,0.12217105871492,-0.040309642641043,0.0025681006181173,2.0160353211215,nan,False,live,nan
03/21/2024-15:16:03.719225 -- 800533,0.02,0.0,0.0,1.0,0.0,0,-6.055458497096099,3.5398831560795,211,7175.9425087108,0.0411684427412,0.0057060351486904,-0.026863440142566,2.0892888964692,nan,False,live,nan
03/21/2024-15:16:03.752320 -- 800528,0.02,0.0,0.0,1.0,0.0,0,-5.4841578050652,3.1679599916919,213,7122.7635017422,0.11951814590177,-0.015157697850431,-0.017768301986273,2.1346344421938,nan,False,live,nan
03/21/2024-15:16:03.785967 -- 800530,0.02,0.0,0.0,1.0,0.0,0,-5.0558284625550005,3.0363177139029,215,7864.7863993025,0.073453611114566,0.0072538905062527,-0.016687906932274,2.1135879771393,nan,False,live,nan
03/21/2024-15:16:03.818385 -- 800533,0.02,0.0,0.0,1.0,0.0,0,-4.4846284972728,2.76787787319279,217,8004.9233449477,0.089626855841484,-0.033047596607836,-0.006274181016046,2.0941949779531,nan,False,live,nan
03/21/2024-15:16:03.837249 -- 800527,0.02,0.0,0.0,1.0,0.0,0,-4.2398001234351,2.71512030104076,218,9744.7391114983,0.078863675345322,-0.027405633747835,-0.046591057627801,2.1407860355809,nan,False,live,nan
03/21/2024-15:16:03.870810 -- 800520,0.02,0.0,0.0,1.0,0.0,0,-3.9466871968881003,2.35876507592823,220,9374.0684394071,0.10375880541047,0.0057900776887022,-0.01078853424225,2.1934966042245,nan,False,live,nan
03/21/2024-15:16:03.904239 -- 800516,0.02,0.0,0.0,1.0,0.0,0,-3.9749351630055,1.97057786691213,222,9089.1093681917,0.024473715821935,0.085051721522935,-0.013075874426425,2.2231990751908,nan,False,live,nan
03/21/2024-15:16:03.937146 -- 800501,0.02,0.0,0.0,1.0,0.0,0,-3.4910636638200003,1.32992752864344,224,10334.68583878,0.17646852140911,0.033047595862681,-0.081380578735556,2.342842788004,nan,False,live,nan
03/21/2024-15:16:03.969345 -- 800500,0.02,0.0,0.0,1.0,0.0,0,-3.3601029171828003,0.88543225071792,226,10334.17124183,0.057409347881419,0.045248147551399,-0.094335106171656,2.5402763221266,nan,False,live,nan
03/21/2024-15:16:04.000928 -- 800500,0.02,0.0,0.0,1.0,0.0,0,-3.4057197894138005,0.35207963705016,228,9470.0326797386,0.064901283104719,0.048495309745814,-0.074195006722834,2.6886418306601,nan,False,live,nan
03/21/2024-15:16:04.033167 -- 800500,0.02,0.0,0.0,1.0,0.0,0,-3.3007826799516,0.12333788282783101,230,9013.4020034843,0.032576501101273,0.0060594118564102,0.0072515090427644,2.6758228565186,nan,False,live,nan
03/21/2024-15:16:04.067206 -- 800500,0.02,0.0,0.0,1.0,0.0,0,-3.2798115588747,0.046737979197002996,232,8762.2987804878,0.022333483368475,0.000990881949345,0.013903663803568,2.6700116286545,nan,False,live,nan
03/21/2024-15:16:04.100729 -- 800500,0.02,0.0,0.0,1.0,0.0,0,-3.0700453516287,-0.52116215331561,234,8662.3449477352,0.10809205565299,0.019913202814001,-0.062221406841734,2.7389995244726,nan,False,live,nan
03/21/2024-15:16:04.133515 -- 800500,0.02,0.0,0.0,1.0,0.0,0,-3.3288423651570005,-0.66866591879517,236,8468.1781358885,0.041843851152492,0.048810098602306,-0.074411040761459,2.833778900511,nan,False,live,nan
03/21/2024-15:16:04.167184 -- 800500,0.02,0.0,0.0,1.0,0.0,0,-3.4103115871002,-1.08600385731447,238,8198.4041811847,0.063375660558827,0.031727279617763,-0.039126891303589,2.9349423876766,nan,False,live,nan
03/21/2024-15:16:04.203513 -- 800500,0.02,0.0,0.0,1.0,0.0,0,-3.4447329188030995,-1.5463382071988998,240,8287.4984749455,0.078321408419803,0.021509198009534,-0.035522741152112,2.991304868862,nan,False,live,nan
03/21/2024-15:16:04.237672 -- 800500,0.02,0.0,0.0,1.0,0.0,0,-3.3779640328703997,-1.86552778800483,242,7059.224738676,0.029454170242102,-0.0074575536516632,-0.0045100906054368,3.034005705872,nan,False,live,nan
03/21/2024-15:16:04.270019 -- 800500,0.02,0.0,0.0,1.0,0.0,0,-3.3691376197341,-2.28399238839885,244,7143.143728223,0.047539084957404,-0.0098962115120038,-0.015667059013649,3.1010074478011,nan,False,live,nan
03/21/2024-15:16:04.292031 -- 800500,0.02,0.0,0.0,1.0,0.0,0,-3.3504447163697995,-2.28557579861172,245,7118.2012195122,0.00085886835942619,-0.006194178614249,0.025377773663684,3.0756296741374,nan,False,live,nan
03/21/2024-15:16:04.319906 -- 800500,0.02,0.0,0.0,1.0,0.0,0,-3.1305896839758,-2.5269163797724197,247,7096.2051393728,0.055457644815161,-0.025813787083154,0.060832373304755,2.9911649986136,nan,False,live,nan
03/21/2024-15:16:04.353268 -- 800500,0.02,0.0,0.0,1.0,0.0,0,-2.81591025109431,-2.40083510702883,249,7613.7791811847,-0.0078527392472268,-0.049976224778675,0.099797875399062,2.8071409563695,nan,False,live,nan
03/21/2024-15:16:04.385506 -- 800500,0.02,0.0,0.0,1.0,0.0,0,-2.730720084381,-2.3416252267860003,251,7998.9777874564,-0.00614307755884,0.00024990961044331,0.0013639082506989,2.7714199033309,nan,False,live,nan
03/21/2024-15:16:04.408019 -- 800500,0.02,0.0,0.0,1.0,0.0,0,-2.57211380491326,-2.36209156953354,252,7467.3989547038,0.02531815467003,-0.046911081243872,-0.0071945734798706,2.7786144768108,nan,False,live,nan
03/21/2024-15:16:04.436734 -- 800500,0.02,0.0,0.0,1.0,0.0,0,-2.38471907560713,-2.39207335127535,254,7544.3057491289,-0.0014240496412756,-0.017418245651018,0.04591688944008,2.7323779556292,nan,False,live,nan
03/21/2024-15:16:04.470995 -- 800500,0.02,0.0,0.0,1.0,0.0,0,-2.14215678038532,-2.28848527802781,256,7814.3218641115,0.010378676588557,-0.034875420365631,0.063481810962973,2.5777469309841,nan,False,live,nan
03/21/2024-15:16:04.503504 -- 800500,0.02,0.0,0.0,1.0,0.0,0,-2.36735656550643,-2.3243655231460503,258,7815.0849303136,-0.0064233164033036,0.04716362806184,-0.038700713436551,2.581269163382,nan,False,live,nan
03/21/2024-15:16:04.535802 -- 800500,0.02,0.0,0.0,1.0,0.0,0,-2.66526182021538,-2.51559580361067,260,7403.8405923345,0.01750818272433,0.063673935592841,-0.11200925019722,2.7808279915673,nan,False,live,nan
03/21/2024-15:16:04.569160 -- 800500,0.02,0.0,0.0,1.0,0.0,0,-2.61310357638258,-2.71266835041213,262,7346.9655923345,0.020122149724468,-0.016636912951917,0.032824453216614,2.8105739484399,nan,False,live,nan
03/21/2024-15:16:04.602921 -- 800500,0.02,0.0,0.0,1.0,0.0,0,-2.59778716394136,-2.86717373433,264,7181.9960801394,0.034895429596885,0.008358584243932,0.0077193527007187,2.7764035300797,nan,False,live,nan
03/21/2024-15:16:04.636481 -- 800500,0.02,0.0,0.0,1.0,0.0,0,-2.54190796510611,-3.0313356087105,266,6957.8976480836,0.036980489927269,0.0081886159968,-0.020441968241113,2.7964701835999,nan,False,live,nan
03/21/2024-15:16:04.670370 -- 800500,0.02,0.0,0.0,1.0,0.0,0,-2.44954126181484,-3.2421065055480005,268,7256.1824912892,0.038085321391509,-0.002845265381433,-0.013549108091538,2.8221180208767,nan,False,live,nan
03/21/2024-15:16:04.702201 -- 800500,0.02,0.0,0.0,1.0,0.0,0,-2.3076959752354798,-3.7083307273719,270,7404.7151567944,0.10039951823544,-0.0071740339274075,0.01418940762616,2.8079039512746,nan,False,live,nan
03/21/2024-15:16:04.734291 -- 800500,0.02,0.0,0.0,1.0,0.0,0,-2.2462055431023,-3.8054654135435997,272,7683.6903310105,0.0076030330059171,-0.024675768423808,0.064315197103927,2.7567986241046,nan,False,live,nan
03/21/2024-15:16:04.768681 -- 800500,0.02,0.0,0.0,1.0,0.0,0,-2.07516044273592,-4.070331944298,274,8973.7182055749,0.044665161015195,0.004823036638053,0.038203729864249,2.6697216194559,nan,False,live,nan
03/21/2024-15:16:04.802958 -- 800500,0.02,0.0,0.0,1.0,0.0,0,-1.93436317681608,-4.301217818858699,276,9159.5078397213,0.071505348145097,-0.010894584527196,-0.0039045268994628,2.6479952841498,nan,False,live,nan
03/21/2024-15:16:04.835115 -- 800500,0.02,0.0,0.0,1.0,0.0,0,-1.7997216942708,-4.6304509996442995,278,9435.7090592334,0.043479248684017,0.016392343959972,-0.065957776333826,2.7698002042946,nan,False,live,nan
03/21/2024-15:16:04.869363 -- 800500,0.02,0.0,0.0,1.0,0.0,0,-1.6705654491153599,-5.1862991801559,280,8629.4242160279,0.079171472802895,-0.0069905883457693,-0.0026950949316935,2.8250474229668,nan,False,live,nan
03/21/2024-15:16:04.902827 -- 800500,0.02,0.0,0.0,1.0,0.0,0,-1.56242628796485,-5.2599289216397995,282,8820.918989547,0.02731126222142,-0.012078070648229,0.046267648786941,2.7317585650776,nan,False,live,nan
03/21/2024-15:16:04.936408 -- 800500,0.02,0.0,0.0,1.0,0.0,0,-1.4399397742203601,-5.5691666292708,284,8677.9516550523,0.073135995679118,0.0022763711995257,0.038061028871754,2.6348535729372,nan,False,live,nan
03/21/2024-15:16:04.967311 -- 800500,0.02,0.0,0.0,1.0,0.0,0,-1.6636771814019298,-5.9823105481353,286,8626.1145470383,0.071423282167227,0.07692273523041,-0.096338322937744,2.7848045660935,nan,False,live,nan
03/21/2024-15:16:04.986205 -- 800500,0.02,0.0,0.0,1.0,0.0,0,-1.87150712054916,-6.2209958152146,287,8754.4708188153,0.05801513261425,0.088250304996381,-0.1679038816383,2.9527084477318,nan,False,live,nan
03/21/2024-15:16:05.019369 -- 800300,0.02,0.0,0.0,1.0,0.0,0,-2.3746820236629,-6.8139259895025,289,7511.956010453,0.094189401065148,0.086834385662712,-0.14945482879887,3.2501666303031,nan,False,live,nan
03/21/2024-15:16:05.051214 -- 800300,0.02,0.0,0.0,1.0,0.0,0,-2.2898878286596203,-7.1506285061451,291,7496.2103658537,0.072809502973967,-0.056804825848276,0.0057174735670287,3.2777040692278,nan,False,live,nan
03/21/2024-15:16:05.083297 -- 800300,0.02,0.0,0.0,1.0,0.0,0,-2.0985585985990802,-7.6284950722734,293,8278.7669860627,0.083232086671234,-0.045964701320653,0.074758892341087,3.14918802869,nan,False,live,nan
03/21/2024-15:16:05.104778 -- 800500,0.02,0.0,0.0,1.0,0.0,0,-1.85445508627188,-7.9468968240051,294,17209.036149826,0.10799317098489,-0.078916678570106,0.061196629542048,3.0879913991479,nan,False,live,nan
03/21/2024-15:16:05.134095 -- 800500,0.02,0.0,0.0,1.0,0.0,0,-1.88528879950677,-7.8995872913142,296,8149.6711672474,0.0060194873275518,-0.0078206928828928,-0.026967058789718,3.1076369074005,nan,False,live,nan
03/21/2024-15:16:05.153383 -- 800500,0.02,0.0,0.0,1.0,0.0,0,-1.7529754324651199,-8.2680144319758,297,7065.1415505226,0.12513843332489,-0.037020284752262,0.04639747703396,3.0612394303666,nan,False,live,nan
03/21/2024-15:16:05.187121 -- 800500,0.02,0.0,0.0,1.0,0.0,0,-1.28519463244731,-8.399513985204,299,14136.050958188,-0.044831102001543,-0.11716837613302,0.10320642080016,2.9186707298017,nan,False,live,nan
03/21/2024-15:16:05.220353 -- 800500,0.02,0.0,0.0,1.0,0.0,0,-0.9850726669227001,-8.6159437109739,301,6661.4298780488,0.04586881333385,-0.062934364589121,0.11625280520832,2.6733189710514,nan,False,live,nan
03/21/2024-15:16:05.251052 -- 800500,0.02,0.0,0.0,1.0,0.0,0,-1.13914474252488,-8.2792765229148,303,6469.7443379791,-0.047934485308403,-0.013934610552119,0.0024783292516863,2.5995540091735,nan,False,live,nan
03/21/2024-15:16:05.286046 -- 800500,0.02,0.0,0.0,1.0,0.0,0,-1.1134828667627699,-8.1653254125615,305,6413.1711672474,-0.022115920503046,0.0099107601755924,-0.042148942305732,2.6144661337603,nan,False,live,nan
03/21/2024-15:16:05.319907 -- 800500,0.02,0.0,0.0,1.0,0.0,0,-1.02678058754766,-8.1584240759826,307,7033.0801393728,0.018794703606897,-0.027764084628169,0.053120216918761,2.602024413455,nan,False,live,nan
03/21/2024-15:16:05.351104 -- 800500,0.02,0.0,0.0,1.0,0.0,0,-0.61377563311284,-8.0376215069472,309,6999.5513937282,0.05098910323967,-0.072398114958767,0.1107106995561,2.3955204020562,nan,False,live,nan
03/21/2024-15:16:05.369768 -- 800518,0.02,0.0,0.0,1.0,0.0,0,-0.32311201830216,-7.840474282826099,310,7075.024825784,0.028226690512415,-0.11378157650451,0.18617290246457,2.2093474995917,nan,False,live,nan
03/21/2024-15:16:05.399823 -- 800510,0.02,0.0,0.0,1.0,0.0,0,-0.56467341384363,-8.098980321461099,312,7288.8301393728,0.031880755345066,0.062818968174498,-0.10030245945322,2.2714158794326,nan,False,live,nan
03/21/2024-15:16:05.418610 -- 800500,0.02,0.0,0.0,1.0,0.0,0,-0.59234746559208,-8.1529588483194,313,8604.0792682927,0.005802196762935,0.019382856431582,-0.12796594826821,2.3993818277008,nan,False,live,nan
03/21/2024-15:16:05.437012 -- 800500,0.02,0.0,0.0,1.0,0.0,0,-1.02263957962326,-8.4294282125883,314,6875.968641115,-0.0081328268514225,0.17069854016764,-0.24701344437911,2.6463952720799,nan,False,live,nan
03/21/2024-15:16:05.471216 -- 800500,0.02,0.0,0.0,1.0,0.0,0,-1.1339749260258,-8.7195077286417,316,8771.4272648084,0.023999402181014,0.022192301297228,-0.0009995907270978,2.8221684430747,nan,False,live,nan
03/21/2024-15:16:05.503152 -- 800500,0.02,0.0,0.0,1.0,0.0,0,-1.02265237042836,-8.6641030883079,318,7030.4006968641,0.018053168718682,-0.0025343003879738,0.055010733609506,2.8019555672301,nan,False,live,nan
03/21/2024-15:16:05.535026 -- 800500,0.02,0.0,0.0,1.0,0.0,0,-0.85152012530553,-8.6100871520112,320,7145.3414634146,0.017153144941494,0.0051356229310321,-0.033957007133668,2.7418175993559,nan,False,live,nan
03/21/2024-15:16:05.571141 -- 800500,0.02,0.0,0.0,1.0,0.0,0,-0.7708910681881199,-8.7051240265854,322,7098.56271777,0.018258195674316,-0.015678460166787,0.013702382368477,2.7440551833409,nan,False,live,nan
03/21/2024-15:16:05.602595 -- 800500,0.02,0.0,0.0,1.0,0.0,0,-0.68554329844953,-8.8569245308467,324,6957.5204703833,0.012485832298677,-0.0068266131388449,0.041934375546163,2.7361357189266,nan,False,live,nan
03/21/2024-15:16:05.634851 -- 800500,0.02,0.0,0.0,1.0,0.0,0,-0.39981791264106004,-9.1930538640606,326,7109.587543554,0.085708226618484,-0.029900853237778,-0.052833558794128,2.837097919678,nan,False,live,nan
03/21/2024-15:16:05.655006 -- 800500,0.02,0.0,0.0,1.0,0.0,0,-0.32618994198489004,-9.2188640032947,327,7490.4721254355,0.015729009097204,-0.020711625963812,0.015701432116601,2.8213964875614,nan,False,live,nan
03/21/2024-15:16:05.688536 -- 800500,0.02,0.0,0.0,1.0,0.0,0,-0.281728107063522,-9.3287066200719,329,7059.9459930314,0.024333178307319,-0.01626101158012,0.10991463914179,2.7274655509308,nan,False,live,nan
03/21/2024-15:16:05.719353 -- 800500,0.02,0.0,0.0,1.0,0.0,0,-0.10405974369277202,-9.360675542780399,331,6944.4420731707,0.01430402968361,0.023010053519836,0.021606887258564,2.5532430466279,nan,False,live,nan
03/21/2024-15:16:05.751343 -- 800500,0.02,0.0,0.0,1.0,0.0,0,-0.015916860477922498,-9.6500588646774,333,7174.4834494774,0.051213190109759,-0.04032936451846,0.0081979863854394,2.498376611222,nan,False,live,nan
03/21/2024-15:16:05.784972 -- 800500,0.02,0.0,0.0,1.0,0.0,0,0.22486225378817398,-10.1120168163648,335,7605.2486933798,0.098580930230783,0.042235687333456,-0.015976811105282,2.5746613036296,nan,False,live,nan
03/21/2024-15:16:05.818298 -- 800500,0.02,0.0,0.0,1.0,0.0,0,0.5231310852138,-10.2962519143683,337,7569.3220043573,0.046469432483652,-0.041500605259626,-0.0069898922275035,2.6073139869989,nan,False,live,nan
03/21/2024-15:16:05.851800 -- 800500,0.02,0.0,0.0,1.0,0.0,0,1.12717559559306,-10.5247497246249,339,9410.887195122,0.07115482726166,-0.062658514814845,0.097054180905264,2.4530826609631,nan,False,live,nan
03/21/2024-15:16:05.884762 -- 800518,0.02,0.0,0.0,1.0,0.0,0,1.59166788813747,-10.3708892157636,341,10224.419790759,0.04159015792213,-0.064154190589896,0.13021719818396,2.2087901857803,nan,False,live,nan
03/21/2024-15:16:05.919291 -- 800547,0.02,0.0,0.0,1.0,0.0,0,1.42816675621416,-10.1171441963973,343,8565.0592592593,-0.063146899583095,-0.050972843042254,0.10981269749055,1.9795680674582,nan,False,live,nan
03/21/2024-15:16:05.951121 -- 800575,0.02,0.0,0.0,1.0,0.0,0,1.93429421957523,-9.7295924694756,345,8955.3253484321,0.10733262038833,-0.079248582168836,0.1004529616919,1.7648428904475,nan,False,live,nan
03/21/2024-15:16:05.984588 -- 800605,0.02,0.0,0.0,1.0,0.0,0,2.11131080049735,-9.1707362721066,347,8443.2496732026,-0.02606513828211,-0.12678068181774,0.12738705375852,1.5306543169162,nan,False,live,nan
03/21/2024-15:16:06.018254 -- 800623,0.02,0.0,0.0,1.0,0.0,0,2.0427002620688404,-8.991740454125999,349,8513.125,0.0050731134638,-0.042991539302142,0.035723844477882,1.383946550754,nan,False,live,nan
03/21/2024-15:16:06.051423 -- 800622,0.02,0.0,0.0,1.0,0.0,0,1.8992222526098101,-8.9091796792941,351,8399.1277802006,-0.017529105417269,-0.0090413027540288,-0.031892290512307,1.3914241723271,nan,False,live,nan
03/21/2024-15:16:06.083913 -- 800606,0.02,0.0,0.0,1.0,0.0,0,2.12917051874697,-9.1014261131736,353,8225.662745098,0.056474379907744,0.026281037322507,-0.051731256501157,1.522899864997,nan,False,live,nan
03/21/2024-15:16:06.116815 -- 800604,0.02,0.0,0.0,1.0,0.0,0,2.34100289571828,-9.0247437601956,355,8318.6644880174,0.05045628470571,-0.0019113017445599,-0.012083230059292,1.535822725546,nan,False,live,nan
03/21/2024-15:16:06.135100 -- 800608,0.02,0.0,0.0,1.0,0.0,0,2.54333823352785,-8.8930693310475,356,8665.5871080139,0.069603869657703,-0.04038732300874,0.032355294859062,1.5034674306869,nan,False,live,nan
03/21/2024-15:16:06.167922 -- 800628,0.02,0.0,0.0,1.0,0.0,0,2.85237199759737,-8.475476457027,358,9845.9510917031,0.039518967145844,-0.059024074456593,0.10170152871407,1.3461590684694,nan,False,live,nan
03/21/2024-15:16:06.200832 -- 800651,0.02,0.0,0.0,1.0,0.0,0,2.92104580913568,-8.0971929200301,360,10319.464801049,0.040593184581438,-0.054502223462026,0.11985443272692,1.166509713791,nan,False,live,nan
03/21/2024-15:16:06.234883 -- 800675,0.02,0.0,0.0,1.0,0.0,0,2.80332394419285,-7.9960220921567995,362,11319.359668267,-0.0048642168029124,-0.020501378108083,0.065256293334787,0.97635213659304,nan,False,live,nan
03/21/2024-15:16:06.268622 -- 800684,0.02,0.0,0.0,1.0,0.0,0,2.8434278994816,-7.649262182311199,364,11772.674093491,0.025932797596903,-0.042736739354725,0.028971247494415,0.90547373294159,nan,False,live,nan
03/21/2024-15:16:06.300226 -- 800667,0.02,0.0,0.0,1.0,0.0,0,3.0638999325951,-7.6562268618168,366,12082.443959878,0.082800179452508,-0.025048076366011,-0.068254996807432,1.0385617204175,nan,False,live,nan
03/21/2024-15:16:06.322890 -- 800664,0.02,0.0,0.0,1.0,0.0,0,3.2361270828035997,-7.602651088861199,367,11995.68209607,0.058695431356542,0.013028557965306,-0.024439736187779,1.0630014566053,nan,False,live,nan
03/21/2024-15:16:06.352911 -- 800656,0.02,0.0,0.0,1.0,0.0,0,3.3917001713946,-7.4060181334824,369,11267.576234163,0.05058077271374,0.012399185256119,-0.043831900416657,1.1249178951725,nan,False,live,nan
03/21/2024-15:16:06.384311 -- 800673,0.02,0.0,0.0,1.0,0.0,0,3.3857422259748002,-7.1116295394327,371,11895.406454427,0.01759703113956,-0.065118106835561,0.047641716881085,0.99353376145828,nan,False,live,nan
03/21/2024-15:16:06.420039 -- 800692,0.02,0.0,0.0,1.0,0.0,0,3.4698478773585,-6.9171248829516,373,12532.366652117,0.0647030243295,-0.0060563595011711,0.077138334348343,0.8447210058909,nan,False,live,nan
03/21/2024-15:16:06.452228 -- 800719,0.02,0.0,0.0,1.0,0.0,0,3.5069009979693,-6.3885710390208,375,12753.581517001,0.06534737965208,-0.052596339015448,0.13096579868372,0.63341993256986,nan,False,live,nan
03/21/2024-15:16:06.487118 -- 800732,0.02,0.0,0.0,1.0,0.0,0,3.3659715567903,-5.8612413578511,377,12007.68671024,0.031458814619751,-0.062276573756327,0.025201355388761,0.5299865707155,nan,False,live,nan
03/21/2024-15:16:06.521794 -- 800746,0.02,0.0,0.0,1.0,0.0,0,3.3307741193868,-5.7447559705584,379,11605.43510453,-0.0064644755853396,0.026657773612532,0.057597818467963,0.42219478198094,nan,False,live,nan
03/21/2024-15:16:06.552305 -- 800743,0.02,0.0,0.0,1.0,0.0,0,3.6864354199775997,-5.653142834567699,381,11288.163327526,0.047636114842658,0.059095194628159,-0.012653045831039,0.44560036611144,nan,False,live,nan
03/21/2024-15:16:06.584139 -- 800704,0.02,0.0,0.0,1.0,0.0,0,4.2566072013806995,-5.4855963899972995,383,10922.422909408,0.089417281239759,0.070651774798346,-0.18118389558601,0.75353715474707,nan,False,live,nan
03/21/2024-15:16:06.618984 -- 800681,0.02,0.0,0.0,1.0,0.0,0,4.5639554045769,-5.2764560725887,385,10368.730400697,0.064498990441809,-0.014502602247277,-0.030373306575349,0.93124653318857,nan,False,live,nan
03/21/2024-15:16:06.653327 -- 800678,0.02,0.0,0.0,1.0,0.0,0,4.8683478080307,-5.1374327037851995,387,9280.3841463415,0.046063224556565,0.015287090210456,0.018766457681202,0.95606116915079,nan,False,live,nan
03/21/2024-15:16:06.685100 -- 800698,0.02,0.0,0.0,1.0,0.0,0,4.9051148033679,-4.6895046006653995,389,9339.4233449477,0.065327234232284,-0.042996834724901,0.07654012320922,0.79623715986493,nan,False,live,nan
03/21/2024-15:16:06.704083 -- 800710,0.02,0.0,0.0,1.0,0.0,0,4.8545229033564,-4.6167658032012,390,8787.7983449477,0.0062510552055572,-0.028875335961706,0.092707621469942,0.70352953839499,nan,False,live,nan
03/21/2024-15:16:06.735687 -- 800754,0.02,0.0,0.0,1.0,0.0,0,4.4995405061403,-4.1534274366318,392,9067.5596689895,0.059940067977502,-0.07609982824063,0.19523434377615,0.36079026180359,nan,False,live,nan
03/21/2024-15:16:06.767961 -- 800784,0.02,0.0,0.0,1.0,0.0,0,4.3527125582049,-3.7246822811415,394,8552.4342334495,0.039407792264774,-0.068722515722256,0.081852941260823,0.12001205760544,nan,False,live,nan
03/21/2024-15:16:06.786357 -- 800799,0.02,0.0,0.0,1.0,0.0,0,4.0789216423041,-3.5900920496307,395,7797.043554007,0.039118850268661,-0.093926994768887,0.11551224117066,0.0044998164347728,nan,False,live,nan
03/21/2024-15:16:06.820231 -- 800791,0.02,0.0,0.0,1.0,0.0,0,4.1893008986223,-3.6295735070340003,397,7958.6175958188,-0.0053097347810726,0.070646831658902,-0.080735152777708,0.068396496703635,nan,False,live,nan
03/21/2024-15:16:06.851982 -- 800769,0.02,0.0,0.0,1.0,0.0,0,4.5625133583393,-3.4119362863605005,399,7917.5200348432,0.05299464845871,0.041984667528861,-0.084206710855926,0.23829076469945,nan,False,live,nan
03/21/2024-15:16:06.885693 -- 800744,0.02,0.0,0.0,1.0,0.0,0,5.0093174228223,-3.2174357314332003,401,7786.8863240418,0.062013992710934,0.06090512841586,-0.086770155555327,0.43518862812175,nan,False,live,nan
03/21/2024-15:16:06.919123 -- 800754,0.02,0.0,0.0,1.0,0.0,0,4.907267030457,-2.84450026902648,403,7028.7447735192,0.050280334458382,-0.070958793208859,0.041534655741963,0.3564291816478,nan,False,live,nan
03/21/2024-15:16:06.952160 -- 800767,0.02,0.0,0.0,1.0,0.0,0,4.900272116252999,-2.3986308057378,405,6523.2661149826,0.082556906247224,-0.014502524813538,0.060086636453537,0.2577831166416,nan,False,live,nan
03/21/2024-15:16:06.986530 -- 800753,0.02,0.0,0.0,1.0,0.0,0,5.171315837175,-2.19596986933293,407,6426.9703832753,0.061500148308522,0.060651112633153,-0.059998946526092,0.36706336966554,nan,False,live,nan
03/21/2024-15:16:07.018513 -- 800739,0.02,0.0,0.0,1.0,0.0,0,5.4897439170680995,-1.711323128958,409,6492.5818815331,0.09702861864381,0.010067639282862,-0.042575932466606,0.47500598675004,nan,False,live,nan
03/21/2024-15:16:07.037032 -- 800742,0.02,0.0,0.0,1.0,0.0,0,5.4369523108173,-1.5721013534506199,410,6555.4721254355,0.03365853578454,-0.036476116231844,0.023790410132274,0.45121557661777,nan,False,live,nan
03/21/2024-15:16:07.069308 -- 800757,0.02,0.0,0.0,1.0,0.0,0,5.692565149206899,-1.19902285371204,412,6314.8410278746,0.080657367371959,0.024046765628158,0.072842564484191,0.33384673593358,nan,False,live,nan
03/21/2024-15:16:07.103313 -- 800763,0.02,0.0,0.0,1.0,0.0,0,5.823220689824399,-0.7514671740871501,414,6210.2121080139,0.054002075038614,-0.0081157544938602,-0.00095380987628921,0.2901202931263,nan,False,live,nan
03/21/2024-15:16:07.133715 -- 800751,0.02,0.0,0.0,1.0,0.0,0,5.9562965492691,-0.50635720407018,416,5822.1890243902,0.047943936664833,0.0096262159147006,-0.0549309575103,0.38053324829375,nan,False,live,nan
03/21/2024-15:16:07.170395 -- 800760,0.02,0.0,0.0,1.0,0.0,0,5.838810356175,-0.152664145363839,418,6218.8963414634,0.03945176868604,-0.069443437793775,0.069262682756362,0.31102400062208,nan,False,live,nan
03/21/2024-15:16:07.201295 -- 800788,0.02,0.0,0.0,1.0,0.0,0,5.5042948397631,-0.177919555347855,420,6765.2116724739,-0.0095546623112511,-0.049157784101578,0.10964354733085,0.086778760420261,nan,False,live,nan
03/21/2024-15:16:07.221958 -- 800797,0.02,0.0,0.0,1.0,0.0,0,5.3864850979731,-0.198592481780541,421,6440.5431184669,-0.0090048725105579,-0.038846561967184,0.065408608868306,0.021370151551955,nan,False,live,nan
03/21/2024-15:16:07.252642 -- 800794,0.02,0.0,0.0,1.0,0.0,0,5.3804255613822,-0.27446430630428703,423,6386.6319686411,0.00044641830881072,0.0020971056793284,-0.027900236149425,0.041888185385189,nan,False,live,nan
03/21/2024-15:16:07.286192 -- 800788,0.02,0.0,0.0,1.0,0.0,0,5.3122511855301005,-0.31036453220199,425,5986.3693379791,-0.012985487857092,-0.014779201069422,-0.0092166657816849,0.091277924973326,nan,False,live,nan
03/21/2024-15:16:07.319284 -- 800799,0.02,0.0,0.0,1.0,0.0,0,5.1303311866392,-0.34935131236251,427,6140.0884146341,-0.030364051133273,-0.03506900234749,0.052936077243995,0.0074533062639656,nan,False,live,nan
03/21/2024-15:16:07.352573 -- 800812,0.02,0.0,0.0,1.0,0.0,0,4.9300953115299,-0.3610045832676,429,6308.2039215686,-0.0081143086925926,-0.038502975055533,0.078217418786661,6.1832689134963,nan,False,live,nan
03/21/2024-15:16:07.384513 -- 800819,0.02,0.0,0.0,1.0,0.0,0,4.847886453102,-0.35398893558549,431,6047.6554878049,-0.011972830887293,0.016357628527383,-0.00055864502666648,6.1280250818239,nan,False,live,nan
03/21/2024-15:16:07.403294 -- 800813,0.02,0.0,0.0,1.0,0.0,0,4.8374015207022,-0.51147869518968,432,5869.8514808362,-0.051586881727348,-0.010362147994079,-0.046815051433179,6.1748401332571,nan,False,live,nan
03/21/2024-15:16:07.435365 -- 800820,0.02,0.0,0.0,1.0,0.0,0,4.7346412242456,-0.52114672454499,434,6204.5797038328,-0.010680816438516,-0.026415611436732,0.060045051131486,6.1198729814814,nan,False,live,nan
03/21/2024-15:16:07.469318 -- 800855,0.02,0.0,0.0,1.0,0.0,0,4.3456407028308,-0.52219127385144,436,6770.1590413943,0.042910874139883,-0.065007302936331,0.14202535772295,5.8460035924942,nan,False,live,nan
03/21/2024-15:16:07.502136 -- 800856,0.02,0.0,0.0,1.0,0.0,0,4.4231874876624,-0.48704303244627,438,6422.7909407666,0.017588845589972,0.036355190307576,-0.049809845607859,5.8382074887065,nan,False,live,nan
03/21/2024-15:16:07.535130 -- 800820,0.02,0.0,0.0,1.0,0.0,0,4.7948716234845,-0.35935679134437004,440,5965.0653310105,-0.014328909089308,0.085754869753373,-0.14251680116359,6.1194619780204,nan,False,live,nan
03/21/2024-15:16:07.568928 -- 800799,0.02,0.0,0.0,1.0,0.0,0,4.9140182731803,-0.149325961165845,442,5844.5960784314,0.03422597832653,-0.022463650996369,-0.030703582144617,3.1041661088693e-05,nan,False,live,nan
03/21/2024-15:16:07.601183 -- 800800,0.02,0.0,0.0,1.0,0.0,0,4.9496698338756,0.0005189257772299499,444,5695.7442265795,0.028533467956153,0.0069665838195565,0.002797418883733,6.2771734623589,nan,False,live,nan
03/21/2024-15:16:07.634867 -- 800794,0.02,0.0,0.0,1.0,0.0,0,4.9353459079335,0.23032795844655002,446,5758.1350762527,0.046604782427037,0.0038414393403778,-0.053656201449534,0.042523481702995,nan,False,live,nan
03/21/2024-15:16:07.667916 -- 800780,0.02,0.0,0.0,1.0,0.0,0,4.9098504569316,0.5763500950830001,448,5562.7865853659,0.010614426106954,-0.04477987955497,-0.051026612259596,0.15091750638862,nan,False,live,nan
03/21/2024-15:16:07.703795 -- 800793,0.02,0.0,0.0,1.0,0.0,0,4.7513640453783,0.74115555815562,450,6497.7661149826,0.053961837752076,-0.035184210815419,0.080478126786574,0.048785728384002,nan,False,live,nan
03/21/2024-15:16:07.734132 -- 800828,0.02,0.0,0.0,1.0,0.0,0,4.2253674622677,0.98551669024566,452,7500.0265679443,0.049141936111732,-0.074347636258246,0.13408746175331,6.0579737991631,nan,False,live,nan
03/21/2024-15:16:07.768755 -- 800827,0.02,0.0,0.0,1.0,0.0,0,4.5742015229313004,1.0224253862411101,454,7313.7273519164,-0.035007978609482,0.088018291428853,-0.061648252214938,6.0647798367348,nan,False,live,nan
03/21/2024-15:16:07.801713 -- 800774,0.02,0.0,0.0,1.0,0.0,0,5.0954673769365,1.12585032347019,456,5525.282788671,0.025356002021208,0.1100183025195,-0.26396216753701,0.19747191178706,nan,False,live,nan
03/21/2024-15:16:07.836004 -- 800717,0.02,0.0,0.0,1.0,0.0,0,5.7113106704352,1.17927341654628,458,5046.3050108932,0.078666615243545,0.068955772407704,-0.17097389375737,0.64661518097736,nan,False,live,nan
03/21/2024-15:16:07.868813 -- 800702,0.02,0.0,0.0,1.0,0.0,0,5.9997906339525,1.2977557056399,460,5553.2290940767,0.012657208111459,0.037760144713035,-0.008336397952785,0.76405169631479,nan,False,live,nan
03/21/2024-15:16:07.900839 -- 800722,0.02,0.0,0.0,1.0,0.0,0,5.9391228330354,1.75859381696007,462,5739.1416122004,0.08259138802489,-0.056361822009292,0.066787739063423,0.61253014611296,nan,False,live,nan
03/21/2024-15:16:07.934637 -- 800726,0.02,0.0,0.0,1.0,0.0,0,6.110744143702199,2.05868619505035,464,6610.9006968641,0.03728775201993,0.0025574368076558,0.0094706216684518,0.57997250508838,nan,False,live,nan
03/21/2024-15:16:07.968606 -- 800712,0.02,0.0,0.0,1.0,0.0,0,6.513986049082801,2.47345123826106,466,6559.3898083624,0.1115781353891,-0.010078108827265,-0.049714007579108,0.686012467721,nan,False,live,nan
03/21/2024-15:16:08.001037 -- 800721,0.02,0.0,0.0,1.0,0.0,0,6.375400735734599,2.74726042604823,468,6930.6236933798,0.020766909020552,-0.046332767304279,0.048626319006272,0.61473976252166,nan,False,live,nan
03/21/2024-15:16:08.036773 -- 800744,0.02,0.0,0.0,1.0,0.0,0,6.1590858943134,3.0475740544073995,470,7693.0862369338,0.034633503541692,-0.085993215257687,0.106422097382,0.43312903513885,nan,False,live,nan
03/21/2024-15:16:08.069060 -- 800781,0.02,0.0,0.0,1.0,0.0,0,5.6448171511689,3.3687548580531,472,8291.1407407407,0.029318684790881,-0.060365438446013,0.13937511554367,0.14367355679902,nan,False,live,nan
03/21/2024-15:16:08.103364 -- 800817,0.02,0.0,0.0,1.0,0.0,0,5.1879109403001,3.6720727013055,474,8966.5241830065,0.031455892989167,-0.094444012331494,0.13389626300553,6.1474277458795,nan,False,live,nan
03/21/2024-15:16:08.137326 -- 800834,0.02,0.0,0.0,1.0,0.0,0,4.8448403961033,3.6162261690306,476,8493.6554878049,-0.017653009365314,-0.038248425471747,0.053571223314131,6.0102714332589,nan,False,live,nan
03/21/2024-15:16:08.170341 -- 800844,0.02,0.0,0.0,1.0,0.0,0,4.6475673716241,3.4535211459498,478,8086.5135017422,-0.014932740718277,-0.039723102580242,0.031095165266772,5.9362892046025,nan,False,live,nan
03/21/2024-15:16:08.202065 -- 800867,0.02,0.0,0.0,1.0,0.0,0,4.3199916278412,3.3958341784671005,480,8041.0888501742,0.021057353138004,-0.044606585647485,0.098422625698766,5.7542164063167,nan,False,live,nan
03/21/2024-15:16:08.234199 -- 800896,0.02,0.0,0.0,1.0,0.0,0,4.1123941658919,3.2018537331153003,482,7741.0614111498,-0.0073190031180237,-0.039692167329522,0.098641089392503,5.5244911149168,nan,False,live,nan
03/21/2024-15:16:08.268056 -- 800908,0.02,0.0,0.0,1.0,0.0,0,3.9947759667872997,3.1393041472515,484,7665.3732578397,0.0030920221217993,-0.016352976386312,0.046108243671533,5.4343802379717,nan,False,live,nan
03/21/2024-15:16:08.288433 -- 800902,0.02,0.0,0.0,1.0,0.0,0,4.067597956659,3.1624159963605,485,7702.0026155187,-0.012611894884548,0.022127568285334,-0.046889774212787,5.4812700121845,nan,False,live,nan
03/21/2024-15:16:08.318532 -- 800893,0.02,0.0,0.0,1.0,0.0,0,4.0887596180907,3.1877600289168,487,7415.2090592334,-0.014641872388873,0.0044419483724481,-0.033900861378813,5.5505965815589,nan,False,live,nan
03/21/2024-15:16:08.352359 -- 800881,0.02,0.0,0.0,1.0,0.0,0,4.1755178165001,3.2891920485114,489,7676.3040069686,0.0071792920354109,0.032326101794669,-0.035646717233721,5.6407587732765,nan,False,live,nan
03/21/2024-15:16:08.385047 -- 800877,0.02,0.0,0.0,1.0,0.0,0,4.2095230912368,3.2884385892965997,491,7522.3446623094,-0.001243072913035,0.0096216708559549,-0.013262791091609,5.677806692023,nan,False,live,nan
03/21/2024-15:16:08.418168 -- 800878,0.02,0.0,0.0,1.0,0.0,0,4.1795774564391,3.2598797825103003,493,7374.2920122217,-0.0016480588891748,-0.014213585808138,0.013005077101357,5.6649139860181,nan,False,live,nan
03/21/2024-15:16:08.437441 -- 800879,0.02,0.0,0.0,1.0,0.0,0,4.1700518699661,3.2568840763424998,494,7332.0946771379,0.0010337292494125,-0.0031639258428709,0.004431896203154,5.660482089815,nan,False,live,nan
03/21/2024-15:16:08.469778 -- 800883,0.02,0.0,0.0,1.0,0.0,0,4.1829772228032,3.2466509161851,496,7674.3414740515,-0.0012912134252589,-0.0047114714785615,0.025539864235732,5.6300075713075,nan,False,live,nan
03/21/2024-15:16:08.502313 -- 800883,0.02,0.0,0.0,1.0,0.0,0,4.190412249495,3.2565857137476,498,7351.9533769063,-0.0020482246626195,0.011891629316667,0.0026486422317922,5.6272532673099,nan,False,live,nan
03/21/2024-15:16:08.535604 -- 800882,0.02,0.0,0.0,1.0,0.0,0,4.1634494757603,3.2386597853297996,500,7325.876365225,-0.0015797391097826,-0.0051636174305736,-0.009036941584572,5.6364907107313,nan,False,live,nan
03/21/2024-15:16:08.571181 -- 800882,0.02,0.0,0.0,1.0,0.0,0,4.1668532453763,3.2501956005677997,502,7523.8835078534,0.0082417692769492,-0.0056491471023001,0.0071801155217145,5.6356292954519,nan,False,live,nan
03/21/2024-15:16:08.601592 -- 800882,0.02,0.0,0.0,1.0,0.0,0,4.1877370218543,3.2481709396485003,504,7391.9568062827,0.0020960258093955,0.0073485143836745,-0.0004295236522013,5.6386665994885,nan,False,live,nan
03/21/2024-15:16:08.635432 -- 800882,0.02,0.0,0.0,1.0,0.0,0,4.180828738401,3.2328574478226,506,7008.7558849172,-0.0052883487828526,0.0032612058287178,0.0037460704695662,5.6353908195472,nan,False,live,nan
03/21/2024-15:16:08.669436 -- 800881,0.02,0.0,0.0,1.0,0.0,0,4.1995176992841,3.2404234465635002,508,7264.4891020052,-0.00092019864962982,0.0016388808409579,-0.0025201290333965,5.6451387884197,nan,False,live,nan
03/21/2024-15:16:08.700857 -- 800880,0.02,0.0,0.0,1.0,0.0,0,4.22901497256,3.2361804511029,510,7129.7806367205,-0.0039873247578421,0.0056115537287457,-0.0080478655376871,5.6545938165664,nan,False,live,nan
03/21/2024-15:16:08.719254 -- 800880,0.02,0.0,0.0,1.0,0.0,0,4.228131075951,3.2312367887463,511,6874.4118673647,-0.0011586465140369,-0.0012082549652637,0.0016768214358409,5.6529169951306,nan,False,live,nan
03/21/2024-15:16:08.751073 -- 800880,0.02,0.0,0.0,1.0,0.0,0,4.2332404077702,3.2277984509510995,513,6931.7847494553,-0.00024087723210148,0.0025632025447273,0.0010158838678223,5.6511122926691,nan,False,live,nan
03/21/2024-15:16:08.785294 -- 800879,0.02,0.0,0.0,1.0,0.0,0,4.2644084450982,3.2299579665057,515,6924.3375545852,-0.0026366139926657,0.0042942446438806,-0.0035160302788701,5.6586453545878,nan,False,live,nan
03/21/2024-15:16:08.819384 -- 800876,0.02,0.0,0.0,1.0,0.0,0,4.2392699989608,3.2333450320803,517,6560.0633741259,-0.00091013118482665,-0.00057547170253959,-0.00065625031542465,5.6807977110471,nan,False,live,nan
03/21/2024-15:16:08.854653 -- 800876,0.02,0.0,0.0,1.0,0.0,0,4.2562795100862,3.2353920964622995,519,6448.5947712418,-0.0028449220292374,0.002164362925149,-0.0045352282561378,5.6848405850077,nan,False,live,nan
03/21/2024-15:16:08.885245 -- 800876,0.02,0.0,0.0,1.0,0.0,0,4.2567811035699,3.2176309608149998,521,6302.9305676856,-0.0023370417402817,0.004133135913614,0.0059056361043934,5.683331131824,nan,False,live,nan
03/21/2024-15:16:08.919729 -- 800876,0.02,0.0,0.0,1.0,0.0,0,4.2474977718801,3.2298918774476997,523,6216.4372275501,0.0015450422997832,-0.00027851516700289,0.0015152091440532,5.6817503951455,nan,False,live,nan
03/21/2024-15:16:08.953106 -- 800876,0.02,0.0,0.0,1.0,0.0,0,4.2416387397897,3.2232370942974,525,5821.315720524,-0.0024120594426919,-0.0026477368887897,-0.002544015697254,5.6828760372745,nan,False,live,nan
03/21/2024-15:16:08.985918 -- 800875,0.02,0.0,0.0,1.0,0.0,0,4.2560605774596,3.2191947984849,527,6165.1077191452,-0.0013450822509212,0.0024492139955677,-0.00096202246829779,5.6867705791764,nan,False,live,nan
03/21/2024-15:16:09.018690 -- 800874,0.02,0.0,0.0,1.0,0.0,0,4.2555646816485,3.2202551163768005,529,6273.3961605585,-0.00016797251332169,-8.7739656466194e-05,-0.0059003053805466,5.6941529751688,nan,False,live,nan
03/21/2024-15:16:09.052436 -- 800874,0.02,0.0,0.0,1.0,0.0,0,4.262410584560399,3.2155120827737997,531,6078.1505235602,-0.0014465298581244,0.00037430720493692,-0.0031811781763453,5.6950874610539,nan,False,live,nan
03/21/2024-15:16:09.085337 -- 800874,0.02,0.0,0.0,1.0,0.0,0,4.2730680873501,3.2136077462379005,533,5894.2787958115,-0.0007459698043403,0.0020465957338099,-9.8971049327739e-05,5.6955322111327,nan,False,live,nan
03/21/2024-15:16:09.117911 -- 800874,0.02,0.0,0.0,1.0,0.0,0,4.270061007915,3.2158037519604,535,5752.4442022668,0.00051809619608131,0.0017219761320662,0.0010465922784067,5.6942924614685,nan,False,live,nan
03/21/2024-15:16:09.150899 -- 800875,0.02,0.0,0.0,1.0,0.0,0,4.2728382019569,3.2138501291963997,537,5999.5785340314,-0.00026532474978584,-0.0011445897916018,0.000488781984793,5.6924654637396,nan,False,live,nan
03/21/2024-15:16:09.186516 -- 800874,0.02,0.0,0.0,1.0,0.0,0,4.262442777636901,3.2121514598943,539,5565.5360104758,0.00051756783258005,-0.0026445167380167,-0.00077243686012227,5.6944112169477,nan,False,live,nan
03/21/2024-15:16:09.220867 -- 800874,0.02,0.0,0.0,1.0,0.0,0,4.2759062072436,3.2085122886293997,541,5671.9114696904,-0.0016277136171664,0.00062375719757778,-0.0010401322483658,5.6950654244947,nan,False,live,nan
03/21/2024-15:16:09.252354 -- 800874,0.02,0.0,0.0,1.0,0.0,0,4.2772436634294,3.2143526308026,543,5373.9278846154,0.00087518628177609,-0.00032882000712021,-0.00042284807326171,5.6961597272343,nan,False,live,nan
03/21/2024-15:16:09.286858 -- 800875,0.02,0.0,0.0,1.0,0.0,0,4.2708163367481005,3.2096789239305,545,5349.9481029219,-0.0027411439031104,-0.0011056974906956,0.0026402575983715,5.6934531135644,nan,False,live,nan
03/21/2024-15:16:09.318899 -- 800875,0.02,0.0,0.0,1.0,0.0,0,4.2811510691175005,3.2092056486734997,547,5456.0327082425,-0.001680573401012,0.001565955379894,0.00097622229777168,5.6928548566839,nan,False,live,nan
03/21/2024-15:16:09.350908 -- 800875,0.02,0.0,0.0,1.0,0.0,0,4.314715028306701,3.1954407350622,549,5668.1348167539,-0.0048822732044978,-0.00054801651806445,0.0028585151023014,5.690645413832,nan,False,live,nan
03/21/2024-15:16:09.385143 -- 800874,0.02,0.0,0.0,1.0,0.0,0,4.3577419136565,3.2134671627344997,551,5726.9917030568,-0.0034594652586994,0.011978491820827,-0.0015178903134045,5.6989449789805,nan,False,live,nan
03/21/2024-15:16:09.418727 -- 800871,0.02,0.0,0.0,1.0,0.0,0,4.3838070179016,3.1972740445875,553,6007.9746945899,-0.0061776111095858,0.0031224991714681,-0.018387985807531,5.721810262643,nan,False,live,nan
03/21/2024-15:16:09.450512 -- 800867,0.02,0.0,0.0,1.0,0.0,0,4.4287653623339995,3.1968984160827003,555,5997.2663469922,-0.0049971165930514,0.0054352210381354,-0.01420984249686,5.7498473063153,nan,False,live,nan
03/21/2024-15:16:09.470225 -- 800866,0.02,0.0,0.0,1.0,0.0,0,4.4728679862786,3.2141020251945,556,5894.7433435181,-0.0024272472172383,0.015592077598361,-0.013958117214417,5.7638054235297,nan,False,live,nan
03/21/2024-15:16:09.504200 -- 800863,0.02,0.0,0.0,1.0,0.0,0,4.5155713050837,3.2246927293142997,558,5599.3193717277,-0.0012394509962932,-0.00044213895224073,-0.0045835879027234,5.782371619217,nan,False,live,nan
03/21/2024-15:16:09.536650 -- 800863,0.02,0.0,0.0,1.0,0.0,0,4.4996116241658,3.1782315631118996,560,5215.1156195462,-0.0069122751817753,-0.012827492553684,0.0028663979014955,5.7847375604588,nan,False,live,nan
03/21/2024-15:16:09.569986 -- 800875,0.02,0.0,0.0,1.0,0.0,0,4.3579321613643,2.89440100251711,562,5701.4443959878,-0.034126108791027,-0.063582344217716,0.071496129067783,5.6891338917935,nan,False,live,nan
03/21/2024-15:16:09.603130 -- 800903,0.02,0.0,0.0,1.0,0.0,0,4.0884387807552,2.68498755782913,564,5731.0915830789,0.01078349836449,-0.056985051028799,0.12650278797935,5.4679510889224,nan,False,live,nan
03/21/2024-15:16:09.635828 -- 800929,0.02,0.0,0.0,1.0,0.0,0,3.9555087673928995,2.49245972203872,566,6174.1679023114,0.0044499475053504,-0.029317695223184,0.078863094730449,5.2671814450414,nan,False,live,nan
03/21/2024-15:16:09.668071 -- 800941,0.02,0.0,0.0,1.0,0.0,0,3.9586140531711,2.44254871981908,568,6519.434422658,0.0010846772626346,-0.017310380125788,0.01924223381416,5.1749761359861,nan,False,live,nan
03/21/2024-15:16:09.702543 -- 800941,0.02,0.0,0.0,1.0,0.0,0,3.8291109156543,2.40338972005431,570,6487.0898386393,0.011984285685594,-0.017344929130773,0.0055349597138556,5.1696430961583,nan,False,live,nan
03/21/2024-15:16:09.736243 -- 800953,0.02,0.0,0.0,1.0,0.0,0,3.6813796212011995,2.3390377089744296,572,6556.4701003928,0.0046033002751791,-0.0058912827874938,0.06251374100036,5.0790426547184,nan,False,live,nan
03/21/2024-15:16:09.770027 -- 800965,0.02,0.0,0.0,1.0,0.0,0,3.4873534022331,2.23301402372448,574,6746.3573298429,0.043099311213653,-0.028675279247626,0.035445928429696,4.9858812473929,nan,False,live,nan
03/21/2024-15:16:09.804031 -- 800983,0.02,0.0,0.0,1.0,0.0,0,3.2823068874851997,2.04124366814475,576,6987.9288830716,-0.0045224836468375,-0.031607267582569,0.045705310552274,4.8431336680467,nan,False,live,nan
03/21/2024-15:16:09.835575 -- 800992,0.02,0.0,0.0,1.0,0.0,0,3.1815935410974,2.0400486530685003,578,7737.7945922372,0.022549849419881,-0.0088544970338823,0.032644460512635,4.7713201077082,nan,False,live,nan
03/21/2024-15:16:09.867651 -- 800986,0.02,0.0,0.0,1.0,0.0,0,3.072895876389,1.87288115179275,580,7154.1518987342,0.010406895887393,-0.039417264655768,-0.0036232929194727,4.8176053858188,nan,False,live,nan
03/21/2024-15:16:09.901134 -- 800998,0.02,0.0,0.0,1.0,0.0,0,2.8220724732617404,1.5710113679757898,582,7393.5892623309,0.05785215183253,-0.0087940006651418,0.078775676549113,4.7207081296384,nan,False,live,nan
03/21/2024-15:16:09.935625 -- 801026,0.02,0.0,0.0,1.0,0.0,0,2.42465805525972,1.20109045622013,584,7822.1895196507,0.091419909662535,-0.067334105321159,0.12709516189527,4.5054930369541,nan,False,live,nan
03/21/2024-15:16:09.969922 -- 801051,0.02,0.0,0.0,1.0,0.0,0,2.29349116048206,1.05950067691689,586,7553.2197993894,-0.050177513267521,0.025233476858688,0.082732859370856,4.3050245917178,nan,False,live,nan
03/21/2024-15:16:10.003045 -- 801050,0.02,0.0,0.0,1.0,0.0,0,2.15082947349243,1.2534187485903299,588,7654.6227649368,0.042736630915426,0.035364219557441,-0.044212918278136,4.3125264562748,nan,False,live,nan
03/21/2024-15:16:10.036345 -- 801019,0.02,0.0,0.0,1.0,0.0,0,1.9133189978706602,1.55016217040322,590,7317.440087146,0.025099751377391,0.083898188188397,-0.1877980538604,4.5614248397614,nan,False,live,nan
03/21/2024-15:16:10.069311 -- 800993,0.02,0.0,0.0,1.0,0.0,0,1.8135550502305797,1.87695721988319,592,6392.8194505015,0.015152472345298,0.065922141239068,-0.10753548094289,4.7624958633004,nan,False,live,nan
03/21/2024-15:16:10.102392 -- 800986,0.02,0.0,0.0,1.0,0.0,0,1.5944700648291301,1.9872866015566801,594,6228.0662887048,0.022218031787369,-0.032770508759635,0.057466396820529,4.8213775823976,nan,False,live,nan
03/21/2024-15:16:10.135656 -- 800993,0.02,0.0,0.0,1.0,0.0,0,1.56861163926885,2.04130536833262,596,6480.5504146661,0.015817824417662,0.012753500183233,0.054117643959606,4.7624500141517,nan,False,live,nan
03/21/2024-15:16:10.169557 -- 800978,0.02,0.0,0.0,1.0,0.0,0,1.51084292737173,2.3159590155709497,598,7150.3653426451,0.013114361021029,0.063051681045274,-0.1156653145455,4.8844914250836,nan,False,live,nan
03/21/2024-15:16:10.200855 -- 800967,0.02,0.0,0.0,1.0,0.0,0,1.39896838352139,2.3237898018436502,600,7319.926297427,0.014162537949225,0.010105809232703,-0.04340425922503,4.9667381282636,nan,False,live,nan
03/21/2024-15:16:10.219752 -- 800967,0.02,0.0,0.0,1.0,0.0,0,1.33128878165226,2.3970474945150597,601,6817.5861317052,0.02797708554645,0.017959096173005,0.00013668851529645,4.9666014397484,nan,False,live,nan
03/21/2024-15:16:10.253288 -- 800967,0.02,0.0,0.0,1.0,0.0,0,1.25196163074264,2.4097352712717,603,6939.6592495637,0.0044194897140751,0.0040712575955039,-0.010867783860144,4.9685865374947,nan,False,live,nan
03/21/2024-15:16:10.285321 -- 800969,0.02,0.0,0.0,1.0,0.0,0,1.13589391657272,2.34575460376716,605,7295.9223385689,0.010376752966712,0.0021581514554151,-0.0024141255685873,4.9509644109891,nan,False,live,nan
03/21/2024-15:16:10.318922 -- 800973,0.02,0.0,0.0,1.0,0.0,0,1.06002561386712,2.30327662341345,607,6420.781358885,0.015682287907335,-0.015279524380313,-0.0095857531218949,4.9230360622589,nan,False,live,nan
03/21/2024-15:16:10.352558 -- 800974,0.02,0.0,0.0,1.0,0.0,0,1.08913609863456,2.17190965982574,609,5962.3560209424,-0.00071512349315792,-0.017997088926984,0.020148451491311,4.9138771572772,nan,False,live,nan
03/21/2024-15:16:10.387025 -- 800990,0.02,0.0,0.0,1.0,0.0,0,1.219013768814,1.86233476907835,611,6567.4923680768,-0.035536404897096,-0.070657082111328,0.10736175895925,4.790865294979,nan,False,live,nan
03/21/2024-15:16:10.419930 -- 801035,0.02,0.0,0.0,1.0,0.0,0,1.24698008691315,1.32551215728849,613,6706.0183086312,0.016910637282809,-0.08046504040333,0.20620728963143,4.4318382164941,nan,False,live,nan
03/21/2024-15:16:10.452563 -- 801054,0.02,0.0,0.0,1.0,0.0,0,1.1524814781802801,1.1928892682710202,615,6780.3129904098,0.026439995686244,0.0058181495623162,0.045150789439216,4.2826937840905,nan,False,live,nan
03/21/2024-15:16:10.484190 -- 801036,0.02,0.0,0.0,1.0,0.0,0,1.15731861252285,1.20217404511311,617,6347.8218641115,0.0046679807835749,0.014012076654883,-0.1049718852244,4.4281171018816,nan,False,live,nan
03/21/2024-15:16:10.520113 -- 801030,0.02,0.0,0.0,1.0,0.0,0,1.17426745531569,1.15141208803608,619,6726.9642389882,-0.0046572766134945,-0.03097677673133,0.018301099684321,4.4748718813113,nan,False,live,nan
03/21/2024-15:16:10.551533 -- 801048,0.02,0.0,0.0,1.0,0.0,0,1.01427177342753,0.82548183110085,621,6448.2489102005,0.050797212923202,-0.035561096637723,0.064822784984657,4.3321405620925,nan,False,live,nan
03/21/2024-15:16:10.570315 -- 801057,0.02,0.0,0.0,1.0,0.0,0,1.00133128816254,0.54241640654961,622,6768.6335511983,0.041940379317645,-0.084650697430283,0.068141327477472,4.263999234615,nan,False,live,nan
03/21/2024-15:16:10.601874 -- 801073,0.02,0.0,0.0,1.0,0.0,0,1.03432538364939,0.14673610872273898,624,6646.2911944202,0.028966773144515,-0.022789148764668,0.07572917190864,4.1340849039819,nan,False,live,nan
03/21/2024-15:16:10.635024 -- 801091,0.02,0.0,0.0,1.0,0.0,0,1.01630711829426,-0.374202277599,626,7232.9254577158,0.072484515220085,-0.083823708113272,0.08101381373206,3.9949817079882,nan,False,live,nan
03/21/2024-15:16:10.668707 -- 801100,0.02,0.0,0.0,1.0,0.0,0,1.0478540095589999,-0.49822324702931997,628,7016.3376963351,-0.024618126578729,-0.0060275384031166,0.015594649698757,3.9007561246098,nan,False,live,nan
03/21/2024-15:16:10.702247 -- 801100,0.02,0.0,0.0,1.0,0.0,0,1.0900943915994301,-0.6915300748272,630,8082.5987788923,0.024822213732831,-0.023940539346884,-0.014524738703391,3.9149419689573,nan,False,live,nan
03/21/2024-15:16:10.736863 -- 801099,0.02,0.0,0.0,1.0,0.0,0,1.17001381832163,-0.89971394666217,632,7147.5152705061,0.015528468192143,-0.043317149208788,0.016364511761001,3.927519736009,nan,False,live,nan
03/21/2024-15:16:10.770121 -- 801100,0.02,0.0,0.0,1.0,0.0,0,1.10995453729155,-1.20097388740647,634,7743.9294117647,0.030311641292173,-0.0059666338909436,0.046488303263304,3.8766833789597,nan,False,live,nan
03/21/2024-15:16:10.801130 -- 801100,0.02,0.0,0.0,1.0,0.0,0,0.8861462805164999,-1.59247117322469,636,8688.7299651568,0.099471767111903,-0.0013182672559409,0.029652117487752,3.8289020772888,nan,False,live,nan
03/21/2024-15:16:10.835028 -- 801100,0.02,0.0,0.0,1.0,0.0,0,0.97094669170677,-1.7722353742817099,638,8211.7891067538,0.032308895001795,-0.040964605747337,0.065812012709548,3.69922263445,nan,False,live,nan
03/21/2024-15:16:10.871086 -- 801100,0.02,0.0,0.0,1.0,0.0,0,0.86526543763521,-1.92540148086063,640,8474.362804878,0.015987744203316,0.01370710853181,0.017301072474524,3.592622128116,nan,False,live,nan
03/21/2024-15:16:10.901899 -- 801100,0.02,0.0,0.0,1.0,0.0,0,0.5214564768646199,-2.22847676178936,642,8828.4849673203,0.11042675492992,0.013681243157925,-0.034778740733931,3.662249708143,nan,False,live,nan
03/21/2024-15:16:10.938179 -- 801100,0.02,0.0,0.0,1.0,0.0,0,0.057113057788517996,-2.49020627481486,644,8467.6271777003,0.059973891259635,0.059861535177327,-0.15005512756879,3.8766345508083,nan,False,live,nan
03/21/2024-15:16:10.970234 -- 801100,0.02,0.0,0.0,1.0,0.0,0,-0.08085808083325499,-2.9306895218448004,646,9048.9773420479,0.064266369505562,-0.032711936094104,-0.012526944899521,3.9178024616206,nan,False,live,nan
03/21/2024-15:16:11.003200 -- 801100,0.02,0.0,0.0,1.0,0.0,0,-0.252454293468519,-3.8713193689470002,648,8856.6069716776,0.1759822979718,-0.10194847700202,0.11313055883621,3.8543622698021,nan,False,live,nan
03/21/2024-15:16:11.035034 -- 801096,0.02,0.0,0.0,1.0,0.0,0,-0.63065346140235,-3.8012695967346,650,8498.4751525719,0.02356916431568,0.049794304126641,-0.082861013398954,3.9538480745078,nan,False,live,nan
03/21/2024-15:16:11.070000 -- 801100,0.02,0.0,0.0,1.0,0.0,0,-1.0396800442583398,-4.435608227973,652,8430.5202791103,0.12905699073034,-0.022445682664461,-0.003791130928181,3.9237216615905,nan,False,live,nan
03/21/2024-15:16:11.102346 -- 801100,0.02,0.0,0.0,1.0,0.0,0,-1.22315494885884,-4.3774335756495,654,10340.955100262,-0.0032139130088153,0.009550782995449,0.089243454890196,3.8593918328448,nan,False,live,nan
03/21/2024-15:16:11.137856 -- 801100,0.02,0.0,0.0,1.0,0.0,0,-1.10936462585769,-4.3255500539457,656,9543.4494773519,-0.033586545522866,0.026951275866101,-0.01842583479077,3.8279681429449,nan,False,live,nan
03/21/2024-15:16:11.157431 -- 801100,0.02,0.0,0.0,1.0,0.0,0,-1.1126760941328,-4.3846363093308,657,9525.9830139373,0.016239720795279,-0.011202014021448,0.053096008507014,3.7748721344379,nan,False,live,nan
03/21/2024-15:16:11.184078 -- 801100,0.02,0.0,0.0,1.0,0.0,0,-1.09103786018802,-4.4570125580022,659,10158.112369338,-0.031487211158153,0.0098228875267993,0.013683974841308,3.7257132129822,nan,False,live,nan
03/21/2024-15:16:11.219428 -- 801100,0.02,0.0,0.0,1.0,0.0,0,-1.1642179631771399,-4.6451759213562,661,7956.4004357298,0.050159041446005,-0.0079669641772879,-0.012146117870574,3.7036016086426,nan,False,live,nan
03/21/2024-15:16:11.252710 -- 801100,0.02,0.0,0.0,1.0,0.0,0,-1.17700571697561,-4.8350790385185,663,6864.0405228758,0.060529188676972,-0.053304801463663,0.042646471853705,3.6720433041571,nan,False,live,nan
03/21/2024-15:16:11.288054 -- 801100,0.02,0.0,0.0,1.0,0.0,0,-1.17590959466916,-4.9250596204794,665,6554.2558849172,-0.0059896277531761,-0.0082310838012627,0.0077047967734936,3.6320216645777,nan,False,live,nan
03/21/2024-15:16:11.318127 -- 801100,0.02,0.0,0.0,1.0,0.0,0,-1.29947442888573,-5.2932577157061,667,7510.0562091503,0.093362650503972,-0.0077152116686564,-0.052514260956922,3.6903034110513,nan,False,live,nan
03/21/2024-15:16:11.351907 -- 801100,0.02,0.0,0.0,1.0,0.0,0,-1.37725162596339,-5.330057204585399,669,7436.588671024,0.019653393935492,-0.0051981068662231,-0.029762533802553,3.7327940500614,nan,False,live,nan
03/21/2024-15:16:11.385627 -- 801100,0.02,0.0,0.0,1.0,0.0,0,-1.3961082610758,-5.6687665443771,671,7106.1412996075,0.03426225603796,-0.044788962832632,0.039534404302353,3.7167746945505,nan,False,live,nan
03/21/2024-15:16:11.417212 -- 801100,0.02,0.0,0.0,1.0,0.0,0,-1.5082819509333298,-6.0523310869677,673,7575.5766550523,0.065128436117465,-0.00062379706235353,0.047712743314144,3.6319712142641,nan,False,live,nan
03/21/2024-15:16:11.452556 -- 801100,0.02,0.0,0.0,1.0,0.0,0,-1.57698928992906,-6.334948333958399,675,7264.7003924989,0.048260800889282,-0.035767163201699,0.026565967974913,3.5548295483072,nan,False,live,nan
