timestamp -- motor_step_command,mfc1_stpt,mfc2_stpt,mfc3_stpt,led1_stpt,led2_stpt,sig_status,ft_posx,ft_posy,ft_frame,ft_error,ft_roll,ft_pitch,ft_yaw,ft_heading,adapted_center,instrip,mode,strip_thresh
03/26/2024-14:40:14.180613 -- 800300,0.3,0.0,0.0,1.0,0.0,0,0.46499238402567,-0.25272133089634796,120,9728.803554724,-0.047822468087754,-0.010385011828735,3.2109015892719e-05,3.632316407597,nan,False,live,nan
03/26/2024-14:40:14.216101 -- 800300,0.3,0.0,0.0,1.0,0.0,0,0.52687664872008,-0.11474611168511399,122,9512.7382739212,-0.0080290771998828,0.00027810013134468,0.038240334926435,3.5963109690881,nan,False,live,nan
03/26/2024-14:40:14.248569 -- 800300,0.3,0.0,0.0,1.0,0.0,0,0.71350975418562,-0.091882785473544,124,9382.3331784387,-0.008749923822939,-0.018295583782691,0.12226196622969,3.4161178349088,nan,False,live,nan
03/26/2024-14:40:14.282651 -- 800300,0.3,0.0,0.0,1.0,0.0,0,0.9431883182615699,0.046138148953464,126,9816.6605504587,-0.020284825411486,-0.040633239075137,0.12043663142965,3.156439877082,nan,False,live,nan
03/26/2024-14:40:14.315973 -- 800500,0.3,0.0,0.0,1.0,0.0,0,1.0838088063933,0.262757578093185,128,9466.3845405931,-0.056118794987617,-0.033037398432417,0.057366607858417,3.0120800678708,nan,False,live,nan
03/26/2024-14:40:14.352296 -- 800500,0.3,0.0,0.0,1.0,0.0,0,1.02111909446232,0.3407547622758,130,9170.720749543,-0.030326917683665,0.016375932244128,-0.037427754274477,3.0751021346276,nan,False,live,nan
03/26/2024-14:40:14.383293 -- 800500,0.3,0.0,0.0,1.0,0.0,0,1.01493556276914,0.37174175198442,132,9246.3236216943,-0.0047015014249293,0.0093413542379883,-0.014083800797135,3.1296169353659,nan,False,live,nan
03/26/2024-14:40:14.417070 -- 800500,0.3,0.0,0.0,1.0,0.0,0,0.8695068717708301,0.51805697218413,134,18614.167587477,-0.048590863034026,0.021368091208536,0.04441820964528,3.0509358964017,nan,False,live,nan
03/26/2024-14:40:14.449571 -- 800500,0.3,0.0,0.0,1.0,0.0,0,1.1190841036581,0.231201875337831,136,9171.1605335787,0.044401599523524,-0.025004415187678,0.056987692016764,2.8198808452339,nan,False,live,nan
03/26/2024-14:40:14.483834 -- 800500,0.3,0.0,0.0,1.0,0.0,0,1.22744108350905,0.088958043690306,138,9682.0121130552,0.0091913293363256,-0.036297727697786,-0.059395359966464,2.8541205067363,nan,False,live,nan
03/26/2024-14:40:14.515034 -- 800500,0.3,0.0,0.0,1.0,0.0,0,1.25550349412247,0.091359054988362,140,9563.3358676208,0.0024449583372396,-0.0049412293656263,0.025238543543326,2.7980662432988,nan,False,live,nan
03/26/2024-14:40:14.548408 -- 800500,0.3,0.0,0.0,1.0,0.0,0,1.06704235507158,-0.0158895173379987,142,9194.0789938217,-0.0143961229969,0.024246623618726,0.012735170582707,2.7820711700767,nan,False,live,nan
03/26/2024-14:40:14.583621 -- 800500,0.3,0.0,0.0,1.0,0.0,0,1.19384688261774,0.061897585050815995,144,9494.7902571042,0.030029957252794,-0.028687221414214,0.13820663156441,2.5375796884941,nan,False,live,nan
03/26/2024-14:40:14.615952 -- 800516,0.3,0.0,0.0,1.0,0.0,0,1.44275723400027,0.0094489381935126,146,11169.754098361,-0.0065140933051907,-0.020682754505261,0.15679781005756,2.2298335178109,nan,False,live,nan
03/26/2024-14:40:14.650847 -- 800525,0.3,0.0,0.0,1.0,0.0,0,1.40825845090878,0.036332250621417,148,11085.089539007,0.013874773278146,-0.0027644085926891,-0.029714182301665,2.1542531139844,nan,False,live,nan
03/26/2024-14:40:14.679636 -- 800515,0.3,0.0,0.0,1.0,0.0,0,1.87639432251834,-0.46808677122474,150,11289.186898763,0.15660970263042,0.057351376751853,-0.022369448778828,2.2383471323574,nan,False,live,nan
03/26/2024-14:40:14.714924 -- 800514,0.3,0.0,0.0,1.0,0.0,0,1.59277326315735,-0.32412152099721003,152,11725.785058978,-0.034158594508002,0.023578754213989,0.024581871888659,2.2386028066514,nan,False,live,nan
03/26/2024-14:40:14.749463 -- 800515,0.3,0.0,0.0,1.0,0.0,0,1.74559129205934,-0.34959836963709,154,12101.67254297,0.032300340945248,-0.0077785289701693,-0.0042404314335101,2.2377170024665,nan,False,live,nan
03/26/2024-14:40:14.771055 -- 800518,0.3,0.0,0.0,1.0,0.0,0,1.70703133485015,-0.38389866336824996,155,12017.886611426,-0.003243930954425,0.016894475180002,0.025656012646639,2.2120609898198,nan,False,live,nan
03/26/2024-14:40:14.801202 -- 800538,0.3,0.0,0.0,1.0,0.0,0,1.5926421581016301,-0.51042605946165,157,12306.823221301,0.00051891947742936,0.02080783704792,0.078281624076701,2.0522390210544,nan,False,live,nan
03/26/2024-14:40:14.834069 -- 800564,0.3,0.0,0.0,1.0,0.0,0,1.95802077624909,-0.6530592152427901,159,12815.058274021,0.13202472770082,0.0068526867054173,0.063617005514118,1.8521402862939,nan,False,live,nan
03/26/2024-14:40:14.864238 -- 800558,0.3,0.0,0.0,1.0,0.0,0,1.7898379256394898,-0.99158076059967,161,12293.593763724,-0.042608924818279,0.067606075339987,-0.0060275101192716,1.8936089150606,nan,False,live,nan
03/26/2024-14:40:14.882991 -- 800576,0.3,0.0,0.0,1.0,0.0,0,1.8345533691143698,-0.8244452884631699,162,11867.702099738,0.00036668761334557,-0.057711446635265,0.13549727802821,1.7581116370324,nan,False,live,nan
03/26/2024-14:40:14.916252 -- 800603,0.3,0.0,0.0,1.0,0.0,0,2.21263473587805,-0.6154092517308,164,12069.780369718,0.081717661993729,-0.024464013236377,0.045086507333586,1.5448997967089,nan,False,live,nan
03/26/2024-14:40:14.950560 -- 800614,0.3,0.0,0.0,1.0,0.0,0,1.9835399908023001,-0.70589535746103,166,12014.282466113,-0.067663816192125,-0.020912966913138,0.14476529541057,1.459545243202,nan,False,live,nan
03/26/2024-14:40:14.981364 -- 800662,0.3,0.0,0.0,1.0,0.0,0,2.17315326691155,-0.39729758522892,168,10303.476507092,0.093927458821646,-0.022866707940355,0.089490495053208,1.0838494103897,nan,False,live,nan
03/26/2024-14:40:15.016176 -- 800674,0.3,0.0,0.0,1.0,0.0,0,2.14209970528191,-0.47892973689501006,170,9840.4037102474,-0.044117061141846,-0.00043877677492924,0.1482630665856,0.98609784744545,nan,False,live,nan
03/26/2024-14:40:15.050152 -- 800685,0.3,0.0,0.0,1.0,0.0,0,2.26626173083503,-0.236459248566822,172,9836.2823685373,0.048724438432777,0.017626800434812,-0.00085525358523829,0.89850810935107,nan,False,live,nan
03/26/2024-14:40:15.083811 -- 800729,0.3,0.0,0.0,1.0,0.0,0,2.02772884860789,-0.23972853583475398,174,7115.6728759655,-0.0035947657753199,-0.065922978829373,0.24969295860083,0.55751684137003,nan,False,live,nan
03/26/2024-14:40:15.116060 -- 800747,0.3,0.0,0.0,1.0,0.0,0,2.1639035687127,-0.14519347451668202,176,7269.6891708201,-0.0029137706768918,0.05456021814548,-0.014162188837163,0.40937597127745,nan,False,live,nan
03/26/2024-14:40:15.148677 -- 800733,0.3,0.0,0.0,1.0,0.0,0,2.0633589867435598,-0.181962296316996,178,7394.5741963893,0.016808483866962,-0.060861377354113,-0.00839610519911,0.52002896160421,nan,False,live,nan
03/26/2024-14:40:15.185058 -- 800755,0.3,0.0,0.0,1.0,0.0,0,1.8939519044934903,0.064255722771519,180,6154.7921620432,-0.022202037478436,0.0028868987557462,0.092340664114825,0.35055625506516,nan,False,live,nan
03/26/2024-14:40:15.215799 -- 800767,0.3,0.0,0.0,1.0,0.0,0,1.7435485448733599,0.16113984949042798,182,6347.3854625551,0.049362580047253,-0.034849073830129,0.054739950544706,0.25536660316769,nan,False,live,nan
03/26/2024-14:40:15.234262 -- 800763,0.3,0.0,0.0,1.0,0.0,0,1.6788358700711399,0.268307739590274,183,6381.7751427317,0.028632956975657,-0.030359572396297,-0.032100978819376,0.28746758198706,nan,False,live,nan
03/26/2024-14:40:15.268383 -- 800770,0.3,0.0,0.0,1.0,0.0,0,1.68013946544678,0.118393755474687,185,6133.4022026432,0.011335366740004,-0.027358421516406,0.095072215310155,0.22821261672141,nan,False,live,nan
03/26/2024-14:40:15.300378 -- 800779,0.3,0.0,0.0,1.0,0.0,0,1.608303494121,0.243179780612718,187,5727.554185022,-0.017750918821901,0.0029267862091538,-0.031060102641859,0.16189979431767,nan,False,live,nan
03/26/2024-14:40:15.330694 -- 800768,0.3,0.0,0.0,1.0,0.0,0,1.62879814526115,0.40035514577573994,189,5790.2637314734,0.07271875869245,-0.038893997058163,0.0015254367896903,0.24386443978109,nan,False,live,nan
03/26/2024-14:40:15.367800 -- 800765,0.3,0.0,0.0,1.0,0.0,0,1.67293955157804,0.25680347605950604,191,5784.2968613775,-0.025045423731388,0.016373713507142,-0.010461478987016,0.2718683284878,nan,False,live,nan
03/26/2024-14:40:15.398951 -- 800766,0.3,0.0,0.0,1.0,0.0,0,1.6299110128097098,0.294365162136603,193,6017.5256968641,-0.048095390569012,0.001654259810313,-0.027612636223561,0.25990548422398,nan,False,live,nan
03/26/2024-14:40:15.433982 -- 800767,0.3,0.0,0.0,1.0,0.0,0,1.6308163111250398,0.4124884872888,195,5647.9155052265,0.016734782332532,-0.041083816898103,0.028615532249661,0.25266491845177,nan,False,live,nan
03/26/2024-14:40:15.463945 -- 800764,0.3,0.0,0.0,1.0,0.0,0,1.65611654351637,0.33851365010049,197,5656.949912892,0.017873795525596,-0.0075826926369268,0.010791095625338,0.2764802074387,nan,False,live,nan
03/26/2024-14:40:15.498314 -- 800765,0.3,0.0,0.0,1.0,0.0,0,1.6397264547053698,0.167812477370556,199,5728.3907544701,-0.0373492837359,0.01614401660466,-0.019367130510983,0.27387868470414,nan,False,live,nan
03/26/2024-14:40:15.517209 -- 800771,0.3,0.0,0.0,1.0,0.0,0,1.57258268641539,0.183955400668101,200,5267.1013100437,-0.00025984532375208,-0.023020112439828,0.053292533506758,0.22058615119738,nan,False,live,nan
03/26/2024-14:40:15.548936 -- 800784,0.3,0.0,0.0,1.0,0.0,0,1.38506694020415,-0.055964539905611996,202,4918.1249451995,-0.019479285626666,-0.037988208824708,0.068654237578499,0.11951010265204,nan,False,live,nan
03/26/2024-14:40:15.583005 -- 800806,0.3,0.0,0.0,1.0,0.0,0,1.30683894411867,-0.186924848220642,204,5573.1543564794,-0.023726166856471,0.016747057703502,0.064863990007416,6.23573796647,nan,False,live,nan
03/26/2024-14:40:15.617556 -- 800819,0.3,0.0,0.0,1.0,0.0,0,1.268496951009,-0.277744585749786,206,5581.7181088314,-0.027708734897734,-0.01668473687013,0.033166735341138,6.1265416653456,nan,False,live,nan
03/26/2024-14:40:15.650656 -- 800822,0.3,0.0,0.0,1.0,0.0,0,1.21864107398661,-0.39964574219682003,208,5462.6358051777,-0.020783607806726,-0.021458506013071,-0.00039141317165216,6.1098039935766,nan,False,live,nan
03/26/2024-14:40:15.681949 -- 800839,0.3,0.0,0.0,1.0,0.0,0,1.1947891578012,-0.71373502020729,210,6972.7698163905,-0.054757769916505,-0.026124490057724,0.13082582474597,5.9734470028408,nan,False,live,nan
03/26/2024-14:40:15.715265 -- 800884,0.3,0.0,0.0,1.0,0.0,0,1.14635930720952,-0.8016207501985501,212,9258.0499108734,0.008202999329314,-0.018525002381983,0.16285272665498,5.6224004641764,nan,False,live,nan
03/26/2024-14:40:15.748834 -- 800914,0.3,0.0,0.0,1.0,0.0,0,1.2215729494482899,-0.9960287677014601,214,9024.7334223409,-0.027039755518514,-0.0001551224679401,0.039814411950247,5.3819647103991,nan,False,live,nan
03/26/2024-14:40:15.780648 -- 800905,0.3,0.0,0.0,1.0,0.0,0,1.18971525569976,-1.01687103854661,216,9513.4031690141,0.0012630140336433,-0.013611015822348,-0.034875569002498,5.4585048691665,nan,False,live,nan
03/26/2024-14:40:15.800326 -- 800896,0.3,0.0,0.0,1.0,0.0,0,1.3862651219841902,-1.06634864110497,217,9528.1277955272,-0.058149313309826,0.034421410142673,-0.069938473023351,5.5284433421899,nan,False,live,nan
03/26/2024-14:40:15.831927 -- 800935,0.3,0.0,0.0,1.0,0.0,0,1.44109297501698,-1.23223546782939,219,9482.0207207207,-0.041159520963306,-0.029005075486152,0.21611184557436,5.2185271269183,nan,False,live,nan
03/26/2024-14:40:15.865103 -- 800984,0.3,0.0,0.0,1.0,0.0,0,1.50916878117591,-1.44596954839851,221,9123.8798758865,-0.0045003924923388,-0.03255298730595,0.19607468308091,4.8347361777381,nan,False,live,nan
03/26/2024-14:40:15.899152 -- 800984,0.3,0.0,0.0,1.0,0.0,0,1.2865370260770301,-1.46068790383359,223,9295.2493461203,0.0087370208083856,0.0045424543494583,-0.061243325031412,4.8350758801378,nan,False,live,nan
03/26/2024-14:40:15.938104 -- 800980,0.3,0.0,0.0,1.0,0.0,0,1.1270588369966401,-1.2991751753192702,225,8484.722875817,0.040115680294315,0.03604156105332,0.012475972151393,4.8674341667229,nan,False,live,nan
03/26/2024-14:40:15.966227 -- 801020,0.3,0.0,0.0,1.0,0.0,0,0.70162636794474,-1.45886500802352,227,8332.981271777,0.057461160877041,-0.022041726272556,0.17121088316468,4.5545883120354,nan,False,live,nan
03/26/2024-14:40:15.999841 -- 801043,0.3,0.0,0.0,1.0,0.0,0,0.58571643815064,-1.42146983541534,229,7695.8898083624,0.015671148150028,0.041014458575357,0.011359672849886,4.36926718043,nan,False,live,nan
03/26/2024-14:40:16.034639 -- 801023,0.3,0.0,0.0,1.0,0.0,0,0.52253541300867,-1.42380956264085,231,7715.9337979094,-0.0059130012915703,-0.029874203737549,-0.034904323726368,4.5270167917628,nan,False,live,nan
03/26/2024-14:40:16.067290 -- 801024,0.3,0.0,0.0,1.0,0.0,0,0.29020090274946597,-1.5038004895766701,233,8059.6528745645,0.062881062640718,0.018965022285991,-0.013149061577739,4.522996134877,nan,False,live,nan
03/26/2024-14:40:16.100000 -- 801043,0.3,0.0,0.0,1.0,0.0,0,0.160572619762107,-1.50027586635603,235,7464.8318815331,0.021402598156928,-0.012151080083611,0.087558473085284,4.370688832177,nan,False,live,nan
03/26/2024-14:40:16.133263 -- 801038,0.3,0.0,0.0,1.0,0.0,0,-0.0272539284760449,-1.56851468857926,237,7663.9459930314,0.033498817441768,-0.0048444238639014,-0.027224706869845,4.4132532592646,nan,False,live,nan
03/26/2024-14:40:16.168061 -- 801028,0.3,0.0,0.0,1.0,0.0,0,-0.4000591967403,-1.66151192840934,239,7691.0863121186,0.043919426152057,0.0094028025033083,-0.033723988138994,4.4876944855165,nan,False,live,nan
03/26/2024-14:40:16.200717 -- 801024,0.3,0.0,0.0,1.0,0.0,0,-0.33367405476486,-1.5890973237255601,241,7284.4486062718,-0.028947167750253,0.0033954724244309,-0.0037737400265887,4.5214824814404,nan,False,live,nan
03/26/2024-14:40:16.233728 -- 801024,0.3,0.0,0.0,1.0,0.0,0,-0.52745747490615,-1.6152390766202998,243,7317.9930313589,0.041828659869737,0.0176192267422,-0.024544636784406,4.5160623516612,nan,False,live,nan
03/26/2024-14:40:16.269068 -- 801014,0.3,0.0,0.0,1.0,0.0,0,-0.48551748869862,-1.45113785673954,245,7088.1306620209,0.0068328753578104,0.015751283078049,-0.028059732468955,4.5982019163514,nan,False,live,nan
03/26/2024-14:40:16.299306 -- 801016,0.3,0.0,0.0,1.0,0.0,0,-0.61591097309526,-1.4468480541267001,247,7443.1825708061,0.0081071521492457,0.015487228849059,0.012105506355066,4.5799898604159,nan,False,live,nan
03/26/2024-14:40:16.334621 -- 801021,0.3,0.0,0.0,1.0,0.0,0,-0.65541618062679,-1.46643923546634,249,7065.5581699346,0.013187438926103,-0.0084275514327284,0.031759925147118,4.5429285065434,nan,False,live,nan
03/26/2024-14:40:16.368257 -- 801025,0.3,0.0,0.0,1.0,0.0,0,-1.0840670963402101,-1.61896172458185,251,7933.5183406114,0.082530764088541,-0.019345966595972,0.003310965220848,4.5088478960159,nan,False,live,nan
03/26/2024-14:40:16.401007 -- 801027,0.3,0.0,0.0,1.0,0.0,0,-1.3763816676565201,-1.43325500642745,253,8294.9777486911,0.028453947801518,0.032662438893542,-0.0034748537442791,4.498183650268,nan,False,live,nan
03/26/2024-14:40:16.434243 -- 801033,0.3,0.0,0.0,1.0,0.0,0,-1.5834398510427599,-1.63260890209422,255,7782.6011383538,0.049406606601771,-0.030739196282503,0.016090260761824,4.4480171312858,nan,False,live,nan
03/26/2024-14:40:16.464751 -- 801018,0.3,0.0,0.0,1.0,0.0,0,-1.6110879803512201,-1.65957876048402,257,7687.1980760822,0.0098547539247468,0.0054383992812585,-0.066309322528995,4.569377110655,nan,False,live,nan
03/26/2024-14:40:16.484224 -- 801017,0.3,0.0,0.0,1.0,0.0,0,-1.6887506576764801,-1.71031163654475,258,7591.365023986,0.027993904666999,-0.013133555584943,-0.0060570029583063,4.5754341136133,nan,False,live,nan
03/26/2024-14:40:16.515221 -- 801032,0.3,0.0,0.0,1.0,0.0,0,-1.8899758418776802,-1.7852376242549401,260,8281.3149847095,0.03755256120333,0.0023952134630139,0.041772227224446,4.4610345694419,nan,False,live,nan
03/26/2024-14:40:16.551214 -- 801046,0.3,0.0,0.0,1.0,0.0,0,-2.02557159914781,-1.8053275082394,262,8262.2455298735,0.018466421141619,-0.0047816473356668,0.055542765900744,4.3510048366986,nan,False,live,nan
03/26/2024-14:40:16.582259 -- 801055,0.3,0.0,0.0,1.0,0.0,0,-2.0327242645249797,-1.80590635002816,264,8112.6621621622,0.029635951320398,-0.0089787193355679,0.022228962221415,4.2783694840272,nan,False,live,nan
03/26/2024-14:40:16.616457 -- 801046,0.3,0.0,0.0,1.0,0.0,0,-2.2835695957042796,-1.76721950641602,266,8870.4795117698,0.034925917307745,0.031706972046994,-0.076180053819128,4.3489660274396,nan,False,live,nan
03/26/2024-14:40:16.648372 -- 801029,0.3,0.0,0.0,1.0,0.0,0,-2.45215036720596,-1.63146580384068,268,7735.2663469922,0.01988349642381,0.020384006084248,-0.013372742064567,4.479740821391,nan,False,live,nan
03/26/2024-14:40:16.672131 -- 801033,0.3,0.0,0.0,1.0,0.0,0,-2.58775172015475,-1.7557075551864298,269,8003.6406794425,0.053934411177909,-0.029146019495496,0.027239435495394,4.4525013858956,nan,False,live,nan
03/26/2024-14:40:16.698983 -- 801019,0.3,0.0,0.0,1.0,0.0,0,-2.72849067976995,-1.71768926996691,271,8106.862745098,0.013478799419071,0.013136207632182,-0.093547194681134,4.5565920119055,nan,False,live,nan
03/26/2024-14:40:16.733942 -- 801004,0.3,0.0,0.0,1.0,0.0,0,-2.9942909732235,-1.7267689234551598,273,7672.6977351916,0.036710714904438,-0.0077805932762711,-0.043212275205452,4.6771183400867,nan,False,live,nan
03/26/2024-14:40:16.763835 -- 801012,0.3,0.0,0.0,1.0,0.0,0,-3.1290505842003,-1.7949349516825799,275,8404.0017421603,0.026784289640727,-0.016774757831277,0.022653991251041,4.6130626549278,nan,False,live,nan
03/26/2024-14:40:16.797951 -- 801002,0.3,0.0,0.0,1.0,0.0,0,-3.4002184601567995,-1.8196699350876302,277,8601.4708188153,0.020996961758619,-0.0014264190726896,-0.030640871096077,4.6942834654008,nan,False,live,nan
03/26/2024-14:40:16.832578 -- 800996,0.3,0.0,0.0,1.0,0.0,0,-3.7396106090577,-1.67665377074637,279,8188.7577342048,0.10365433185445,0.045232991853963,-0.023391609167563,4.7412743087183,nan,False,live,nan
03/26/2024-14:40:16.864527 -- 800999,0.3,0.0,0.0,1.0,0.0,0,-3.8536180282623,-1.8442456909576501,281,8711.8070557491,0.024558163019024,-0.030213573206038,-0.0083658619678809,4.7183460956698,nan,False,live,nan
03/26/2024-14:40:16.897856 -- 800998,0.3,0.0,0.0,1.0,0.0,0,-4.0591674450254995,-1.8613039087119598,283,8931.7317073171,-0.0025615704895911,-0.029751516286751,0.015436843466988,4.7203575355375,nan,False,live,nan
03/26/2024-14:40:16.932267 -- 801002,0.3,0.0,0.0,1.0,0.0,0,-4.2829834032246,-1.67273981627655,285,8927.2081881533,0.00032126513991858,0.034267789740212,0.042773133223959,4.6929052422448,nan,False,live,nan
03/26/2024-14:40:16.967185 -- 801012,0.3,0.0,0.0,1.0,0.0,0,-4.7724460466625,-1.86639300720132,287,9837.3619337979,0.14071463457633,-0.015310989668522,-0.013267914128115,4.6124525304952,nan,False,live,nan
03/26/2024-14:40:17.000231 -- 800993,0.3,0.0,0.0,1.0,0.0,0,-4.9437148585122,-1.81468269049947,289,9155.9451219512,0.03143220704393,0.043030660398018,-0.1288140133533,4.7666450156629,nan,False,live,nan
03/26/2024-14:40:17.031753 -- 800986,0.3,0.0,0.0,1.0,0.0,0,-5.0792328017685,-1.8290220513928501,291,8418.1459694989,-0.0057392749925149,-0.029901620150424,0.016346868825729,4.8182483966645,nan,False,live,nan
03/26/2024-14:40:17.066529 -- 800994,0.3,0.0,0.0,1.0,0.0,0,-5.202977932224,-1.8621855739941,293,8873.9834422658,-0.012553285290982,-0.03057267214826,0.04311561772639,4.7558968579105,nan,False,live,nan
03/26/2024-14:40:17.098833 -- 800984,0.3,0.0,0.0,1.0,0.0,0,-5.5119212784522,-1.8953308832733602,295,9271.2797723292,0.040659677831326,-0.0080162943291897,-0.018365711509039,4.8367725250529,nan,False,live,nan
03/26/2024-14:40:17.133143 -- 800989,0.3,0.0,0.0,1.0,0.0,0,-5.7626535909207,-1.88239082995173,297,9441.763238512,0.059591451458972,-0.0030010122732701,0.026207919891302,4.7928319977506,nan,False,live,nan
03/26/2024-14:40:17.167899 -- 800982,0.3,0.0,0.0,1.0,0.0,0,-5.7727276907352,-1.86289349510109,299,8828.5420149582,0.038422355240094,0.042729323620475,-0.1016700622491,4.8529012854857,nan,False,live,nan
03/26/2024-14:40:17.199545 -- 800950,0.3,0.0,0.0,1.0,0.0,0,-5.772454396725,-1.78154760854574,301,9019.4040816327,0.013240894244686,0.0084431130866876,-0.15271784507746,5.0989900086771,nan,False,live,nan
03/26/2024-14:40:17.232726 -- 800940,0.3,0.0,0.0,1.0,0.0,0,-5.7797185499955,-1.62713745795,303,9120.3615520282,0.011269751156187,-0.001786660507935,0.011694913921476,5.1807880591083,nan,False,live,nan
03/26/2024-14:40:17.265719 -- 800950,0.3,0.0,0.0,1.0,0.0,0,-5.8563781437549,-1.56192168132471,305,9385.1841637011,-0.013881339311711,-0.027513885344553,0.034186403179763,5.1031657933059,nan,False,live,nan
03/26/2024-14:40:17.298314 -- 800942,0.3,0.0,0.0,1.0,0.0,0,-6.1276903381788,-1.58764378593375,307,9185.0490066225,0.014998470232995,-0.026208475174458,-0.041650117927828,5.160478719544,nan,False,live,nan
03/26/2024-14:40:17.332236 -- 800942,0.3,0.0,0.0,1.0,0.0,0,-6.223840686766501,-1.4648666188419899,309,8758.6271561256,0.036677144900041,0.0075602131867453,0.060047682043316,5.1650234267198,nan,False,live,nan
03/26/2024-14:40:17.364221 -- 800970,0.3,0.0,0.0,1.0,0.0,0,-6.4882782210243,-1.31926706501001,311,10402.14790287,0.060212403371455,0.014632407665956,0.10893973936305,4.9459811564082,nan,False,live,nan
03/26/2024-14:40:17.397988 -- 800961,0.3,0.0,0.0,1.0,0.0,0,-6.7005310203714,-0.98860649794977,313,10322.493693694,0.036976006627601,0.042783051557514,-0.035198580174641,5.0110075161291,nan,False,live,nan
03/26/2024-14:40:17.432888 -- 800932,0.3,0.0,0.0,1.0,0.0,0,-6.7043965030227,-0.92431073574582,315,9765.7053979872,0.0023256237345015,0.042756666323107,-0.12048909116971,5.2419797593957,nan,False,live,nan
03/26/2024-14:40:17.463173 -- 800931,0.3,0.0,0.0,1.0,0.0,0,-6.8154578294142,-0.67169356486341,317,9710.1398344066,0.073629018306526,0.061752786791284,-0.012862911548207,5.2536303002964,nan,False,live,nan
03/26/2024-14:40:17.482323 -- 800940,0.3,0.0,0.0,1.0,0.0,0,-7.0785619004913,-0.44476237667264995,318,11049.345615672,0.11339638711098,0.023663739566027,0.070511126416027,5.1831191738804,nan,False,live,nan
03/26/2024-14:40:17.517286 -- 800954,0.3,0.0,0.0,1.0,0.0,0,-7.2102355158165,-0.3578408894544,320,10283.657104437,0.032555248147252,0.0094934090685814,0.056084376882414,5.066619466753,nan,False,live,nan
03/26/2024-14:40:17.549975 -- 800944,0.3,0.0,0.0,1.0,0.0,0,-7.311859145941799,-0.41393741302956,322,10186.274336283,0.0013606097745692,0.0032102490124439,-0.068401693085507,5.1502180094859,nan,False,live,nan
03/26/2024-14:40:17.582457 -- 800947,0.3,0.0,0.0,1.0,0.0,0,-7.410563255409599,-0.34104233383707,324,9717.6046923417,0.023021432076546,0.017984609469208,0.025063989005493,5.1222765795047,nan,False,live,nan
03/26/2024-14:40:17.613223 -- 800963,0.3,0.0,0.0,1.0,0.0,0,-7.4634633984735,-0.45230241356394,326,9879.0955721175,0.0058978286324569,-0.013179837605228,0.053541119279784,4.9953983976674,nan,False,live,nan
03/26/2024-14:40:17.631587 -- 800968,0.3,0.0,0.0,1.0,0.0,0,-7.4556260765064,-0.45626945133659996,327,10265.758846658,-0.0028673095296969,-0.00059407177293026,0.037466492660364,4.9579319050071,nan,False,live,nan
03/26/2024-14:40:17.663496 -- 800959,0.3,0.0,0.0,1.0,0.0,0,-7.468685852158501,-0.45731621501964004,329,9876.8071553229,0.0048822732487266,-0.0049097372103493,-0.043296129225745,5.0342949101019,nan,False,live,nan
03/26/2024-14:40:17.698292 -- 800949,0.3,0.0,0.0,1.0,0.0,0,-7.451845296984,-0.44004853048902004,331,9468.539031836,0.0041792340761225,0.0070921526719077,-0.025285703006482,5.1079672734153,nan,False,live,nan
03/26/2024-14:40:17.732884 -- 800950,0.3,0.0,0.0,1.0,0.0,0,-7.3521562715574,-0.299406445579059,333,9954.5100524476,0.018241424550131,0.035055857114276,0.0080278061387053,5.1017012779287,nan,False,live,nan
03/26/2024-14:40:17.765859 -- 800922,0.3,0.0,0.0,1.0,0.0,0,-7.251821776233,-0.124854990418653,335,9765.335443038,0.022080582301185,0.053871393821863,-0.13940636884353,5.3185983006917,nan,False,live,nan
03/26/2024-14:40:17.797011 -- 800879,0.3,0.0,0.0,1.0,0.0,0,-7.1630902329357005,0.0074775654077535,337,8453.7645083933,0.0055492310983838,0.03482772028977,-0.14774940087438,5.6612461786269,nan,False,live,nan
03/26/2024-14:40:17.815764 -- 800882,0.3,0.0,0.0,1.0,0.0,0,-7.170715559185499,-0.0232644836742666,338,8736.8804143126,-0.0067465535797925,-0.0081214707714213,0.02507269429468,5.6361734843322,nan,False,live,nan
03/26/2024-14:40:17.849633 -- 800903,0.3,0.0,0.0,1.0,0.0,0,-7.0609706203137,0.042225643613076,340,8674.5101321586,0.010254220050712,0.052374241882107,0.096358521930169,5.4703477181687,nan,False,live,nan
03/26/2024-14:40:17.882175 -- 800898,0.3,0.0,0.0,1.0,0.0,0,-7.040679162290999,0.191159660436306,342,8772.7421494914,0.0022300917325459,-0.0027266661482718,-0.093547650439272,5.5080335424734,nan,False,live,nan
03/26/2024-14:40:17.919242 -- 800883,0.3,0.0,0.0,1.0,0.0,0,-7.2463810212456,0.38325120452826,344,8253.8310749774,0.054807252624227,-0.0062990225785836,-0.025389669723839,5.6240987142862,nan,False,live,nan
03/26/2024-14:40:17.948955 -- 800907,0.3,0.0,0.0,1.0,0.0,0,-7.3659581581335,0.43242723707757,346,8331.2151730257,0.027844418501624,-0.0040927436300208,0.085326231411129,5.4386956935409,nan,False,live,nan
03/26/2024-14:40:17.982055 -- 800905,0.3,0.0,0.0,1.0,0.0,0,-7.477891166501999,0.4585078891548,348,8988.0498236332,0.023702813737995,-0.020691363472134,-0.046107215669643,5.4536251796989,nan,False,live,nan
03/26/2024-14:40:18.014879 -- 800904,0.3,0.0,0.0,1.0,0.0,0,-7.4751654420102,0.47238430278002996,350,8805.7329842932,-0.007755593000759,0.022995014086304,0.03847954395556,5.4589726028918,nan,False,live,nan
03/26/2024-14:40:18.035178 -- 800907,0.3,0.0,0.0,1.0,0.0,0,-7.4715230461725,0.4815055378821,351,9201.3682830931,0.0011412612318983,0.0030685693534929,0.021172754903575,5.4377998479882,nan,False,live,nan
03/26/2024-14:40:18.067321 -- 800878,0.3,0.0,0.0,1.0,0.0,0,-7.475352578414101,0.55427419116354,353,8263.7152466368,-0.033117516556246,0.011595291342311,-0.16970344298879,5.6663929147725,nan,False,live,nan
03/26/2024-14:40:18.100708 -- 800872,0.3,0.0,0.0,1.0,0.0,0,-7.4070580164516,0.41674562074454996,355,8459.6065719361,-0.022822072329634,-0.019894302244204,0.043609997056903,5.7126228468447,nan,False,live,nan
03/26/2024-14:40:18.133144 -- 800879,0.3,0.0,0.0,1.0,0.0,0,-7.175794714062899,0.5205970097352,357,8211.3633567663,-0.025134819544026,0.037298273601964,-0.0041691307623663,5.6616762517903,nan,False,live,nan
03/26/2024-14:40:18.165898 -- 800842,0.3,0.0,0.0,1.0,0.0,0,-7.1311924049682,0.62601382542825,359,8523.079797048,0.03073024924808,-0.0058644887380385,-0.14291752997698,5.9497482696988,nan,False,live,nan
03/26/2024-14:40:18.198250 -- 800868,0.3,0.0,0.0,1.0,0.0,0,-7.047144814089299,0.74136717997143,361,7575.9146126761,0.0090767450949581,-0.0062830979529274,0.21766112065235,5.7432245779695,nan,False,live,nan
03/26/2024-14:40:18.235001 -- 800906,0.3,0.0,0.0,1.0,0.0,0,-7.0267448860467,0.5933689260971999,363,7622.9637712789,-0.0525504828635,-0.020363703844772,0.049220255732904,5.446587347864,nan,False,live,nan
03/26/2024-14:40:18.266101 -- 800867,0.3,0.0,0.0,1.0,0.0,0,-6.9847282594089,0.6512972041798799,365,7695.7821131083,-0.0030076342959455,0.0078111015643027,-0.14849342782434,5.7539846565257,nan,False,live,nan
03/26/2024-14:40:18.302143 -- 800856,0.3,0.0,0.0,1.0,0.0,0,-6.8312262733398,0.220735486581384,367,7555.018061674,-0.068666807521315,-0.011931464943436,0.024478230039313,5.8414532500641,nan,False,live,nan
03/26/2024-14:40:18.330304 -- 800889,0.3,0.0,0.0,1.0,0.0,0,-6.741054973828799,0.088028766162822,369,7256.8256320837,-0.054738449949946,-0.0040967321206053,0.12519264051542,5.5837817344342,nan,False,live,nan
03/26/2024-14:40:18.348889 -- 800911,0.3,0.0,0.0,1.0,0.0,0,-6.7948963218708,0.011760452062851898,370,8125.1451612903,-0.0052675172733285,-0.030707540422979,0.17360439352574,5.4101773409085,nan,False,live,nan
03/26/2024-14:40:18.382945 -- 800949,0.3,0.0,0.0,1.0,0.0,0,-6.6531756047376005,-0.031737299553095996,372,7844.0818815331,-0.01627294696501,0.0024676311538362,0.15996474378273,5.1128693254456,nan,False,live,nan
03/26/2024-14:40:18.415253 -- 800966,0.3,0.0,0.0,1.0,0.0,0,-6.5285328855288,-0.16062614165842198,374,8099.4387799564,-0.042463658385896,0.0043730933499789,0.037027984003657,4.972469973751,nan,False,live,nan
03/26/2024-14:40:18.451534 -- 800976,0.3,0.0,0.0,1.0,0.0,0,-6.3362937013323,-0.25387730444498097,376,8067.3815961622,-0.042969066643277,-0.0089449820198063,0.023974337106432,4.9005183100262,nan,False,live,nan
03/26/2024-14:40:18.481764 -- 801008,0.3,0.0,0.0,1.0,0.0,0,-6.0810489480653995,-0.46526772030255004,378,9080.8217864924,-0.051843490660173,-0.022774642178188,0.14176128359055,4.6447271960902,nan,False,live,nan
03/26/2024-14:40:18.517443 -- 801053,0.3,0.0,0.0,1.0,0.0,0,-5.9924811092766,-0.44007118008972,380,10078.467945922,-0.037510364998693,0.012015586509598,0.19033723663996,4.2949110324801,nan,False,live,nan
03/26/2024-14:40:18.551492 -- 801081,0.3,0.0,0.0,1.0,0.0,0,-5.7780728797431005,-0.47214293318588996,382,9624.7411764706,-0.028866487657991,-0.027557202287095,0.090058822578786,4.0727639666004,nan,False,live,nan
03/26/2024-14:40:18.583008 -- 801095,0.3,0.0,0.0,1.0,0.0,0,-5.503214239023601,-0.23569860927051,384,9242.9259259259,-0.032186022572665,-0.024708901877652,0.046043577829919,3.9620185488884,nan,False,live,nan
03/26/2024-14:40:18.616396 -- 801100,0.3,0.0,0.0,1.0,0.0,0,-5.2038092681957995,-0.31417279974237,386,8871.3634380454,-0.032075948853586,-0.035534169551484,0.083682281562023,3.8582505307656,nan,False,live,nan
03/26/2024-14:40:18.646832 -- 801100,0.3,0.0,0.0,1.0,0.0,0,-5.1300963239814,-0.183209737957404,388,10246.663616558,-0.019005298060234,0.022664878691198,0.066657837298631,3.7301994927581,nan,False,live,nan
03/26/2024-14:40:18.665992 -- 801100,0.3,0.0,0.0,1.0,0.0,0,-5.0106280496268,-0.222153660498081,389,9552.6473408893,-0.010159650327289,-0.040639806945996,0.05703950151755,3.6731599912406,nan,False,live,nan
03/26/2024-14:40:18.698710 -- 801100,0.3,0.0,0.0,1.0,0.0,0,-5.0639001093408,-0.18766502054123702,391,10013.110239651,-0.00086416185096838,0.0070208938495555,0.0035446694590431,3.6717709938151,nan,False,live,nan
03/26/2024-14:40:18.717845 -- 801100,0.3,0.0,0.0,1.0,0.0,0,-4.9770080606819995,-0.156301973203131,392,9592.8917975567,-0.023794082534065,-0.019546403858577,-0.013050313029936,3.684821306845,nan,False,live,nan
03/26/2024-14:40:18.750097 -- 801100,0.3,0.0,0.0,1.0,0.0,0,-4.8475601717240995,-0.148034430918186,394,9303.8814298169,-0.012228201581344,-0.0085091067773509,-0.011259727924248,3.6835799314178,nan,False,live,nan
03/26/2024-14:40:18.781307 -- 801100,0.3,0.0,0.0,1.0,0.0,0,-4.8035536327437,-0.099350592770952,396,9455.8546486251,-0.007127527171546,-0.0021262993141465,-0.0065265788283596,3.6715232840593,nan,False,live,nan
03/26/2024-14:40:18.801356 -- 801100,0.3,0.0,0.0,1.0,0.0,0,-4.8265066536555,-0.075996166139883,397,9332.651416122,-0.0027681013319886,0.010558456354226,-0.015473651035197,3.6869969350945,nan,False,live,nan
03/26/2024-14:40:18.834500 -- 801100,0.3,0.0,0.0,1.0,0.0,0,-4.8020716472649,-0.076480060483143,399,9167.5041394336,-0.0054345891494123,-0.011177996107574,-0.03120875471945,3.726571820783,nan,False,live,nan
03/26/2024-14:40:18.868459 -- 801100,0.3,0.0,0.0,1.0,0.0,0,-4.8145205875038,-0.075297580637493,401,8910.256432621,0.0083576997547628,0.019559614912072,-0.031073867171818,3.7744647674864,nan,False,live,nan
03/26/2024-14:40:18.901048 -- 801100,0.3,0.0,0.0,1.0,0.0,0,-4.7335631118323995,-0.070519494102345,403,9620.2880174292,-0.022361898884735,-0.010729007151266,0.011277100329773,3.7787890154472,nan,False,live,nan
03/26/2024-14:40:18.932520 -- 801100,0.3,0.0,0.0,1.0,0.0,0,-4.7073487725597,0.06417182759519101,405,9067.1802706242,-0.036567654036713,-0.00019024446989977,0.067415195195123,3.6892778985168,nan,False,live,nan
03/26/2024-14:40:18.952135 -- 801100,0.3,0.0,0.0,1.0,0.0,0,-4.6276392100788,0.32737832859681004,406,8297.8556476232,-0.08904045934225,0.021811530106568,0.026786365749395,3.6624915327674,nan,False,live,nan
03/26/2024-14:40:18.984571 -- 801100,0.3,0.0,0.0,1.0,0.0,0,-4.556502856902,0.216541779720147,408,8609.8364587876,0.064032990718939,-0.035162496179651,0.0032786471401541,3.6304078346257,nan,False,live,nan
03/26/2024-14:40:19.016600 -- 801100,0.3,0.0,0.0,1.0,0.0,0,-4.5024933735459,0.36161145122523,410,8810.4499781564,-0.050445885558362,0.0036224771790382,0.01015177529367,3.6340204002224,nan,False,live,nan
03/26/2024-14:40:19.050783 -- 801100,0.3,0.0,0.0,1.0,0.0,0,-4.4424583587651,0.40053250462989004,412,8140.5065387969,-0.040383930795241,-0.0034986129558273,0.08740304139868,3.5078837004879,nan,False,live,nan
03/26/2024-14:40:19.081418 -- 801100,0.3,0.0,0.0,1.0,0.0,0,-4.3642536872529005,0.40244568761439004,414,9824.1709550807,0.0075030046756071,-0.010512877539517,0.13375371085124,3.2335685480464,nan,False,live,nan
03/26/2024-14:40:19.101100 -- 801100,0.3,0.0,0.0,1.0,0.0,0,-4.3084408721253,0.5614985180187599,415,9936.2493461203,-0.053912733583158,-0.015876146537477,0.081753115681928,3.1518154323645,nan,False,live,nan
03/26/2024-14:40:19.133117 -- 801300,0.3,0.0,0.0,1.0,0.0,0,-4.1992229453664,0.79364669330856,417,9615.4679179398,-0.022727983954709,-0.0061302565110775,0.00013668310548444,3.0914807044107,nan,False,live,nan
03/26/2024-14:40:19.167739 -- 801300,0.3,0.0,0.0,1.0,0.0,0,-4.1880505934355,0.8710667189468699,419,9508.1185701831,-0.00089975861292454,-0.00052968521338492,-0.00078584677173618,3.1089423448756,nan,False,live,nan
03/26/2024-14:40:19.201199 -- 801300,0.3,0.0,0.0,1.0,0.0,0,-4.243365706769399,0.77695824455802,421,9767.0174596246,0.025334280138514,-0.0010544609292418,0.0058358984164648,3.1204853863546,nan,False,live,nan
03/26/2024-14:40:19.234773 -- 801300,0.3,0.0,0.0,1.0,0.0,0,-4.3985953029669,0.83195611513989,423,9988.4007867133,-0.020415259333047,0.050960927167816,0.038841941614067,3.0816434447406,nan,False,live,nan
03/26/2024-14:40:19.266338 -- 801300,0.3,0.0,0.0,1.0,0.0,0,-4.3133668237278,0.8476151875870199,425,9744.7623416339,-0.015174971297456,-0.017248286171899,0.020193509722626,3.0487857121064,nan,False,live,nan
03/26/2024-14:40:19.298832 -- 801300,0.3,0.0,0.0,1.0,0.0,0,-4.355918064214199,1.03679515224948,427,8534.6338893766,-0.042874445076437,0.010531981486086,0.049223287768313,2.9816872759261,nan,False,live,nan
03/26/2024-14:40:19.331678 -- 801300,0.3,0.0,0.0,1.0,0.0,0,-4.2818804066547,1.12264596262839,429,9473.174517721,-0.011904099092824,-0.0082565152190128,0.1324990610304,2.7470277007523,nan,False,live,nan
03/26/2024-14:40:19.367567 -- 801300,0.3,0.0,0.0,1.0,0.0,0,-4.2730798381518,1.25787604849242,431,8727.7904977376,-0.012233665275385,-0.011840506172121,0.039311944995376,2.6041386214989,nan,False,live,nan
03/26/2024-14:40:19.401090 -- 801300,0.3,0.0,0.0,1.0,0.0,0,-4.317896177993401,1.30882972735917,433,8567.0017482517,0.00020419812282212,-0.0068760140798007,-0.0090489845077745,2.6451828063716,nan,False,live,nan
03/26/2024-14:40:19.433488 -- 801300,0.3,0.0,0.0,1.0,0.0,0,-4.3458016933371,1.42719705336759,435,8646.6163522013,-0.0020487466921846,-0.003976342117829,0.1092600671944,2.4749150502691,nan,False,live,nan
03/26/2024-14:40:19.465379 -- 801325,0.3,0.0,0.0,1.0,0.0,0,-4.3321655554029,1.63525659898722,437,9799.9056859206,-0.013056108839949,-0.034834751269534,0.17116641581858,2.158684920824,nan,False,live,nan
03/26/2024-14:40:19.484688 -- 801339,0.3,0.0,0.0,1.0,0.0,0,-4.2888974355582,1.6221628402273498,438,10002.154228856,0.014649906221592,-0.0035587650175422,0.11145192229449,2.0472329985295,nan,False,live,nan
03/26/2024-14:40:19.515489 -- 801343,0.3,0.0,0.0,1.0,0.0,0,-4.1630056292733,1.49412710691069,440,9922.3546255507,0.024171761758823,-0.0095577685034266,0.025923229773419,2.0109870913456,nan,False,live,nan
03/26/2024-14:40:19.551965 -- 801365,0.3,0.0,0.0,1.0,0.0,0,-3.9390360027339,1.58553100346076,442,9098.3378734622,0.02748577086733,-0.028201578653676,0.084409550723511,1.8432371394909,nan,False,live,nan
03/26/2024-14:40:19.583211 -- 801406,0.3,0.0,0.0,1.0,0.0,0,-3.9522144532032,1.53652111091301,444,10381.299472296,-0.002526758620034,0.013518949314947,0.17342936483929,1.5160288674742,nan,False,live,nan
03/26/2024-14:40:19.616634 -- 801429,0.3,0.0,0.0,1.0,0.0,0,-3.9523670938026,1.5825008695843201,446,10081.812200436,-0.011917638260802,-0.015419152459171,0.07054849666929,1.3397062468354,nan,False,live,nan
03/26/2024-14:40:19.635850 -- 801427,0.3,0.0,0.0,1.0,0.0,0,-3.8231683548918003,1.5590650685763903,447,9706.045751634,0.040288629836442,0.017105639137651,-0.018039571670742,1.3577458185061,nan,False,live,nan
03/26/2024-14:40:19.667257 -- 801432,0.3,0.0,0.0,1.0,0.0,0,-3.4296456943719003,1.55277827189424,449,9532.4547038328,0.11690181489901,-0.0069724304549159,0.06802525143126,1.3174045197204,nan,False,live,nan
03/26/2024-14:40:19.700307 -- 801502,0.3,0.0,0.0,1.0,0.0,0,-3.3719623002414,1.66161896741937,451,10306.851916376,-0.025549597385544,-0.010354347908446,0.30274673223042,0.76728702026787,nan,False,live,nan
03/26/2024-14:40:19.734901 -- 801522,0.3,0.0,0.0,1.0,0.0,0,-3.2853784068441,1.66559506177689,453,10394.307926829,0.044938399003122,0.0033891582465135,0.0013899579332035,0.60852432157778,nan,False,live,nan
03/26/2024-14:40:19.768066 -- 801500,0.3,0.0,0.0,1.0,0.0,0,-3.146026428144,1.78604188164747,455,9788.9782229965,0.02594628091857,0.018219144255713,-0.050290848740249,0.78205946419119,nan,False,live,nan
03/26/2024-14:40:19.799486 -- 801533,0.3,0.0,0.0,1.0,0.0,0,-2.9805399995736,1.89307867427154,457,9889.1363240418,0.029158410126817,0.011580945589065,0.20501078777673,0.52389218179664,nan,False,live,nan
03/26/2024-14:40:19.833612 -- 801560,0.3,0.0,0.0,1.0,0.0,0,-3.0847580331177,1.84932116543841,459,9980.799825556,0.0045309846745272,0.0030530221435892,0.049538371179369,0.30788010185919,nan,False,live,nan
03/26/2024-14:40:19.864564 -- 801561,0.3,0.0,0.0,1.0,0.0,0,-3.0695398740651,2.1161247950868303,461,9666.6470588235,0.037488126831405,-0.030356020519273,0.04167852058877,0.30553496367089,nan,False,live,nan
03/26/2024-14:40:19.900070 -- 801564,0.3,0.0,0.0,1.0,0.0,0,-3.0040977534569997,2.34418447470234,463,9240.5945945946,0.066848030450909,0.013099905946533,-0.0048769922659613,0.27606187434655,nan,False,live,nan
03/26/2024-14:40:19.931741 -- 801598,0.3,0.0,0.0,1.0,0.0,0,-3.2460815360289,2.49722581000701,465,8637.0492804187,-0.014869509044654,-0.049096304004929,0.20109450964996,0.011357558383901,nan,False,live,nan
03/26/2024-14:40:19.967683 -- 801625,0.3,0.0,0.0,1.0,0.0,0,-3.1119969925401,2.59784953292787,467,8428.1606285465,0.03649748206245,0.041891361022683,0.057665314129328,6.0862975093422,nan,False,live,nan
03/26/2024-14:40:20.000112 -- 801633,0.3,0.0,0.0,1.0,0.0,0,-3.2850989102778003,2.77609388565081,469,7627.2216898955,0.020252347012458,-0.010970591136655,0.006218635357441,6.018553618322,nan,False,live,nan
03/26/2024-14:40:20.031844 -- 801628,0.3,0.0,0.0,1.0,0.0,0,-3.0953267578943997,2.99187907406046,471,8255.4420226678,0.0179279220403,0.040997788255665,0.012201400529586,6.0571142665389,nan,False,live,nan
03/26/2024-14:40:20.065501 -- 801675,0.3,0.0,0.0,1.0,0.0,0,-3.325742548938,2.8648807335606,473,5975.7959005669,0.00070223428587922,-0.070477925682417,0.21091141962019,5.6889247200245,nan,False,live,nan
03/26/2024-14:40:20.099998 -- 801703,0.3,0.0,0.0,1.0,0.0,0,-3.2682307763423997,2.78402997325767,475,5910.7009590235,-0.014854307045954,0.0068737408837161,0.046291606318547,5.4683590654568,nan,False,live,nan
03/26/2024-14:40:20.131842 -- 801692,0.3,0.0,0.0,1.0,0.0,0,-3.3833617991205003,2.84031830582082,477,6051.2621020497,0.017067628771489,-0.01092144376064,-0.04044521434798,5.5591867905556,nan,False,live,nan
03/26/2024-14:40:20.165315 -- 801705,0.3,0.0,0.0,1.0,0.0,0,-3.690838317651,2.95389860087772,479,5944.8643106457,0.043889655344666,-0.024858316423051,0.10366759726549,5.4554731389215,nan,False,live,nan
03/26/2024-14:40:20.200047 -- 801755,0.3,0.0,0.0,1.0,0.0,0,-3.8997000904008,2.97287315129007,481,5518.8230936819,0.025338822519844,-0.0047090638334953,0.16794728693069,5.0587234626256,nan,False,live,nan
03/26/2024-14:40:20.234606 -- 801752,0.3,0.0,0.0,1.0,0.0,0,-3.8516106928233,3.041090334402,483,5915.3587619878,0.0065436109898252,0.0098634565898283,-0.064360866274966,5.0834869384961,nan,False,live,nan
03/26/2024-14:40:20.267027 -- 801741,0.3,0.0,0.0,1.0,0.0,0,-4.1689655296464005,3.1169582068296,485,5821.2532751092,0.049229797870529,-0.0067271023243243,-0.028340741868364,5.1722637064167,nan,False,live,nan
03/26/2024-14:40:20.297807 -- 801749,0.3,0.0,0.0,1.0,0.0,0,-4.2694792030398006,3.1172379060741,487,5968.5233115468,0.026012498927304,-0.0075253535906165,0.057711375121408,5.1059024500446,nan,False,live,nan
03/26/2024-14:40:20.335905 -- 801753,0.3,0.0,0.0,1.0,0.0,0,-4.3801762654911,3.1158000578964002,489,6417.797904845,0.011307987570194,-0.0022025884338476,-0.014638983105582,5.0788932714537,nan,False,live,nan
03/26/2024-14:40:20.365172 -- 801747,0.3,0.0,0.0,1.0,0.0,0,-4.6151606881734,3.0951972185841,491,6679.1130510694,0.034629736641176,-0.010812498241231,-0.0064227577933322,5.1208001274851,nan,False,live,nan
03/26/2024-14:40:20.401269 -- 801751,0.3,0.0,0.0,1.0,0.0,0,-4.6866293005431,3.1648385012841,493,6511.0257867133,-0.00035324689972307,0.021525656744778,0.029883017101656,5.0928626065481,nan,False,live,nan
03/26/2024-14:40:20.433975 -- 801765,0.3,0.0,0.0,1.0,0.0,0,-5.120222406369,3.2183975866061996,495,6823.0004359198,0.054346895240227,-0.059743129761657,0.049135081721806,4.9805089428047,nan,False,live,nan
03/26/2024-14:40:20.467335 -- 801762,0.3,0.0,0.0,1.0,0.0,0,-5.4300779801712,3.2450028296013,497,6683.4096069869,0.088628748358126,0.022447773991574,-0.052136077894489,5.0049825494032,nan,False,live,nan
03/26/2024-14:40:20.500995 -- 801758,0.3,0.0,0.0,1.0,0.0,0,-5.5222826201979,3.4118865433938,499,6926.8930131004,0.019145928056769,0.0034572527351467,0.017956690802441,5.0363230362844,nan,False,live,nan
03/26/2024-14:40:20.534790 -- 801756,0.3,0.0,0.0,1.0,0.0,0,-5.7234715916078995,3.3390791680364997,501,6097.1059747056,0.029260073048296,-0.027484697774934,-0.024028328667033,5.0533227647667,nan,False,live,nan
03/26/2024-14:40:20.567096 -- 801747,0.3,0.0,0.0,1.0,0.0,0,-5.7984303350034,3.3692898191114997,503,6547.4186655037,0.027571206871397,0.0033987352868922,-0.055884535578098,5.1266525396776,nan,False,live,nan
03/26/2024-14:40:20.601876 -- 801743,0.3,0.0,0.0,1.0,0.0,0,-6.083143435524601,3.6902453069015997,505,7178.6711731356,0.073285064712834,0.039134684649399,0.0086003249569229,5.1562403357884,nan,False,live,nan
03/26/2024-14:40:20.634945 -- 801739,0.3,0.0,0.0,1.0,0.0,0,-6.096053286098099,3.7704452550516,507,6965.8534031414,-2.1625379384072e-06,0.0049120192478615,-0.020916194506167,5.188523893042,nan,False,live,nan
03/26/2024-14:40:20.668010 -- 801724,0.3,0.0,0.0,1.0,0.0,0,-6.350042341686001,3.9018601908759,509,7647.8459188127,0.07688569168039,0.0015135031440383,-0.066219811434182,5.307361618018,nan,False,live,nan
03/26/2024-14:40:20.699011 -- 801714,0.3,0.0,0.0,1.0,0.0,0,-6.5920105623144005,4.0558886059536,511,7920.5468409586,0.018816813220639,-0.00074459057654396,-0.044538562705635,5.385378598994,nan,False,live,nan
03/26/2024-14:40:20.734310 -- 801723,0.3,0.0,0.0,1.0,0.0,0,-6.759482761047599,4.2068707372149,513,7673.2538159616,0.021203583868571,-0.014721710503556,0.047516794268016,5.3096728983038,nan,False,live,nan
03/26/2024-14:40:20.768014 -- 801727,0.3,0.0,0.0,1.0,0.0,0,-6.9119311259385,4.168704572003399,515,7813.4810457516,0.03320683765572,-0.014914141918682,-0.0094186834012479,5.2850347481481,nan,False,live,nan
03/26/2024-14:40:20.800297 -- 801736,0.3,0.0,0.0,1.0,0.0,0,-7.0813466973768,4.2886363849302,517,7871.3840453357,0.014439846412068,0.00077516798037618,0.03412081542103,5.2150346304624,nan,False,live,nan
03/26/2024-14:40:20.834603 -- 801756,0.3,0.0,0.0,1.0,0.0,0,-7.176665186217,4.3354810594839,519,7997.8574542284,0.0071083599734945,-0.0046380667634882,0.056278701035098,5.0562652436027,nan,False,live,nan
03/26/2024-14:40:20.865087 -- 801730,0.3,0.0,0.0,1.0,0.0,0,-7.475635383580201,4.611839741109,521,7818.1769063181,0.038033724852928,0.0027860722687556,-0.10172778284835,5.2576319749831,nan,False,live,nan
03/26/2024-14:40:20.900882 -- 801728,0.3,0.0,0.0,1.0,0.0,0,-7.5653561063394,4.6807013744241,523,7955.3413251962,0.026392743093161,0.006079941969033,0.0053393829717715,5.2753194250935,nan,False,live,nan
03/26/2024-14:40:20.935256 -- 801742,0.3,0.0,0.0,1.0,0.0,0,-7.9266064267125005,4.8028880138613,525,7746.8238116005,0.029648125056215,-0.035409736206838,0.078924546624535,5.1620272902702,nan,False,live,nan
03/26/2024-14:40:20.968367 -- 801737,0.3,0.0,0.0,1.0,0.0,0,-8.0220011181687,4.9026063828329995,527,7523.9450741064,0.041413558259484,0.036371905670815,-0.054429321425541,5.1993542754016,nan,False,live,nan
03/26/2024-14:40:21.001855 -- 801740,0.3,0.0,0.0,1.0,0.0,0,-8.250803803257,5.0218323445848005,529,7866.7277486911,0.011559436737058,-0.037041291415744,0.049214189595835,5.1803969904826,nan,False,live,nan
03/26/2024-14:40:21.035568 -- 801742,0.3,0.0,0.0,1.0,0.0,0,-8.3110540939446,5.0201943426441,531,7877.7058823529,0.046057250366031,0.010157659531595,-0.036441344531345,5.1615047572248,nan,False,live,nan
03/26/2024-14:40:21.067403 -- 801733,0.3,0.0,0.0,1.0,0.0,0,-8.6854210313694,5.0984014289373,533,7382.3161796773,0.028370466678804,-0.0018555354762427,-0.058846429775743,5.2343936768567,nan,False,live,nan
03/26/2024-14:40:21.100093 -- 801715,0.3,0.0,0.0,1.0,0.0,0,-8.7787797867975,5.4795614755878,535,7707.8361730013,0.069295499494378,0.047496618331241,-0.038111383324737,5.372641591425,nan,False,live,nan
03/26/2024-14:40:21.133347 -- 801724,0.3,0.0,0.0,1.0,0.0,0,-8.9653472534706,5.5708079914146005,537,7394.7147212544,0.023634553326261,-0.0011037250745279,0.020370675267354,5.3015946598732,nan,False,live,nan
03/26/2024-14:40:21.167120 -- 801733,0.3,0.0,0.0,1.0,0.0,0,-9.217349865419699,5.6351928546666,539,7277.1350174216,0.074808750292955,-0.0188841864012,0.0054791666846601,5.2312585415136,nan,False,live,nan
03/26/2024-14:40:21.200225 -- 801713,0.3,0.0,0.0,1.0,0.0,0,-9.224277622311,5.8595461813827,541,7524.28583878,-0.019558401773947,0.042810604944125,-0.092942413515616,5.3941432411654,nan,False,live,nan
03/26/2024-14:40:21.233469 -- 801712,0.3,0.0,0.0,1.0,0.0,0,-9.33424009818,5.8585319531574,543,7361.1539467946,0.026696960102207,-0.023701939586717,0.029106532089151,5.3978415689727,nan,False,live,nan
03/26/2024-14:40:21.268132 -- 801718,0.3,0.0,0.0,1.0,0.0,0,-9.5463608186094,6.058423459559401,545,7368.8427015251,0.065813223581351,0.0016247363543893,0.022316853784478,5.3522576609712,nan,False,live,nan
03/26/2024-14:40:21.300155 -- 801722,0.3,0.0,0.0,1.0,0.0,0,-9.7536273290655,6.1348783323624,547,7482.5605928509,0.032466943868258,-0.013345970446297,0.017422282570071,5.3235264542839,nan,False,live,nan
03/26/2024-14:40:21.335134 -- 801731,0.3,0.0,0.0,1.0,0.0,0,-9.9454649016528,6.2905752122475,549,7527.4136878814,0.016696964635873,0.0062721999929452,0.019191139041506,5.2494789138865,nan,False,live,nan
03/26/2024-14:40:21.367058 -- 801729,0.3,0.0,0.0,1.0,0.0,0,-10.1819019058596,6.530866775712299,551,7706.141673932,0.063595797367178,0.019421505843755,-0.068743394919489,5.2693115952667,nan,False,live,nan
03/26/2024-14:40:21.399960 -- 801709,0.3,0.0,0.0,1.0,0.0,0,-10.2249297493152,6.7226824789896,553,8184.9191786806,0.014820694942231,0.0075631500855078,-0.051184015514345,5.4211598493258,nan,False,live,nan
03/26/2024-14:40:21.433999 -- 801707,0.3,0.0,0.0,1.0,0.0,0,-10.4029778100177,6.8568608731107,555,7779.5426322693,0.025098441470692,-0.0030991006576862,-0.00080011536351343,5.4366985121889,nan,False,live,nan
03/26/2024-14:40:21.465283 -- 801712,0.3,0.0,0.0,1.0,0.0,0,-10.6334208400767,7.1393756860239,557,8345.6817576565,0.060349639428014,0.010296228751968,0.0055984257084925,5.401106855423,nan,False,live,nan
03/26/2024-14:40:21.484518 -- 801714,0.3,0.0,0.0,1.0,0.0,0,-10.6776179606634,7.2409392971604,558,7929.550044287,0.032746582074905,0.017054760614293,0.017058042315957,5.384048813107,nan,False,live,nan
03/26/2024-14:40:21.517028 -- 801704,0.3,0.0,0.0,1.0,0.0,0,-10.853533724236799,7.380255095530201,560,7989.4501550731,0.035726181953904,0.018852238245421,-0.054185620319699,5.4613410287544,nan,False,live,nan
03/26/2024-14:40:21.548192 -- 801691,0.3,0.0,0.0,1.0,0.0,0,-10.9680482998212,7.386818694295799,562,7482.6261101243,0.021067686000477,-0.007436274709106,-0.04280874018283,5.5622095889357,nan,False,live,nan
03/26/2024-14:40:21.584413 -- 801685,0.3,0.0,0.0,1.0,0.0,0,-11.2108754047464,7.812960384947701,564,7703.9069662921,0.080241722817106,0.018055480297307,0.013386515809512,5.6108927753949,nan,False,live,nan
03/26/2024-14:40:21.618056 -- 801677,0.3,0.0,0.0,1.0,0.0,0,-11.1430226471004,7.8439610523639,566,7901.3355379189,-0.0087647094774822,0.013779123715992,-0.050737865968003,5.6755184645285,nan,False,live,nan
03/26/2024-14:40:21.651062 -- 801659,0.3,0.0,0.0,1.0,0.0,0,-11.3146323571824,8.264042796549,568,8375.6696629213,0.022249121107662,-0.012388314844098,-0.069951436050158,5.8185122735566,nan,False,live,nan
03/26/2024-14:40:21.684455 -- 801664,0.3,0.0,0.0,1.0,0.0,0,-11.5450526299566,8.4140270344197,570,8212.7565526433,0.048640734246605,-0.023036078488637,0.037120634004118,5.7804155556386,nan,False,live,nan
03/26/2024-14:40:21.716167 -- 801677,0.3,0.0,0.0,1.0,0.0,0,-11.6328796594914,8.6733457488957,572,8572.1717763751,0.05607676315535,-0.012046545908131,0.055701942455966,5.6779436800426,nan,False,live,nan
03/26/2024-14:40:21.751388 -- 801669,0.3,0.0,0.0,1.0,0.0,0,-11.8810978396287,8.8336885528986,574,8592.9887741356,0.05148188607902,-0.047789079923392,-0.05542734272594,5.7356150497527,nan,False,live,nan
03/26/2024-14:40:21.783983 -- 801644,0.3,0.0,0.0,1.0,0.0,0,-11.9572540332972,9.2884141750422,576,9377.5307588684,0.044638201923544,0.062387336423825,-0.12573367955953,5.930051061595,nan,False,live,nan
03/26/2024-14:40:21.816018 -- 801655,0.3,0.0,0.0,1.0,0.0,0,-12.260772992403602,9.526489125639,578,9142.6023391813,0.084923973150913,-0.025984165934464,0.064847933803353,5.8484180795912,nan,False,live,nan
03/26/2024-14:40:21.850386 -- 801681,0.3,0.0,0.0,1.0,0.0,0,-12.505225778937898,9.695088049545,580,8915.0731707317,0.037443920550452,-0.030784107121744,0.10517995265697,5.6440851728205,nan,False,live,nan
03/26/2024-14:40:21.883949 -- 801694,0.3,0.0,0.0,1.0,0.0,0,-12.5821396146393,9.7102419843639,582,8738.7967586509,0.0023725138240142,-0.0027264499912269,0.044596271240003,5.5387530426681,nan,False,live,nan
03/26/2024-14:40:21.917073 -- 801689,0.3,0.0,0.0,1.0,0.0,0,-12.5880424677351,9.752436207732899,584,8837.6459246275,0.0075919376501399,0.014143853810842,-0.040179830079917,5.5773596929599,nan,False,live,nan
03/26/2024-14:40:21.949177 -- 801686,0.3,0.0,0.0,1.0,0.0,0,-12.6184357786359,9.891984834585301,586,8438.0532751092,0.016843228536836,0.002619058455547,-0.044747101190476,5.6060283906923,nan,False,live,nan
03/26/2024-14:40:21.968597 -- 801680,0.3,0.0,0.0,1.0,0.0,0,-12.5666974754289,10.0035387473889,587,8777.5754799302,0.018955273660587,0.03634641682796,-0.042681675000914,5.6487100656932,nan,False,live,nan
03/26/2024-14:40:22.000547 -- 801682,0.3,0.0,0.0,1.0,0.0,0,-12.8266240359471,10.174787238089701,589,8880.5599300087,0.051723794788391,-0.03399868504734,0.0028650770122692,5.6362552500506,nan,False,live,nan
03/26/2024-14:40:22.033025 -- 801677,0.3,0.0,0.0,1.0,0.0,0,-12.875852754224098,10.3741110016998,591,8614.8680313589,0.033546971232058,0.012393570210231,-0.0093399512049895,5.6746411663087,nan,False,live,nan
03/26/2024-14:40:22.063786 -- 801674,0.3,0.0,0.0,1.0,0.0,0,-13.064110719157501,10.4542602376227,593,9005.2466230937,0.039892219038703,-0.022298433916909,-0.0083601781694096,5.6999796160477,nan,False,live,nan
03/26/2024-14:40:22.083249 -- 801678,0.3,0.0,0.0,1.0,0.0,0,-13.1081640426336,10.5705694827654,594,8776.9089721254,0.040275774286605,0.0098371908200377,0.036826590685681,5.663153025362,nan,False,live,nan
03/26/2024-14:40:22.118933 -- 801695,0.3,0.0,0.0,1.0,0.0,0,-13.276514357789399,10.7848154689488,596,8842.68728223,0.03154469849333,-0.011459621094799,0.082983441749355,5.5347103920123,nan,False,live,nan
03/26/2024-14:40:22.150680 -- 801702,0.3,0.0,0.0,1.0,0.0,0,-13.3899650854338,10.858519068535799,598,9040.881533101,0.021286519485986,-0.0065760880576771,-0.018328942136209,5.4800667556731,nan,False,live,nan
03/26/2024-14:40:22.184638 -- 801680,0.3,0.0,0.0,1.0,0.0,0,-13.584072216031501,11.252469136101,600,9693.9141986063,0.081747739733217,0.032015812847382,-0.12268637653948,5.6484154304873,nan,False,live,nan
03/26/2024-14:40:22.218311 -- 801674,0.3,0.0,0.0,1.0,0.0,0,-13.748975866121402,11.4689532139341,602,9038.3571428571,0.04450115837894,-0.015683531919608,0.0095859113351996,5.6944679224252,nan,False,live,nan
03/26/2024-14:40:22.249115 -- 801687,0.3,0.0,0.0,1.0,0.0,0,-13.9774199113842,11.5879127517033,604,9084.7519616391,0.029970963072418,-0.02226228510604,0.058859613217536,5.5998544472438,nan,False,live,nan
03/26/2024-14:40:22.283790 -- 801707,0.3,0.0,0.0,1.0,0.0,0,-14.0958681719145,11.8251920770152,606,9074.7185185185,0.025195437895633,0.031300734106379,0.08785163720503,5.4358250558425,nan,False,live,nan
03/26/2024-14:40:22.315679 -- 801734,0.3,0.0,0.0,1.0,0.0,0,-14.3973381900942,11.8168752910209,608,8079.7830065359,0.059902562195057,-0.053070688775598,0.087972976397957,5.2300740503777,nan,False,live,nan
03/26/2024-14:40:22.348304 -- 801740,0.3,0.0,0.0,1.0,0.0,0,-14.546310782304001,11.8865768714214,610,8138.6410815526,0.019905748634135,0.021562258569196,-0.0014995216126146,5.1766230984235,nan,False,live,nan
03/26/2024-14:40:22.381957 -- 801737,0.3,0.0,0.0,1.0,0.0,0,-14.7509383438368,11.9195199087729,612,7823.3675958188,0.023719873205052,-0.018861083047692,-0.0038828872480943,5.202271404095,nan,False,live,nan
03/26/2024-14:40:22.416218 -- 801743,0.3,0.0,0.0,1.0,0.0,0,-14.915859156794399,11.9622946770636,614,7682.8645470383,0.025433322199642,0.00588079952795,0.035038381595028,5.1532464712663,nan,False,live,nan
03/26/2024-14:40:22.449778 -- 801751,0.3,0.0,0.0,1.0,0.0,0,-15.136234201240502,11.9799540471402,616,6745.668989547,0.032134391333525,-0.0094015154412839,0.032063198034441,5.0928993362145,nan,False,live,nan
03/26/2024-14:40:22.482888 -- 801752,0.3,0.0,0.0,1.0,0.0,0,-15.1073397569184,12.000792451825799,618,6813.2793028322,-0.0013634802272102,0.008066477301763,-0.019144998499736,5.0890289077626,nan,False,live,nan
03/26/2024-14:40:22.516864 -- 801747,0.3,0.0,0.0,1.0,0.0,0,-15.089933124557401,11.9843314013145,620,7196.9481481481,-0.002172967379443,-0.0039319817030327,-0.025320307348978,5.1215688297402,nan,False,live,nan
03/26/2024-14:40:22.550168 -- 801745,0.3,0.0,0.0,1.0,0.0,0,-15.057933693735901,11.9903103923172,622,6920.1120313862,-0.0043308908690835,-0.00020251756788071,-0.0074123517246577,5.1391162771205,nan,False,live,nan
03/26/2024-14:40:22.584299 -- 801745,0.3,0.0,0.0,1.0,0.0,0,-15.044704650102599,11.9859565358178,624,6453.4207317073,-0.016379896468473,-0.0087189237187587,0.010949191168994,5.141145352738,nan,False,live,nan
03/26/2024-14:40:22.617350 -- 801742,0.3,0.0,0.0,1.0,0.0,0,-14.982754280538,12.044939483248502,626,6813.8170731707,-0.0076077924557568,0.013673935290165,0.0012663387608329,5.1672840672149,nan,False,live,nan
03/26/2024-14:40:22.648835 -- 801735,0.3,0.0,0.0,1.0,0.0,0,-14.902316178942602,12.059344393187999,628,7262.1769063181,-0.0073612250508189,0.0025365117288958,-0.026479061726412,5.2198303968344,nan,False,live,nan
03/26/2024-14:40:22.685764 -- 801733,0.3,0.0,0.0,1.0,0.0,0,-14.889213010701898,12.066410364753299,630,6875.5263846489,0.0039428830276003,0.0051948225594342,-0.00429274784492,5.2313547244115,nan,False,live,nan
03/26/2024-14:40:22.718365 -- 801733,0.3,0.0,0.0,1.0,0.0,0,-14.810639185536001,12.014500635923401,632,7100.1825708061,-0.0065550399035175,0.0034760985568549,-0.0022773250632713,5.2361961658715,nan,False,live,nan
03/26/2024-14:40:22.751382 -- 801729,0.3,0.0,0.0,1.0,0.0,0,-14.7083566093167,12.0079021373592,634,7585.8358013937,-0.019220530183987,0.013048253548364,-0.021640268737851,5.2622273940113,nan,False,live,nan
03/26/2024-14:40:22.785066 -- 801719,0.3,0.0,0.0,1.0,0.0,0,-14.602737352503901,11.9988453646413,636,8135.7808278867,-0.0051927563305436,0.0026802002957995,-0.043178481189777,5.3415656231552,nan,False,live,nan
03/26/2024-14:40:22.816567 -- 801715,0.3,0.0,0.0,1.0,0.0,0,-14.5228940987157,11.937171098572799,638,7852.0971254355,-0.013028669713709,0.0056554739286194,-0.02370022001888,5.3788971348595,nan,False,live,nan
03/26/2024-14:40:22.849144 -- 801715,0.3,0.0,0.0,1.0,0.0,0,-14.476734704868601,11.9348673184491,640,7857.6072362685,-0.0063430805661858,0.0050625653610784,0.0012198554114209,5.3744588697894,nan,False,live,nan
03/26/2024-14:40:22.882580 -- 801715,0.3,0.0,0.0,1.0,0.0,0,-14.424157705640999,11.8959714338916,642,7627.9620584387,-0.011185506403386,0.00039301894490775,-0.0040907902404608,5.3777299158246,nan,False,live,nan
03/26/2024-14:40:22.916960 -- 801713,0.3,0.0,0.0,1.0,0.0,0,-14.3354986064004,11.8743535859367,644,7547.5522648084,-0.011060704003124,0.021832482040514,-0.0092627282260526,5.3902704391881,nan,False,live,nan
03/26/2024-14:40:22.947967 -- 801710,0.3,0.0,0.0,1.0,0.0,0,-14.328759005837398,11.869602624798901,646,7656.5490196078,0.0050531015875627,-0.0023692586658005,-0.019060114242692,5.4172433068699,nan,False,live,nan
03/26/2024-14:40:22.982277 -- 801707,0.3,0.0,0.0,1.0,0.0,0,-14.2879985680515,11.8733152478493,648,7710.0278867102,-0.0010433537696304,0.0071860773612233,-0.016258985746759,5.4417796696469,nan,False,live,nan
03/26/2024-14:40:23.018713 -- 801709,0.3,0.0,0.0,1.0,0.0,0,-14.2870215498921,11.797871338803,650,7783.3052769298,-0.004522363493863,-0.015575408180748,0.030243355254528,5.4216516229931,nan,False,live,nan
03/26/2024-14:40:23.049140 -- 801714,0.3,0.0,0.0,1.0,0.0,0,-14.1957841899045,11.7593580592332,652,7360.1241830065,-0.016721812182582,0.010640846969239,0.023722247882733,5.3859711763531,nan,False,live,nan
03/26/2024-14:40:23.081692 -- 801715,0.3,0.0,0.0,1.0,0.0,0,-14.122934608690201,11.6974097971383,654,7540.8117647059,-0.026601131476163,0.0027289758851406,0.0017166561358046,5.3790320323593,nan,False,live,nan
03/26/2024-14:40:23.116557 -- 801706,0.3,0.0,0.0,1.0,0.0,0,-14.039593797814799,11.6569431816735,656,7353.8948975142,-0.0052065655142538,-0.0012258950362429,-0.044834113624132,5.4486655663057,nan,False,live,nan
03/26/2024-14:40:23.148676 -- 801689,0.3,0.0,0.0,1.0,0.0,0,-13.884861410282099,11.5944605457018,658,7266.9843137255,-0.027845341400215,0.0069380871165804,-0.079457069058162,5.5765751187519,nan,False,live,nan
03/26/2024-14:40:23.167803 -- 801678,0.3,0.0,0.0,1.0,0.0,0,-13.8768923856225,11.5533324153276,659,7310.4849279161,-0.012448551608964,-0.0063369302421943,-0.088719636340093,5.665294755092,nan,False,live,nan
03/26/2024-14:40:23.197953 -- 801650,0.3,0.0,0.0,1.0,0.0,0,-13.8292236453699,11.5553756545101,661,8083.099869167,-0.0073587994192612,0.01334962476574,-0.11119843078465,5.8877074852249,nan,False,live,nan
03/26/2024-14:40:23.233915 -- 801628,0.3,0.0,0.0,1.0,0.0,0,-13.5352999791561,11.1137418494511,663,9107.2085514834,-0.11602452387097,0.037905522060138,-0.082472589505251,6.0556071233707,nan,False,live,nan
03/26/2024-14:40:23.267009 -- 801607,0.3,0.0,0.0,1.0,0.0,0,-13.590199436745301,10.8965351585121,665,9029.5026132404,0.024584891768946,0.0023283775102235,-0.093702332762838,6.2269858243899,nan,False,live,nan
03/26/2024-14:40:23.298035 -- 801583,0.3,0.0,0.0,1.0,0.0,0,-13.3260826745886,10.942690230652499,667,9335.4568439407,-0.0052919871500278,0.033500302847847,-0.054662771825957,0.13185799411702,nan,False,live,nan
03/26/2024-14:40:23.316728 -- 801579,0.3,0.0,0.0,1.0,0.0,0,-13.3209441161901,10.954213666920001,668,9170.3018292683,0.0040510201149876,0.0011308432051656,-0.030758581109017,0.16261657522603,nan,False,live,nan
03/26/2024-14:40:23.350152 -- 801583,0.3,0.0,0.0,1.0,0.0,0,-13.2793731344895,10.845986827236299,670,9310.7909407666,-0.011593543872875,0.00090193653295736,-0.0021287915605104,0.13103015253311,nan,False,live,nan
03/26/2024-14:40:23.384680 -- 801567,0.3,0.0,0.0,1.0,0.0,0,-13.2408280875849,10.8314933388828,672,10004.850174216,-0.00010671273833381,0.0013165551540584,-0.11104409235191,0.25335763206814,nan,False,live,nan
03/26/2024-14:40:23.417387 -- 801550,0.3,0.0,0.0,1.0,0.0,0,-13.0218038225286,10.8105170493441,674,9522.8671602787,0.013448790644435,0.039366447216775,-0.065094112162567,0.39006587139231,nan,False,live,nan
